timestamp_ms,dt_ms,pos_x,pos_y,pos_z,vel_x,vel_y,vel_z,roll_deg,pitch_deg,yaw_deg,gyro_bias_x,gyro_bias_y,gyro_bias_z,accel_bias_x,accel_bias_y,accel_bias_z,raw_accel_x,raw_accel_y,raw_accel_z,raw_gyro_x,raw_gyro_y,raw_gyro_z,raw_mag_x,raw_mag_y,raw_mag_z,raw_baro_alt,raw_tof,raw_flow_squal,raw_flow_dx,raw_flow_dy,dev_pos_x,dev_pos_y,dev_pos_z,dev_vel_x,dev_vel_y,dev_vel_z,dev_roll_deg,dev_pitch_deg,dev_yaw_deg
11327,10.0,-0.000460,-0.000050,-0.316938,-0.047631,-0.000489,-0.001187,-0.0058,0.0089,0.0010,0.00000000,0.00000000,-0.13171183,-0.00151348,0.00339969,0.00000000,-0.3293,0.8976,-9.8495,-0.006445,-0.001856,-0.022963,26.1084,16.4875,33.7145,-3.3768,0.3170,111,-1,0,-0.002872,-0.000981,-0.316721,-0.014061,0.003677,0.007945,-2.8117,-2.0271,1.4500
11338,11.0,-0.001010,-0.000649,-0.316946,-0.051476,-0.022410,-0.000393,-0.2804,-0.0043,0.0070,0.00000053,0.00000007,-0.13171184,-0.00151007,0.00376802,0.00000004,-0.3261,0.9189,-9.7298,-0.028913,0.006086,-0.009972,26.1084,16.4875,33.7145,-3.3768,0.3180,101,-1,-1,-0.003321,-0.000975,-0.317053,-0.018827,0.004629,0.002869,-2.8699,-1.9620,1.5617
11349,11.0,-0.001055,-0.001257,-0.315051,-0.036763,-0.027499,0.084485,-0.5363,-0.3199,-0.0185,0.00000126,0.00000102,-0.13171178,-0.00209532,0.00421160,-0.00005009,-0.3580,0.8705,-9.6397,-0.023997,0.006939,-0.003052,26.1084,17.5681,34.5420,-3.3768,0.3180,112,0,-1,-0.003775,-0.001461,-0.317024,-0.023041,0.000321,0.003160,-2.9145,-1.9084,1.7345
11361,12.0,-0.001060,-0.001326,-0.317924,-0.027891,-0.014151,-0.028605,-0.3954,-0.7651,-0.0378,0.00000082,0.00000301,-0.13171160,-0.00284123,0.00386501,0.00004627,-0.4203,0.7224,-9.8293,0.007949,-0.012069,-0.016042,26.1084,17.5681,34.5420,-3.3768,0.3180,110,0,0,-0.003834,-0.001941,-0.316882,-0.018181,-0.002028,0.005535,-2.9423,-2.0572,1.8337
11372,11.0,-0.001052,-0.001350,-0.318137,-0.022644,-0.004491,-0.027651,-0.2773,-1.1486,-0.0324,0.00000021,0.00000520,-0.13171141,-0.00352762,0.00367582,0.00000903,-0.4606,0.7286,-9.9777,0.019696,-0.009696,-0.032908,26.1084,17.5681,34.5420,-3.3768,0.3170,108,0,0,-0.003822,-0.001921,-0.316562,-0.015564,-0.000619,0.008002,-2.8676,-2.1562,1.8559
11384,12.0,-0.001170,-0.001384,-0.318476,-0.020648,0.003917,-0.028715,-0.3720,-1.3760,-0.0153,0.00000115,0.00000700,-0.13171129,-0.00393885,0.00376474,0.00001465,-0.4071,0.8599,-9.8787,0.005144,0.014278,-0.031572,26.1084,17.5681,34.5420,-3.3768,0.3170,110,0,0,-0.003848,-0.001880,-0.316387,-0.012438,0.003367,0.005307,-2.6953,-2.2943,1.9222
11395,11.0,-0.001297,-0.001327,-0.317171,-0.017733,0.011809,0.000647,-0.3454,-1.4987,-0.0100,0.00000141,0.00000821,-0.13171120,-0.00421578,0.00387005,-0.00094991,-0.1990,0.8416,-9.7623,0.067762,0.010307,-0.052410,26.1084,17.5681,34.5420,-3.3768,0.3170,113,0,0,-0.003985,-0.001880,-0.316260,-0.012683,0.007283,0.006153,-2.5742,-2.3053,1.9845
11406,11.0,-0.001429,-0.001217,-0.317156,-0.015934,0.020599,0.002236,-0.4500,-1.5924,-0.0051,0.00000344,0.00000927,-0.13171114,-0.00440023,0.00409317,-0.00094640,-0.2501,1.0900,-9.6450,0.097891,0.007603,-0.017675,26.1084,17.5681,34.5420,-3.3768,0.3180,113,0,0,-0.004094,-0.001791,-0.316199,-0.011671,0.009660,0.006465,-2.5186,-2.2934,1.9897
11417,11.0,-0.001479,-0.001529,-0.317031,-0.011122,0.014806,0.004716,-1.3536,-1.7827,0.0079,0.00001560,0.00001163,-0.13171117,-0.00475115,0.00588713,-0.00111667,-0.1283,1.0616,-9.6446,0.081022,-0.010699,0.018109,26.1084,17.5681,34.5420,-3.3768,0.3180,123,0,-1,-0.004249,-0.001549,-0.316978,-0.008214,0.019488,-0.000150,-2.3468,-2.3150,2.0591
11428,11.0,-0.001476,-0.001464,-0.317527,-0.007115,0.017580,-0.002386,-1.6167,-1.9882,-0.0094,0.00001996,0.00001453,-0.13171095,-0.00509585,0.00624465,-0.00003936,-0.2646,0.8983,-9.7309,0.030584,-0.013888,0.024484,26.1084,17.5681,34.5420,-3.3768,0.3180,120,0,0,-0.004259,-0.001889,-0.316976,-0.005112,0.017877,0.001077,-2.2820,-2.3574,2.1721
11439,11.0,-0.001836,-0.001813,-0.317514,-0.015041,0.006095,-0.003370,-2.4836,-1.5600,0.0492,0.00003547,0.00000680,-0.13171208,-0.00428208,0.00790339,-0.00024428,-0.3313,0.7135,-9.8829,0.015947,-0.020037,0.025388,26.1084,17.5681,34.5420,-3.3768,0.3160,117,-1,-1,-0.004602,-0.002214,-0.316016,-0.007234,0.014770,0.011452,-2.2316,-2.3509,2.4002
11450,11.0,-0.001856,-0.001796,-0.317567,-0.011275,0.006714,-0.005747,-2.5923,-1.7804,-0.0065,0.00003791,0.00001139,-0.13171177,-0.00468770,0.00806293,-0.00023263,-0.3212,0.6785,-9.9918,0.002366,-0.007032,0.007410,26.8960,17.5756,32.8640,-3.4878,0.3160,121,0,0,-0.004531,-0.002179,-0.315912,-0.004901,0.014572,0.009720,-2.1735,-2.4040,2.4494
11462,12.0,-0.001990,-0.001766,-0.316249,-0.010480,0.009400,0.008766,-2.5628,-1.7463,-0.0001,0.00003864,0.00001129,-0.13171180,-0.00482502,0.00854448,-0.00593904,-0.2268,0.7358,-9.9758,0.026876,0.019610,-0.013498,26.8960,17.5756,32.8640,-3.4878,0.3160,122,0,0,-0.004499,-0.002164,-0.315722,-0.002951,0.015386,0.008905,-2.0715,-2.4507,2.5275
11473,11.0,-0.002144,-0.001695,-0.316159,-0.010559,0.012215,0.007766,-2.6198,-1.6666,0.0027,0.00004136,0.00000949,-0.13171197,-0.00472278,0.00865298,-0.00594674,-0.1964,0.8645,-9.8712,0.048422,0.024773,-0.008574,26.8960,17.5756,32.8640,-3.4878,0.3170,124,0,0,-0.004710,-0.002074,-0.316102,-0.002069,0.018910,-0.000283,-1.9018,-2.4295,2.6675
11484,11.0,-0.002234,-0.002019,-0.315974,-0.008614,0.003711,0.009124,-3.1456,-1.6795,0.0078,0.00006013,0.00001024,-0.13171229,-0.00478402,0.00977882,-0.00664946,-0.1567,0.8452,-9.7455,0.055094,0.006439,0.006099,26.8960,17.5756,32.8640,-3.4878,0.3170,116,0,-1,-0.004837,-0.001994,-0.316111,-0.002052,0.021039,-0.001096,-1.8579,-2.3922,2.5969
11495,11.0,-0.002253,-0.002342,-0.316184,-0.005081,-0.003676,0.006269,-3.5399,-1.7497,0.0006,0.00007680,0.00001262,-0.13171232,-0.00488772,0.01042459,-0.00472317,-0.1195,0.8000,-9.6983,0.070976,-0.013174,0.013037,26.8960,17.5756,32.8640,-3.4878,0.3170,116,0,-1,-0.004903,-0.002361,-0.316123,-0.000508,0.018327,-0.001002,-1.7857,-2.4056,2.7100
11506,11.0,-0.002264,-0.002278,-0.316028,-0.002751,0.000307,0.008080,-3.3969,-1.7886,-0.0013,0.00007244,0.00001427,-0.13171212,-0.00497431,0.01027965,-0.00532317,-0.1744,0.7488,-9.7163,0.072719,-0.012378,0.008139,26.8960,17.5756,32.8640,-3.4878,0.3160,120,0,0,-0.004879,-0.002599,-0.315988,0.003748,0.018352,0.002617,-1.6171,-2.4314,2.8334
11517,11.0,-0.002357,-0.002252,-0.315936,-0.004043,0.001433,0.008577,-3.3679,-1.7127,0.0002,0.00007169,0.00001120,-0.13171233,-0.00486034,0.01023354,-0.00532580,-0.2848,0.6499,-9.7458,0.025033,0.018407,0.015268,26.8960,17.5756,32.8640,-3.4878,0.3160,116,0,0,-0.004867,-0.002486,-0.315657,0.004998,0.020717,0.006810,-1.5316,-2.4279,2.8620
11528,11.0,-0.002453,-0.002263,-0.315496,-0.005765,0.001091,0.012337,-3.3815,-1.6541,-0.0002,0.00007266,0.00000896,-0.13171251,-0.00485380,0.01048838,-0.00827058,-0.3547,0.5896,-9.8208,-0.010014,0.023688,-0.004310,26.8960,17.5756,32.8640,-3.4508,0.3160,119,0,0,-0.005032,-0.002408,-0.315513,0.003445,0.022382,0.007564,-1.3613,-2.4175,3.0425
11539,11.0,-0.002533,-0.002301,-0.315371,-0.007160,0.001009,0.010629,-3.4528,-1.6289,0.0018,0.00007604,0.00000863,-0.13171266,-0.00482363,0.01056429,-0.00828297,-0.3993,0.7132,-9.9403,-0.035106,0.022544,-0.012760,27.6863,16.1347,33.6915,-3.4508,0.3160,112,0,0,-0.005122,-0.002411,-0.315502,0.002158,0.022868,0.006519,-1.2730,-2.4186,3.1397
11550,11.0,-0.002701,-0.002337,-0.315178,-0.009993,0.002591,0.010075,-3.5130,-1.5375,0.0016,0.00007953,0.00000390,-0.13171314,-0.00472609,0.01071516,-0.00914077,-0.3767,0.8741,-9.9221,-0.026031,0.042488,-0.008533,27.6863,16.1347,33.6915,-3.4508,0.3160,108,0,0,-0.005193,-0.002424,-0.315446,0.000968,0.023223,0.005148,-1.2641,-2.4211,3.2021
11561,11.0,-0.002907,-0.002308,-0.315197,-0.012327,0.005850,0.008691,-3.5196,-1.4430,0.0014,0.00008144,-0.00000178,-0.13171366,-0.00456408,0.01062408,-0.00788699,-0.2941,0.9591,-9.7586,0.027199,0.042008,-0.005185,27.6863,16.1347,33.6915,-3.4508,0.3160,115,0,0,-0.005488,-0.002452,-0.315280,-0.002524,0.027465,0.004137,-1.1944,-2.3924,3.3587
11572,11.0,-0.003056,-0.002192,-0.315036,-0.012968,0.010527,0.009380,-3.4377,-1.4214,-0.0006,0.00007947,-0.00000250,-0.13171366,-0.00456772,0.01063603,-0.00855954,-0.2888,0.9781,-9.7846,0.100915,0.015383,-0.000815,27.6863,16.1347,33.6915,-3.4508,0.3150,112,0,0,-0.005678,-0.002420,-0.315237,-0.003996,0.031422,0.004595,-1.0819,-2.3823,3.4668
11583,11.0,-0.003205,-0.002047,-0.314943,-0.013597,0.013275,0.007591,-3.3632,-1.4070,-0.0004,0.00007890,-0.00000252,-0.13171363,-0.00455822,0.01059015,-0.00855931,-0.3061,0.8317,-9.9457,0.110843,0.013349,0.011162,27.6863,16.1347,33.6915,-3.4508,0.3150,117,0,0,-0.005984,-0.002158,-0.314720,-0.005397,0.038817,0.008083,-0.8580,-2.3752,3.2576
11594,11.0,-0.003492,-0.001955,-0.314547,-0.016875,0.013335,0.012065,-3.3558,-1.2941,0.0031,0.00008285,-0.00001205,-0.13171457,-0.00449760,0.01089558,-0.01172171,-0.2998,0.6856,-9.7203,0.056419,0.055769,0.021600,27.6863,16.1347,33.6915,-3.4297,0.3150,110,0,0,-0.006150,-0.002025,-0.314564,-0.006144,0.040393,0.007969,-0.7906,-2.3645,3.3249
11605,11.0,-0.003814,-0.002284,-0.314403,-0.019418,0.004237,0.014561,-3.5569,-1.1819,0.0091,0.00011825,-0.00002219,-0.13171645,-0.00435485,0.01141263,-0.01183093,-0.2110,0.5782,-9.5699,0.063140,0.060607,0.005595,27.6863,16.1347,33.6915,-3.4297,0.3160,114,0,-1,-0.006419,-0.001942,-0.314482,-0.008112,0.041501,0.008698,-0.6670,-2.3446,3.4531
11616,11.0,-0.003984,-0.002202,-0.314152,-0.018358,0.005158,0.017989,-3.5017,-1.1837,-0.0001,0.00011552,-0.00001890,-0.13171613,-0.00442117,0.01143955,-0.01263889,-0.1783,0.6302,-9.5759,0.063067,0.021094,-0.006185,27.6863,16.1347,33.6915,-3.4297,0.3160,104,0,0,-0.006904,-0.002631,-0.315121,-0.009307,0.031622,0.004526,-0.5396,-2.2918,3.6637
11627,11.0,-0.004099,-0.002582,-0.314724,-0.015337,-0.001718,0.011379,-3.6852,-1.2052,-0.0008,0.00015320,-0.00001279,-0.13171636,-0.00430412,0.01126768,-0.00477822,-0.0556,0.7284,-9.5432,0.041561,0.010442,-0.000543,27.6863,16.1347,33.6915,-3.4297,0.3160,107,0,-1,-0.007041,-0.002535,-0.315066,-0.008414,0.033060,0.006936,-0.4632,-2.2791,3.6940
11638,11.0,-0.004153,-0.002554,-0.314530,-0.011812,-0.000143,0.013812,-3.6495,-1.2440,0.0018,0.00014945,-0.00000383,-0.13171567,-0.00442086,0.01127244,-0.00538534,-0.0582,0.7042,-9.6369,0.030221,-0.000872,0.000348,27.6863,16.1347,33.6915,-3.4297,0.3130,101,0,0,-0.007108,-0.002915,-0.314886,-0.005667,0.030248,0.010758,-0.3768,-2.3014,3.7889
11649,11.0,-0.004082,-0.002600,-0.314382,-0.007834,-0.000949,0.013179,-3.6935,-1.3267,0.0027,0.00015342,0.00001373,-0.13171451,-0.00460829,0.01131120,-0.00539041,-0.1719,0.6360,-9.8520,-0.039017,-0.018494,0.016888,26.5089,15.7521,34.1743,-3.4297,0.3130,107,0,0,-0.007113,-0.002834,-0.313278,0.000019,0.034754,0.027579,-0.2281,-2.3330,3.8694
11660,11.0,-0.003810,-0.002698,-0.313098,-0.002051,-0.003573,0.022748,-3.7694,-1.4929,0.0108,0.00015952,0.00004816,-0.13171253,-0.00518851,0.01223173,-0.01690193,-0.2845,0.5414,-10.1905,-0.084250,-0.058212,0.019193,26.5089,15.7521,34.1743,-3.4297,0.3130,107,0,0,-0.006996,-0.002842,-0.312930,0.002827,0.034987,0.027942,-0.2209,-2.3599,3.8969
11671,11.0,-0.003529,-0.002795,-0.312885,0.002457,-0.005447,0.016084,-3.8399,-1.6325,0.0124,0.00016475,0.00007906,-0.13171090,-0.00540777,0.01226933,-0.01690772,-0.3433,0.6071,-10.4110,-0.078276,-0.056978,0.010751,26.5089,15.7521,34.1743,-3.5037,0.3150,107,0,0,-0.006732,-0.002890,-0.312666,0.006827,0.034761,0.025010,-0.1765,-2.4362,3.9734
11682,11.0,-0.003931,-0.002824,-0.312641,-0.004620,-0.003564,0.010415,-3.8409,-1.4854,-0.0143,0.00016230,0.00003347,-0.13171366,-0.00516499,0.01232965,-0.01795048,-0.2878,0.8478,-10.4224,-0.010794,-0.007860,-0.007839,26.5089,15.7521,34.1743,-3.5037,0.3150,105,-1,0,-0.006665,-0.003006,-0.313712,0.007144,0.035838,-0.000737,-0.0728,-2.5294,3.8284
11693,11.0,-0.004075,-0.002804,-0.313464,-0.005757,-0.000016,-0.006100,-3.8127,-1.4313,-0.0017,0.00015831,0.00002273,-0.13171433,-0.00491312,0.01169896,-0.00931347,-0.2317,0.9655,-10.3060,0.030891,0.027354,-0.007083,26.5089,15.7521,34.1743,-3.5037,0.3150,105,0,0,-0.006610,-0.003006,-0.313750,0.008040,0.039038,-0.006729,0.0104,-2.5638,3.9112
11704,11.0,-0.004303,-0.002749,-0.313464,-0.007883,0.003273,-0.007351,-3.7682,-1.3458,-0.0011,0.00015351,0.00000336,-0.13171571,-0.00484360,0.01173187,-0.01008666,-0.1993,0.9152,-9.9827,0.053878,0.043497,0.014915,26.5089,15.7521,34.1743,-3.5037,0.3140,113,0,0,-0.006880,-0.002926,-0.313744,0.005881,0.047599,-0.012957,0.2275,-2.5602,4.1113
11715,11.0,-0.004522,-0.002637,-0.313547,-0.008963,0.006116,-0.007740,-3.6930,-1.2764,-0.0006,0.00014615,-0.00001349,-0.13171685,-0.00478438,0.01167261,-0.01008027,-0.1312,0.8215,-9.8231,0.093539,0.034039,0.027550,26.5089,15.7521,34.1743,-3.5037,0.3140,120,0,0,-0.007090,-0.002852,-0.313798,0.004324,0.051617,-0.013452,0.3493,-2.5474,4.2297
11726,11.0,-0.005256,-0.002498,-0.313386,-0.018966,0.007315,-0.004571,-3.6075,-1.0617,-0.0047,0.00013691,-0.00009178,-0.13172255,-0.00451079,0.01179507,-0.01232044,-0.2213,0.6473,-9.7729,0.106405,0.047483,0.028785,26.5089,15.7521,34.1743,-3.5037,0.3140,116,-1,0,-0.007988,-0.002607,-0.314071,-0.003935,0.055821,-0.012828,0.5541,-2.4643,4.4339
11737,11.0,-0.006018,-0.002359,-0.313439,-0.028133,0.007764,-0.005176,-3.5291,-0.8767,-0.0082,0.00012908,-0.00016148,-0.13172732,-0.00421773,0.01176839,-0.01231671,-0.2451,0.5879,-9.8574,0.101518,0.050116,0.031039,26.5089,15.7521,34.1743,-3.5037,0.3140,116,-1,0,-0.008704,-0.002486,-0.313837,-0.011145,0.056257,-0.008702,0.6356,-2.4028,4.5296
11747,10.0,-0.006349,-0.002347,-0.313408,-0.029110,0.005251,-0.005963,-3.5463,-0.8172,-0.0021,0.00013648,-0.00016774,-0.13172784,-0.00421300,0.01185692,-0.01317345,-0.1818,0.4638,-10.0035,-0.001950,0.072444,0.031821,26.1084,16.8477,34.1282,-3.4772,0.3140,117,0,0,-0.009001,-0.002375,-0.313931,-0.012165,0.056012,-0.009882,0.7661,-2.3891,4.6470
11758,11.0,-0.006917,-0.002478,-0.313402,-0.033001,0.000770,-0.003773,-3.6674,-0.6622,-0.0121,0.00015901,-0.00020103,-0.13173014,-0.00408792,0.01205817,-0.01376468,-0.1559,0.4465,-9.6849,-0.123372,0.139491,0.031497,26.1084,16.8477,34.1282,-3.4772,0.3140,119,0,0,-0.009755,-0.002426,-0.314052,-0.015460,0.052107,-0.010417,0.8303,-2.2865,4.8308
11770,12.0,-0.007488,-0.002640,-0.313348,-0.035210,-0.003144,0.001380,-3.8022,-0.5231,-0.0132,0.00018161,-0.00022589,-0.13173167,-0.00400681,0.01219065,-0.01444202,-0.0767,0.4918,-9.4580,-0.139072,0.131912,0.017776,26.1084,16.8477,34.1282,-3.4772,0.3130,116,0,0,-0.010282,-0.002581,-0.313305,-0.018401,0.048739,0.001043,0.7794,-2.1845,4.8904
11781,11.0,-0.007781,-0.002752,-0.313313,-0.033450,-0.005324,0.005117,-3.8761,-0.4960,0.0034,0.00019184,-0.00021260,-0.13173112,-0.00405786,0.01223031,-0.01445128,-0.0537,0.5370,-9.4709,-0.090680,0.066252,0.011287,26.1084,16.8477,34.1282,-3.4772,0.3130,120,0,0,-0.010763,-0.002751,-0.313201,-0.019929,0.046587,0.005586,0.7773,-2.1182,4.9940
11792,11.0,-0.007362,-0.002360,-0.312645,-0.022277,0.000705,0.013882,-3.8095,-0.6595,0.0600,0.00012398,-0.00009543,-0.13172485,-0.00458293,0.01230980,-0.01955388,-0.1137,0.6153,-9.6556,-0.049320,0.002560,0.004714,26.1084,16.8477,34.1282,-3.4772,0.3130,115,1,1,-0.010792,-0.002448,-0.312897,-0.011499,0.052167,0.013811,0.8839,-2.1187,4.9043
11803,11.0,-0.007315,-0.001526,-0.312486,-0.017654,0.011788,0.015034,-3.6858,-0.7196,0.0471,-0.00000385,-0.00005145,-0.13172202,-0.00475123,0.01187149,-0.01948791,-0.0745,0.5801,-9.7062,-0.077382,-0.009531,0.014763,26.1084,16.8477,34.1282,-3.4772,0.3140,119,0,2,-0.010807,-0.002023,-0.312753,-0.008936,0.057313,0.015636,0.8961,-2.1303,4.9213
11814,11.0,-0.007307,-0.000627,-0.312199,-0.014331,0.021301,0.018842,-3.5587,-0.7568,0.0439,-0.00012649,-0.00002010,-0.13172014,-0.00487477,0.01149603,-0.02035883,-0.0813,0.4898,-9.5895,-0.044176,-0.003150,-0.001486,26.1084,16.8477,34.1282,-3.5142,0.3140,119,0,2,-0.010811,-0.001179,-0.313332,-0.005940,0.067421,0.009236,0.9838,-2.1723,5.0040
11825,11.0,-0.007141,-0.000601,-0.312746,-0.010180,0.017948,0.011008,-3.6041,-0.8414,0.0141,-0.00009353,0.00003283,-0.13171794,-0.00495506,0.01124901,-0.01411128,-0.1712,0.5687,-9.7099,-0.010086,-0.042354,-0.011565,26.1084,16.8477,34.1282,-3.5142,0.3140,116,0,0,-0.010761,-0.000248,-0.312999,-0.000762,0.073761,0.014930,1.0880,-2.2241,5.0847
11836,11.0,-0.006785,-0.000580,-0.312552,-0.004593,0.014034,0.010249,-3.6455,-0.9786,0.0281,-0.00006512,0.00011240,-0.13171475,-0.00520528,0.01137559,-0.01483634,-0.2443,0.4958,-9.9721,-0.013745,-0.084112,-0.007429,26.8987,17.5681,33.7145,-3.5142,0.3120,117,0,0,-0.010592,-0.000180,-0.312140,0.002477,0.072009,0.024232,1.0982,-2.2640,5.0916
11847,11.0,-0.006421,-0.000620,-0.312445,0.000770,0.010553,0.009058,-3.7155,-1.0988,0.0250,-0.00003268,0.00018485,-0.13171199,-0.00539965,0.01148577,-0.01486164,-0.2118,0.5632,-9.9167,-0.054915,-0.078069,-0.004774,26.8987,17.5681,33.7145,-3.5142,0.3120,117,0,0,-0.009876,-0.000044,-0.311677,0.011746,0.069108,0.022048,1.1727,-2.4316,5.1676
11858,11.0,-0.006113,-0.000681,-0.311688,0.005148,0.007924,0.017278,-3.7907,-1.1856,0.0152,-0.00000075,0.00023808,-0.13170989,-0.00560431,0.01185501,-0.02014004,-0.1677,0.6265,-9.7597,-0.065083,-0.062071,0.004040,26.8987,17.5681,33.7145,-3.5142,0.3120,115,0,0,-0.009511,-0.000028,-0.311331,0.016031,0.068284,0.023022,1.2188,-2.5182,5.2359
11869,11.0,-0.005879,-0.000293,-0.311488,0.008347,0.012047,0.019174,-3.7890,-1.2350,0.0188,-0.00005562,0.00026895,-0.13170777,-0.00570393,0.01171029,-0.02012712,-0.1268,0.6529,-9.6352,-0.075516,-0.041460,0.008206,26.8987,17.5681,33.7145,-3.5142,0.3140,119,0,1,-0.009196,-0.000019,-0.311101,0.019394,0.067169,0.023772,1.1921,-2.5647,5.2504
11880,11.0,-0.005650,0.000136,-0.311153,0.010912,0.016683,0.023601,-3.7715,-1.2787,0.0158,-0.00011042,0.00029380,-0.13170591,-0.00577979,0.01161046,-0.02098687,-0.1415,0.7034,-9.5197,-0.045674,-0.043462,0.011490,26.8987,17.5681,33.7145,-3.5142,0.3140,117,0,1,-0.008801,0.000861,-0.312448,0.023181,0.076631,0.010429,1.2506,-2.6278,5.1165
11891,11.0,-0.005842,0.000598,-0.311079,0.006242,0.020914,0.022767,-3.7440,-1.2579,-0.0080,-0.00016345,0.00023464,-0.13170855,-0.00560262,0.01138653,-0.01945489,-0.2699,0.6966,-9.6713,-0.023831,-0.055099,0.013518,26.8987,17.5681,33.7145,-3.5512,0.3120,113,-1,1,-0.009012,0.001296,-0.312329,0.019467,0.081280,0.013503,1.3293,-2.6672,5.2098
11902,11.0,-0.006085,0.000596,-0.310745,0.000768,0.017451,0.022260,-3.8018,-1.2321,-0.0169,-0.00011776,0.00017468,-0.13171279,-0.00547330,0.01153169,-0.02020463,-0.3544,0.6257,-9.9543,-0.031143,-0.043453,0.004387,26.8987,17.5681,33.7145,-3.5512,0.3120,112,-1,0,-0.009427,0.001767,-0.311575,0.011826,0.083226,0.019725,1.3952,-2.7292,5.3513
11913,11.0,-0.006082,0.000559,-0.310512,-0.000566,0.013885,0.020198,-3.8727,-1.2221,0.0006,-0.00007182,0.00017602,-0.13171391,-0.00544978,0.01163467,-0.02021323,-0.3452,0.6219,-9.9945,-0.054968,0.008727,0.001048,26.8987,17.5681,33.7145,-3.5512,0.3120,112,0,0,-0.009694,0.001770,-0.311273,0.007543,0.080735,0.019610,1.3785,-2.7462,5.4101
11924,11.0,-0.006245,0.000485,-0.310724,-0.003296,0.010521,0.013524,-3.9564,-1.1629,-0.0065,-0.00002512,0.00014415,-0.13171692,-0.00534219,0.01154631,-0.01694914,-0.2824,0.6451,-9.9566,-0.078511,0.049354,-0.009924,26.8987,17.5681,33.7145,-3.5512,0.3120,112,0,0,-0.009696,0.001760,-0.311086,0.007077,0.079094,0.018143,1.4185,-2.7643,5.5032
11935,11.0,-0.006513,0.000390,-0.310577,-0.006707,0.007941,0.013249,-4.0455,-1.0778,-0.0081,0.00002065,0.00009519,-0.13172106,-0.00524485,0.01162533,-0.01695382,-0.2413,0.7085,-9.8248,-0.089523,0.073369,-0.003764,26.8987,17.5681,33.7145,-3.5512,0.3140,112,0,0,-0.009800,0.001729,-0.310916,0.005790,0.076796,0.016812,1.3797,-2.7452,5.5522
11946,11.0,-0.006792,0.000332,-0.310298,-0.009165,0.006609,0.017109,-4.1027,-0.9992,-0.0065,0.00005324,0.00004994,-0.13172472,-0.00517966,0.01173722,-0.01789339,-0.1646,0.7429,-9.5802,-0.054541,0.068834,0.002220,27.6863,17.2154,34.1052,-3.5512,0.3140,117,0,0,-0.010315,0.002031,-0.312478,0.001115,0.079105,-0.000867,1.3675,-2.6644,5.6942
11957,11.0,-0.006905,0.000320,-0.311772,-0.008959,0.006019,-0.000489,-4.1238,-0.9764,-0.0007,0.00007263,0.00004811,-0.13172525,-0.00493974,0.01104856,-0.00531847,-0.1388,0.7451,-9.6036,-0.015437,0.024114,0.004341,27.6863,17.2154,34.1052,-3.5512,0.3140,113,0,0,-0.010566,0.001985,-0.312345,-0.000268,0.078444,0.003176,1.4056,-2.6402,5.7986
11968,11.0,-0.006873,0.000362,-0.311680,-0.008075,0.004820,0.001647,-4.1132,-0.9963,0.0033,0.00007685,0.00007881,-0.13172331,-0.00500843,0.01109837,-0.00603326,-0.2478,0.6227,-9.7020,0.023438,-0.013089,0.012529,27.6863,17.2154,34.1052,-3.5512,0.3120,113,0,0,-0.010733,0.002054,-0.311829,0.001083,0.078077,0.012122,1.4703,-2.6387,5.9300
11979,11.0,-0.006791,0.000419,-0.311666,-0.006619,0.003138,0.000854,-4.0908,-1.0299,0.0066,0.00007212,0.00012048,-0.13172074,-0.00505721,0.01113100,-0.00603258,-0.2492,0.5496,-9.8720,0.033887,-0.025877,0.008694,27.6863,17.2154,34.1052,-3.5512,0.3120,112,0,0,-0.010689,0.002150,-0.311606,0.002378,0.077345,0.014454,1.4967,-2.6584,5.9751
11990,11.0,-0.006738,0.000473,-0.311318,-0.005981,0.001663,0.003166,-4.0681,-1.0529,0.0046,0.00006516,0.00015179,-0.13171870,-0.00515856,0.01127678,-0.00859179,-0.2793,0.5554,-9.9617,0.032910,-0.018403,-0.004858,27.6863,17.2154,34.1052,-3.5512,0.3120,116,0,0,-0.010615,0.002250,-0.311463,0.004171,0.077144,0.014308,1.6059,-2.6839,5.7463
12001,11.0,-0.006704,0.000473,-0.311291,-0.005106,0.000051,0.001837,-4.0743,-1.0659,0.0047,0.00006657,0.00017710,-0.13171734,-0.00518270,0.01130799,-0.00859119,-0.2259,0.5802,-9.9216,-0.006501,-0.008392,-0.008856,27.6863,17.2154,34.1052,-3.5512,0.3140,114,0,0,-0.010500,0.002438,-0.312514,0.006377,0.076165,-0.002470,1.7238,-2.7449,5.8773
12012,11.0,-0.006583,0.000426,-0.311148,-0.003121,-0.000796,0.003685,-4.1060,-1.0973,0.0063,0.00007825,0.00022165,-0.13171494,-0.00526377,0.01137865,-0.00949316,-0.2121,0.6821,-9.7583,-0.038335,-0.023364,-0.004863,27.6863,17.2154,34.1052,-3.5512,0.3140,112,0,0,-0.010448,0.002487,-0.312544,0.007495,0.075477,-0.003128,1.7266,-2.7563,5.9134
12023,11.0,-0.006342,0.000404,-0.312216,0.001364,-0.000322,-0.008691,-4.1177,-1.1588,0.0060,0.00008222,0.00029105,-0.13171044,-0.00518676,0.01088525,-0.00148569,-0.0928,0.7702,-9.7243,-0.014201,-0.054436,0.002907,27.6863,17.2154,34.1052,-3.5512,0.3140,116,0,0,-0.010159,0.002542,-0.312461,0.011807,0.076291,0.000088,1.7659,-2.8254,6.0273
12034,11.0,-0.006085,0.000394,-0.312215,0.005087,0.000955,-0.006754,-4.1229,-1.2175,0.0030,0.00008586,0.00035287,-0.13170618,-0.00528297,0.01093244,-0.00217290,-0.1356,0.8414,-9.7027,-0.002359,-0.058197,0.014231,25.7079,16.5023,33.2548,-3.5512,0.3130,120,0,0,-0.009921,0.002596,-0.312369,0.015676,0.078334,0.002368,1.8362,-2.8907,6.1107
12045,11.0,-0.005832,0.000377,-0.312287,0.007492,0.001475,-0.006362,-4.1371,-1.2674,0.0006,0.00009524,0.00040508,-0.13170250,-0.00534826,0.01093126,-0.00217497,-0.2182,0.7988,-9.7428,-0.012333,-0.053638,0.027906,25.7079,16.5023,33.2548,-3.5512,0.3130,116,0,0,-0.009670,0.002673,-0.312342,0.018772,0.080033,0.003826,1.8261,-2.9239,6.1331
12057,12.0,-0.006592,0.000364,-0.312158,-0.003061,0.002032,-0.003554,-4.1509,-1.1890,0.0025,0.00010522,0.00017537,-0.13172038,-0.00510008,0.01103433,-0.00358782,-0.2193,0.8003,-9.7416,-0.010127,-0.039287,0.020847,25.7079,16.5023,33.2548,-3.4931,0.3130,127,-2,0,-0.009199,0.002796,-0.312121,0.022842,0.082891,0.007627,1.8779,-3.0152,6.2716
12068,11.0,-0.006411,0.000324,-0.312203,-0.000985,0.002260,-0.004628,-4.1800,-1.2299,-0.0022,0.00012462,0.00023577,-0.13171600,-0.00516032,0.01104188,-0.00358904,-0.2681,0.8256,-9.8748,-0.030185,-0.036471,0.020758,25.7079,16.5023,33.2548,-3.4931,0.3140,125,0,0,-0.009896,0.002750,-0.312042,0.013637,0.083350,0.008766,1.9410,-3.0267,6.4229
12080,12.0,-0.006278,0.000260,-0.312172,0.000100,0.001704,-0.005883,-4.2286,-1.2539,-0.0019,0.00015122,0.00027778,-0.13171321,-0.00521775,0.01111925,-0.00431519,-0.2835,0.7918,-9.9866,-0.051832,-0.021803,0.022894,25.7079,16.5023,33.2548,-3.4931,0.3140,124,0,0,-0.009553,0.002796,-0.312822,0.016864,0.084973,-0.000904,1.9581,-3.0761,6.2829
12091,11.0,-0.006184,0.000242,-0.312703,0.000405,0.001648,-0.013745,-4.2444,-1.2698,-0.0011,0.00016324,0.00030658,-0.13171121,-0.00516393,0.01089985,-0.00121054,-0.3071,0.7905,-10.0138,-0.014638,-0.017823,0.009659,25.7079,16.5023,33.2548,-3.4931,0.3140,129,0,0,-0.009417,0.002814,-0.312843,0.017524,0.085046,-0.002260,1.9183,-3.0936,6.3397
12102,11.0,-0.006150,0.000236,-0.312792,0.000768,0.002222,-0.015396,-4.2515,-1.2713,-0.0005,0.00017161,0.00031527,-0.13171069,-0.00518291,0.01094652,-0.00175214,-0.2280,0.8383,-10.0095,-0.003149,-0.007086,0.003794,25.7079,16.5023,33.2548,-3.4931,0.3120,127,0,0,-0.009310,0.002853,-0.312741,0.017765,0.086254,-0.002277,1.9782,-3.1300,6.4443
12113,11.0,-0.006236,0.000229,-0.312965,-0.000271,0.002633,-0.016022,-4.2610,-1.2424,0.0028,0.00018298,0.00028707,-0.13171339,-0.00516159,0.01094265,-0.00175204,-0.2129,0.8202,-9.8335,-0.005376,0.020105,0.004231,25.7079,16.5023,33.2548,-3.4772,0.3120,127,0,0,-0.009256,0.002958,-0.311782,0.017647,0.088679,0.005320,2.0334,-3.1525,6.5994
12125,12.0,-0.006255,0.000240,-0.311938,-0.000552,0.003547,-0.001744,-4.2602,-1.2313,0.0008,0.00018942,0.00028147,-0.13171405,-0.00534620,0.01158049,-0.00991918,-0.2251,0.8428,-9.7676,0.007605,0.003091,0.007260,25.7079,16.5023,33.2548,-3.4772,0.3120,130,0,0,-0.009321,0.003004,-0.311734,0.016508,0.089122,0.005392,2.0136,-3.1305,6.6548
12136,11.0,-0.006182,0.000278,-0.311957,0.000346,0.004213,-0.001670,-4.2451,-1.2460,-0.0029,0.00019142,0.00030572,-0.13171192,-0.00536307,0.01157099,-0.00991991,-0.2217,0.8058,-9.7788,0.028219,-0.020215,0.005014,25.7079,16.5023,33.2548,-3.4772,0.3140,130,0,0,-0.009352,0.003047,-0.311678,0.015832,0.090540,0.006314,2.0788,-3.1438,6.7678
12147,11.0,-0.006077,0.000297,-0.311884,0.001264,0.004694,-0.000915,-4.2419,-1.2655,-0.0038,0.00020114,0.00033777,-0.13170926,-0.00540150,0.01163080,-0.01056060,-0.2496,0.8185,-9.8181,0.013399,-0.024798,0.012808,25.7105,15.0541,34.1052,-3.4772,0.3140,120,0,0,-0.009206,0.003242,-0.312614,0.017004,0.092857,-0.002794,2.1555,-3.1863,6.9206
12158,11.0,-0.006016,0.000291,-0.312537,0.001298,0.004132,-0.008776,-4.2563,-1.2713,-0.0010,0.00022141,0.00035441,-0.13170835,-0.00530422,0.01128932,-0.00632824,-0.2750,0.7531,-9.8221,-0.009003,-0.011231,0.014594,25.7105,15.0541,34.1052,-3.4772,0.3140,117,0,0,-0.009017,0.003400,-0.312563,0.017952,0.094284,-0.000719,2.2092,-3.2332,7.0826
12169,11.0,-0.005921,0.000244,-0.312565,0.001979,0.003493,-0.008475,-4.2926,-1.2819,-0.0021,0.00025170,0.00038063,-0.13170682,-0.00533398,0.01135148,-0.00681202,-0.2518,0.7886,-9.8341,-0.039322,-0.014745,0.016604,25.7105,15.0541,34.1052,-3.4772,0.3110,118,0,0,-0.008938,0.003454,-0.311200,0.017934,0.093839,0.014806,2.1899,-3.2412,7.1387
12180,11.0,-0.005862,0.000158,-0.312657,0.002019,0.002820,-0.008256,-4.3503,-1.2803,0.0001,0.00029401,0.00039373,-0.13170682,-0.00533715,0.01137017,-0.00680942,-0.2637,0.8230,-9.7600,-0.067791,-0.002296,0.018930,25.7105,15.0541,34.1052,-3.4772,0.3110,113,0,0,-0.008841,0.003469,-0.310976,0.018502,0.094250,0.016127,2.2264,-3.2726,7.2531
12191,11.0,-0.005778,0.000089,-0.311216,0.002023,0.001857,0.010336,-4.3964,-1.2847,-0.0009,0.00032327,0.00041413,-0.13170584,-0.00559893,0.01224806,-0.01674034,-0.2942,0.7722,-9.7231,-0.056752,-0.009191,0.023530,25.7105,15.0541,34.1052,-3.3610,0.3110,117,0,0,-0.008682,0.003448,-0.310580,0.018597,0.093764,0.019251,2.2056,-3.2670,7.0166
12203,12.0,-0.005589,0.000083,-0.311090,0.003456,0.001262,0.010593,-4.4070,-1.3196,-0.0057,0.00033184,0.00047046,-0.13170114,-0.00563013,0.01225649,-0.01673907,-0.2725,0.7385,-9.7748,-0.008158,-0.038731,0.017764,25.7105,15.0541,34.1052,-3.3610,0.3140,116,0,0,-0.008567,0.003469,-0.312113,0.018826,0.092845,0.001444,2.1481,-3.2749,7.0946
12214,11.0,-0.005411,0.000128,-0.310927,0.004730,0.001414,0.010663,-4.3859,-1.3532,-0.0058,0.00032094,0.00051853,-0.13169658,-0.00567056,0.01227832,-0.01707050,-0.2708,0.7490,-9.8443,0.032215,-0.042439,0.007207,25.7105,15.0541,34.1052,-3.3610,0.3140,116,0,0,-0.008391,0.003531,-0.312095,0.020016,0.093308,0.002421,2.2027,-3.3224,7.2058
12225,11.0,-0.005380,0.000149,-0.310916,0.004114,0.001079,0.009661,-4.3790,-1.3502,0.0008,0.00031840,0.00051271,-0.13169707,-0.00564152,0.01222132,-0.01638566,-0.2732,0.7219,-9.7744,0.013404,-0.007233,-0.000250,25.7105,15.0541,34.1052,-3.3610,0.3120,114,0,0,-0.008092,0.003745,-0.311992,0.021479,0.094513,0.003568,2.2780,-3.3886,7.3699
12236,11.0,-0.005352,0.000178,-0.310763,0.003572,0.000052,0.011676,-4.3676,-1.3475,-0.0001,0.00030956,0.00050718,-0.13169725,-0.00564455,0.01223664,-0.01663398,-0.2658,0.6300,-9.6623,0.017702,-0.007178,-0.005209,27.2911,16.4949,33.6915,-3.3610,0.3120,109,0,0,-0.008056,0.003830,-0.311480,0.020762,0.094251,0.009844,2.2732,-3.3866,7.4294
12247,11.0,-0.005683,0.000187,-0.310630,-0.001368,-0.000957,0.012568,-4.3662,-1.3299,0.0078,0.00030340,0.00037915,-0.13170746,-0.00554409,0.01225184,-0.01663582,-0.2905,0.6452,-9.7218,0.003068,-0.033155,-0.004925,27.2911,16.4949,33.6915,-3.3610,0.3120,108,-1,0,-0.008396,0.003946,-0.311250,0.015096,0.092884,0.013959,2.3404,-3.3954,7.6149
12258,11.0,-0.005484,0.000155,-0.311288,0.001322,-0.001894,0.003956,-4.3871,-1.3686,-0.0035,0.00031080,0.00045607,-0.13170159,-0.00545400,0.01183626,-0.01162676,-0.2158,0.6879,-9.7316,-0.026291,-0.040726,0.002930,27.2911,16.4949,33.6915,-3.3610,0.3130,109,0,0,-0.008676,0.003964,-0.311043,0.011509,0.092459,0.016135,2.3999,-3.4254,7.7363
12270,12.0,-0.005311,0.000087,-0.311239,0.002748,-0.001989,0.004230,-4.4265,-1.3963,-0.0022,0.00032835,0.00051406,-0.13169749,-0.00548796,0.01184241,-0.01162450,-0.2773,0.7991,-9.7634,-0.047509,-0.030040,0.005933,27.2911,16.4949,33.6915,-3.4191,0.3130,112,0,0,-0.008481,0.004025,-0.311652,0.014173,0.092091,0.008916,2.3663,-3.4473,7.7837
12282,12.0,-0.005161,0.000004,-0.311124,0.003509,-0.002144,0.003469,-4.4752,-1.4142,-0.0016,0.00035156,0.00055793,-0.13169461,-0.00552868,0.01189450,-0.01209131,-0.3019,0.8281,-9.9215,-0.058894,-0.022068,0.016295,27.2911,16.4949,33.6915,-3.4191,0.3130,108,0,0,-0.008155,0.004067,-0.311394,0.017241,0.093459,0.011584,2.3619,-3.4783,7.5500
12294,12.0,-0.004996,-0.000075,-0.311005,0.004303,-0.002607,0.002393,-4.5211,-1.4350,-0.0018,0.00037176,0.00060550,-0.13169137,-0.00556242,0.01194533,-0.01263812,-0.3101,0.8047,-9.9630,-0.055838,-0.025531,0.019643,27.2911,16.4949,33.6915,-3.4191,0.3120,105,0,0,-0.008006,0.004066,-0.311282,0.018184,0.094446,0.011212,2.3825,-3.5157,7.6642
12305,11.0,-0.004845,-0.000093,-0.310932,0.004248,-0.002220,0.001368,-4.5294,-1.4556,-0.0037,0.00036821,0.00064709,-0.13168773,-0.00559356,0.01197133,-0.01298473,-0.3779,0.8219,-9.9372,-0.010433,-0.028963,0.017565,27.2911,16.4949,33.6915,-3.4191,0.3120,114,0,0,-0.007698,0.004105,-0.311013,0.019465,0.095598,0.010556,2.3522,-3.5699,7.8541
12316,11.0,-0.004706,-0.000050,-0.310929,0.004078,-0.001749,-0.000715,-4.5050,-1.4782,-0.0049,0.00034186,0.00068567,-0.13168362,-0.00559377,0.01195968,-0.01298646,-0.3805,0.7708,-9.9772,0.033522,-0.032811,0.009091,27.2911,16.4949,33.6915,-3.4191,0.3120,113,0,0,-0.007561,0.004176,-0.310845,0.019333,0.096013,0.010710,2.3200,-3.5896,7.9296
12327,11.0,-0.004620,0.000021,-0.311453,0.003756,-0.000827,-0.007883,-4.4651,-1.4918,-0.0051,0.00030671,0.00070454,-0.13168065,-0.00550276,0.01170149,-0.00993995,-0.3406,0.7784,-9.9014,0.055413,-0.025103,0.009410,27.2911,16.4949,33.6915,-3.4191,0.3130,112,0,0,-0.007438,0.004277,-0.310744,0.019050,0.097230,0.009907,2.3897,-3.6302,8.0480
12338,11.0,-0.004590,0.000081,-0.311542,0.003253,-0.000295,-0.008166,-4.4331,-1.4921,-0.0022,0.00027924,0.00070096,-0.13167995,-0.00549500,0.01169118,-0.00994251,-0.2970,0.7513,-9.8136,0.045414,-0.011679,0.006536,27.6808,16.5098,34.4727,-3.3821,0.3130,115,0,0,-0.007276,0.004537,-0.311474,0.018511,0.099565,0.000597,2.4717,-3.6784,8.2439
12349,11.0,-0.005087,0.000104,-0.311576,-0.003149,-0.000596,-0.007801,-4.4232,-1.4422,0.0127,0.00026747,0.00049190,-0.13169675,-0.00542149,0.01171431,-0.01030052,-0.2839,0.7135,-9.8210,0.015753,-0.000267,0.007810,27.6808,16.5098,34.4727,-3.3821,0.3130,115,-1,0,-0.007246,0.004660,-0.311471,0.018032,0.099908,0.001221,2.4704,-3.6775,8.3162
12360,11.0,-0.005123,0.000093,-0.311285,-0.004071,-0.001811,-0.004343,-4.4328,-1.4299,0.0009,0.00026583,0.00049341,-0.13169676,-0.00548610,0.01191090,-0.01256162,-0.3425,0.6624,-9.8859,-0.012235,0.009767,0.006083,27.6808,16.5098,34.4727,-3.3821,0.3120,117,0,0,-0.007693,0.004757,-0.311368,0.012099,0.099022,0.002680,2.5121,-3.6724,8.5443
12371,11.0,-0.005708,0.000034,-0.311292,-0.011003,-0.003224,-0.004496,-4.4676,-1.3626,0.0099,0.00027939,0.00027741,-0.13171412,-0.00541336,0.01193700,-0.01283244,-0.3178,0.6819,-9.8579,-0.047321,0.027540,0.008020,27.6808,16.5098,34.4727,-3.3821,0.3120,122,-1,0,-0.008161,0.004723,-0.311156,0.006327,0.097807,0.004647,2.5495,-3.6669,8.6930
12382,11.0,-0.005861,-0.000012,-0.311345,-0.011757,-0.003768,-0.005155,-4.4917,-1.3313,0.0011,0.00028240,0.00026594,-0.13171519,-0.00540141,0.01194251,-0.01283234,-0.2781,0.7395,-9.8522,-0.033930,0.035946,0.002407,27.6808,16.5098,34.4727,-3.3821,0.3120,125,0,0,-0.008671,0.004656,-0.311065,0.000767,0.095620,0.005345,2.4941,-3.6292,8.7961
12393,11.0,-0.005944,0.000456,-0.311124,-0.011701,0.002026,-0.001790,-4.4611,-1.3173,-0.0201,0.00007254,0.00028440,-0.13170584,-0.00546849,0.01198825,-0.01446834,-0.2783,0.7703,-9.7791,-0.012396,0.017596,0.005663,27.6808,16.5098,34.4727,-3.3821,0.3120,123,0,1,-0.008909,0.004655,-0.310882,0.000857,0.095132,0.007220,2.4946,-3.5661,8.5544
12404,11.0,-0.005992,0.000466,-0.311142,-0.010955,0.001390,-0.001528,-4.4610,-1.3131,-0.0008,0.00007599,0.00031871,-0.13170333,-0.00547791,0.01199585,-0.01446701,-0.2488,0.7247,-9.7717,0.004271,0.006923,0.002356,27.6808,16.5098,34.4727,-3.3821,0.3120,122,0,0,-0.009051,0.005123,-0.310975,0.000511,0.100947,0.006530,2.5544,-3.5740,8.6595
12415,11.0,-0.006018,0.000491,-0.311060,-0.010069,0.000659,-0.000090,-4.4525,-1.3140,-0.0017,0.00007011,0.00035879,-0.13170005,-0.00551591,0.01203798,-0.01505017,-0.2500,0.6918,-9.7750,0.014846,0.000693,-0.001669,27.6808,16.5098,34.4727,-3.4931,0.3120,122,0,0,-0.009117,0.005247,-0.310729,0.002388,0.100562,0.009872,2.5729,-3.5804,8.8336
12426,11.0,-0.005995,0.000541,-0.309929,-0.009383,0.000250,0.013052,-4.4284,-1.3259,-0.0019,0.00005077,0.00041526,-0.13169529,-0.00576690,0.01253444,-0.02155338,-0.3126,0.6869,-9.8092,0.035296,-0.012104,-0.011817,27.6808,16.5098,34.4727,-3.4931,0.3100,123,0,0,-0.009125,0.005335,-0.310633,0.003426,0.100007,0.010914,2.5548,-3.5748,8.8909
12437,11.0,-0.005910,0.000581,-0.309711,-0.007559,-0.000232,0.013887,-4.4099,-1.3509,-0.0027,0.00003306,0.00049657,-0.13168862,-0.00581528,0.01256058,-0.02199590,-0.2664,0.6831,-9.8120,0.027068,-0.025138,-0.014574,28.0787,16.5023,34.4958,-3.4931,0.3100,125,0,0,-0.009103,0.005439,-0.309585,0.004439,0.100536,0.022013,2.6278,-3.6047,8.9862
12448,11.0,-0.005802,0.000589,-0.309561,-0.005754,-0.000548,0.013380,-4.4070,-1.3772,-0.0015,0.00002669,0.00058077,-0.13168222,-0.00584080,0.01256252,-0.02199527,-0.2769,0.7267,-9.8485,0.005627,-0.026621,-0.013247,28.0787,16.5023,34.4958,-3.4931,0.3100,118,0,0,-0.008948,0.005649,-0.309138,0.007965,0.101123,0.023212,2.6750,-3.6500,9.1285
12459,11.0,-0.005702,0.000567,-0.309668,-0.004017,-0.001363,0.010541,-4.4217,-1.3977,-0.0007,0.00003163,0.00065291,-0.13167706,-0.00581676,0.01245894,-0.02055344,-0.2547,0.7043,-9.7911,-0.019062,-0.020801,-0.015878,28.0787,16.5023,34.4958,-3.4931,0.3110,116,0,0,-0.008845,0.005735,-0.308787,0.009599,0.100955,0.025047,2.6438,-3.6585,9.1740
12470,11.0,-0.005597,0.000551,-0.309551,-0.002459,-0.001143,0.010812,-4.4306,-1.4183,-0.0014,0.00003318,0.00071944,-0.13167208,-0.00584009,0.01245512,-0.02055304,-0.2603,0.7896,-9.7716,-0.010703,-0.022819,-0.015551,28.0787,16.5023,34.4958,-3.4931,0.3110,119,0,0,-0.008740,0.005793,-0.309420,0.011290,0.101126,0.016256,2.6748,-3.6920,9.2749
12481,11.0,-0.005415,0.000547,-0.309342,-0.000531,-0.000413,0.010581,-4.4318,-1.4548,-0.0034,0.00003109,0.00081382,-0.13166465,-0.00589302,0.01249499,-0.02111252,-0.2983,0.8405,-9.9196,0.000529,-0.040810,-0.015275,28.0787,16.5023,34.4958,-3.4931,0.3110,114,0,0,-0.008490,0.005930,-0.308992,0.014284,0.102650,0.019091,2.6960,-3.7005,8.9591
12492,11.0,-0.005772,0.000045,-0.309091,-0.005005,-0.004756,0.010013,-4.4788,-1.4388,0.0229,0.00026066,0.00065707,-0.13168520,-0.00586819,0.01260861,-0.02191871,-0.3019,0.9200,-9.9954,-0.010078,-0.026091,-0.001698,28.0787,16.5023,34.4958,-3.4350,0.3100,112,-1,-1,-0.008682,0.005510,-0.308813,0.011646,0.097630,0.018648,2.6305,-3.7014,9.0331
12503,11.0,-0.005785,0.000006,-0.308931,-0.004902,-0.003108,0.009192,-4.4938,-1.4327,-0.0016,0.00025888,0.00067683,-0.13168342,-0.00588482,0.01263290,-0.02224995,-0.2919,0.9341,-9.9245,-0.020762,0.004984,0.002591,28.0787,16.5023,34.4958,-3.4350,0.3100,112,0,0,-0.008841,0.005104,-0.308666,0.009591,0.096259,0.014880,2.5878,-3.7242,9.2179
12514,11.0,-0.006376,-0.000032,-0.308827,-0.011504,-0.001475,0.009617,-4.5105,-1.3696,0.0238,0.00026597,0.00043194,-0.13170587,-0.00580778,0.01261739,-0.02225338,-0.2915,0.9408,-9.7470,-0.020837,0.026413,0.005989,28.0787,16.5023,34.4958,-3.4350,0.3100,110,-1,0,-0.008861,0.005116,-0.308442,0.009308,0.098586,0.015987,2.6137,-3.7343,9.3336
12525,11.0,-0.006484,-0.000052,-0.309346,-0.011848,-0.000086,0.002899,-4.5193,-1.3501,-0.0009,0.00027103,0.00044356,-0.13170496,-0.00569767,0.01234737,-0.01882321,-0.2941,0.9172,-9.7305,-0.008614,0.022388,0.026003,28.0787,16.5023,34.4958,-3.4350,0.3110,112,0,0,-0.009379,0.005057,-0.308285,0.003186,0.098831,0.017242,2.5446,-3.6887,9.4309
12537,12.0,-0.006546,-0.000038,-0.309313,-0.011593,-0.000022,0.002526,-4.5136,-1.3430,-0.0041,0.00026372,0.00048332,-0.13170113,-0.00570033,0.01234445,-0.01882376,-0.2970,0.7776,-9.8259,0.010690,0.007034,0.033577,27.2911,17.2154,33.2778,-3.4350,0.3110,114,0,0,-0.009537,0.005121,-0.309142,0.002528,0.101255,0.008149,2.5157,-3.6706,9.6467
12548,11.0,-0.006620,-0.000010,-0.309212,-0.011705,-0.000749,0.002838,-4.5023,-1.3326,-0.0034,0.00024750,0.00051028,-0.13169818,-0.00572243,0.01237671,-0.01925435,-0.3073,0.6868,-9.8580,0.017872,0.011373,0.025080,27.2911,17.2154,33.2778,-3.4350,0.3110,106,0,0,-0.009577,0.005183,-0.309059,0.002863,0.102022,0.008888,2.5584,-3.6848,9.7784
12559,11.0,-0.006765,0.000032,-0.307963,-0.012423,-0.001841,0.016919,-4.4821,-1.3081,-0.0002,0.00021586,0.00050249,-0.13169801,-0.00592377,0.01296476,-0.02577169,-0.2854,0.6216,-9.8166,0.026916,0.025751,0.013592,27.2911,17.2154,33.2778,-3.4350,0.3080,105,0,0,-0.009723,0.005334,-0.308780,0.002816,0.100999,0.010734,2.5800,-3.6759,9.9864
12570,11.0,-0.006875,0.000064,-0.307731,-0.012490,-0.002640,0.018127,-4.4658,-1.2926,-0.0023,0.00018688,0.00051606,-0.13169594,-0.00593583,0.01297626,-0.02601015,-0.2645,0.6392,-9.7505,0.021938,0.018349,-0.002460,27.2911,17.2154,33.2778,-3.3821,0.3080,107,0,0,-0.009855,0.005410,-0.307636,0.002428,0.099874,0.022672,2.5681,-3.6466,10.0562
12581,11.0,-0.006883,0.000061,-0.307531,-0.011552,-0.003983,0.018143,-4.4682,-1.2963,-0.0019,0.00016777,0.00058026,-0.13169056,-0.00594408,0.01300106,-0.02600938,-0.2796,0.6170,-9.8134,-0.005445,-0.000268,0.001271,27.2911,17.2154,33.2778,-3.3821,0.3080,106,0,0,-0.009956,0.005479,-0.307356,0.002476,0.099634,0.024651,2.6190,-3.6495,10.1667
12592,11.0,-0.006825,0.000050,-0.307109,-0.009678,-0.004496,0.020100,-4.4724,-1.3134,-0.0029,0.00014942,0.00067011,-0.13168317,-0.00601121,0.01309694,-0.02720435,-0.2528,0.6962,-9.8713,-0.008169,-0.014805,-0.011267,27.2911,17.2154,33.2778,-3.3821,0.3080,105,0,0,-0.009940,0.005595,-0.306782,0.004924,0.098353,0.026688,2.6373,-3.6309,9.9293
12603,11.0,-0.006786,0.000023,-0.306893,-0.008204,-0.003834,0.019103,-4.4824,-1.3242,-0.0027,0.00014001,0.00074139,-0.13167733,-0.00602843,0.01308693,-0.02720579,-0.2504,0.8240,-9.8916,-0.015117,-0.008782,-0.015059,27.2911,17.2154,33.2778,-3.3821,0.3110,112,0,0,-0.009878,0.005658,-0.308679,0.006440,0.098044,0.003631,2.5800,-3.6259,9.9855
12613,10.0,-0.006812,-0.000023,-0.306647,-0.007749,-0.002650,0.020126,-4.5025,-1.3172,-0.0011,0.00014726,0.00076920,-0.13167527,-0.00604607,0.01311276,-0.02749609,-0.2513,0.9113,-9.7561,-0.030304,0.009821,-0.000959,27.2911,17.2154,33.2778,-3.3821,0.3110,112,0,0,-0.009829,0.005700,-0.308645,0.007586,0.099428,0.003689,2.6073,-3.6481,10.0793
12624,11.0,-0.006875,-0.000037,-0.308332,-0.007672,-0.000635,-0.000262,-4.5054,-1.3059,-0.0014,0.00014424,0.00078474,-0.13167383,-0.00572674,0.01227955,-0.01746753,-0.2454,0.9456,-9.6021,-0.001114,0.012107,0.008564,27.6890,16.8477,32.8869,-3.3610,0.3110,111,0,0,-0.009860,0.005740,-0.308494,0.007424,0.102096,0.007438,2.5567,-3.6377,10.2445
12636,12.0,-0.006379,-0.000016,-0.308289,-0.001503,0.001543,0.001598,-4.4903,-1.3475,-0.0271,0.00013607,0.00107813,-0.13164669,-0.00583517,0.01229440,-0.01766907,-0.2757,0.9379,-9.6633,0.023795,-0.010205,0.016183,27.6890,16.8477,32.8869,-3.3610,0.3080,105,1,0,-0.009894,0.005792,-0.307594,0.007146,0.103277,0.019310,2.5022,-3.6167,10.3025
12647,11.0,-0.006287,0.000017,-0.308273,-0.001089,0.002310,0.001436,-4.4753,-1.3636,-0.0053,0.00013037,0.00113535,-0.13164130,-0.00584426,0.01228394,-0.01767055,-0.3170,0.8377,-9.8031,0.026463,-0.024004,0.028343,27.6890,16.8477,32.8869,-3.3610,0.3080,109,0,0,-0.009395,0.006054,-0.307168,0.012147,0.106975,0.023539,2.5075,-3.6515,10.4642
12658,11.0,-0.006238,0.000037,-0.309169,-0.001499,0.002306,-0.009318,-4.4702,-1.3692,-0.0030,0.00013397,0.00117097,-0.13163815,-0.00571155,0.01188198,-0.01299384,-0.3471,0.7841,-9.8025,0.013434,-0.011987,0.028553,27.6890,16.8477,32.8869,-3.3610,0.3110,122,0,0,-0.009310,0.006157,-0.306871,0.012351,0.107971,0.025164,2.5514,-3.6815,10.5868
12669,11.0,-0.006234,0.000065,-0.309274,-0.002036,0.001567,-0.009711,-4.4612,-1.3660,-0.0005,0.00012953,0.00118435,-0.13163701,-0.00570254,0.01189015,-0.01299378,-0.3156,0.7040,-9.8301,0.017132,-0.002976,0.024809,27.6890,16.8477,32.8869,-3.3610,0.3110,122,0,0,-0.009257,0.006251,-0.308678,0.011985,0.107333,0.003375,2.4949,-3.6786,10.6783
12680,11.0,-0.006257,0.000097,-0.309335,-0.002925,0.000823,-0.009711,-4.4497,-1.3584,-0.0007,0.00011966,0.00118670,-0.13163647,-0.00571128,0.01190963,-0.01324739,-0.3267,0.6914,-9.8479,0.019507,0.002525,0.013059,27.6890,16.8477,32.8869,-3.3610,0.3110,120,0,0,-0.009250,0.006425,-0.308562,0.010970,0.105937,0.004956,2.5218,-3.6512,10.4432
12691,11.0,-0.006277,0.000127,-0.308104,-0.003662,0.000244,0.004431,-4.4363,-1.3524,-0.0002,0.00010392,0.00119328,-0.13163561,-0.00591878,0.01251609,-0.02004935,-0.3261,0.7033,-9.9363,0.020267,0.001575,0.000069,27.6890,16.8477,32.8869,-3.3610,0.3080,127,0,0,-0.009278,0.006514,-0.308515,0.010202,0.105510,0.005109,2.5659,-3.6606,10.5601
12702,11.0,-0.006269,0.000096,-0.308027,-0.003586,-0.000134,0.003297,-4.4563,-1.3491,-0.0004,0.00012160,0.00121928,-0.13163407,-0.00593151,0.01253707,-0.02023890,-0.2859,0.7830,-9.9395,-0.024850,0.001415,0.002860,27.6890,16.8477,32.8869,-3.3610,0.3080,130,0,0,-0.009287,0.006653,-0.307472,0.009500,0.104831,0.013693,2.5592,-3.6606,10.7382
12713,11.0,-0.006296,0.000036,-0.307990,-0.003370,-0.000558,0.003542,-4.4920,-1.3364,0.0010,0.00015324,0.00122604,-0.13163453,-0.00593311,0.01254092,-0.02023749,-0.2300,0.7964,-9.7740,-0.046292,0.011526,0.013321,27.6890,16.8477,32.8869,-3.3081,0.3080,120,0,0,-0.009269,0.006682,-0.307315,0.009646,0.104289,0.013776,2.4848,-3.6440,10.8064
12724,11.0,-0.006300,0.000029,-0.308484,-0.002709,-0.000606,-0.001455,-4.4976,-1.3323,-0.0010,0.00015381,0.00124380,-0.13163306,-0.00584590,0.01230954,-0.01754749,-0.2042,0.7679,-9.6805,-0.005011,0.000467,0.013365,28.8717,17.2154,33.6915,-3.3081,0.3100,126,0,0,-0.009275,0.006687,-0.307174,0.009835,0.104190,0.015189,2.4835,-3.6491,10.9259
12735,11.0,-0.006273,0.000071,-0.308499,-0.002159,-0.000910,-0.001329,-4.4763,-1.3375,-0.0019,0.00012441,0.00127420,-0.13162979,-0.00585154,0.01231380,-0.01754849,-0.2433,0.6968,-9.7896,0.030834,-0.011211,0.002699,28.8717,17.2154,33.6915,-3.3081,0.3100,126,0,0,-0.009268,0.006807,-0.308202,0.010424,0.103510,0.005552,2.4477,-3.6395,11.1114
12746,11.0,-0.006283,0.000086,-0.308486,-0.002192,-0.001107,-0.001052,-4.4696,-1.3325,-0.0007,0.00010967,0.00128201,-0.13162874,-0.00585834,0.01232196,-0.01769261,-0.2535,0.7316,-9.8037,0.010907,0.000202,0.005216,28.8717,17.2154,33.6915,-3.3081,0.3100,120,0,0,-0.009683,0.006824,-0.308149,0.005739,0.101831,0.006469,2.4173,-3.6100,11.1915
12757,11.0,-0.006315,0.000081,-0.307124,-0.002427,-0.001536,0.015169,-4.4736,-1.3207,0.0005,0.00010436,0.00127500,-0.13162923,-0.00607195,0.01289090,-0.02443586,-0.2464,0.7259,-9.7793,-0.004941,0.007527,0.003390,28.8717,17.2154,33.6915,-3.3081,0.3070,116,0,0,-0.009692,0.006895,-0.308048,0.006165,0.102041,0.007739,2.4510,-3.6220,11.2960
12768,11.0,-0.006259,0.000079,-0.306938,-0.001879,-0.002021,0.015092,-4.4763,-1.3284,-0.0015,0.00009473,0.00132025,-0.13162541,-0.00608716,0.01289730,-0.02454393,-0.2707,0.7176,-9.8361,-0.002865,-0.012433,0.005079,28.8717,17.2154,33.6915,-3.3081,0.3070,116,0,0,-0.009720,0.006998,-0.306660,0.006921,0.101137,0.021678,2.4258,-3.6110,11.4569
12779,11.0,-0.006150,0.000109,-0.306779,-0.000329,-0.001954,0.013718,-4.4592,-1.3497,-0.0022,0.00006443,0.00138981,-0.13161924,-0.00610378,0.01289454,-0.02454579,-0.2292,0.7367,-9.9306,0.024091,-0.028667,0.001580,28.8717,17.2154,33.6915,-3.3081,0.3070,112,0,0,-0.009662,0.007073,-0.306419,0.007809,0.100590,0.022421,2.3774,-3.6054,11.5141
12790,11.0,-0.006040,0.000158,-0.307339,0.000880,-0.001581,0.003378,-4.4316,-1.3714,-0.0021,0.00002375,0.00145276,-0.13161333,-0.00601419,0.01261559,-0.02115915,-0.2501,0.7491,-10.0032,0.039034,-0.030258,-0.002134,28.8717,17.2154,33.6915,-3.3980,0.3090,118,0,0,-0.009569,0.007170,-0.306198,0.009510,0.101449,0.022366,2.4394,-3.6014,11.1364
12801,11.0,-0.005986,0.000192,-0.307315,0.001161,-0.000593,0.000995,-4.4118,-1.3787,-0.0011,-0.00000232,0.00147762,-0.13161069,-0.00601423,0.01260224,-0.02116135,-0.2673,0.8266,-10.0114,0.029501,-0.015791,0.006922,28.8717,17.2154,33.6915,-3.3980,0.3090,111,0,0,-0.009395,0.007402,-0.307150,0.011665,0.103059,0.006635,2.4480,-3.6275,11.2872
12812,11.0,-0.005984,0.000208,-0.307253,0.000695,0.000127,0.000055,-4.4037,-1.3730,0.0000,-0.00001272,0.00147250,-0.13161083,-0.00602206,0.01262427,-0.02146345,-0.2786,0.8242,-9.9465,0.014294,-0.001771,0.016266,28.8717,17.2154,33.6915,-3.3980,0.3090,113,0,0,-0.009355,0.007503,-0.307096,0.011789,0.103518,0.005467,2.4069,-3.6179,11.3456
12823,11.0,-0.006009,0.000220,-0.307121,-0.000271,0.000533,0.000218,-4.3989,-1.3617,0.0008,-0.00001709,0.00145713,-0.13161202,-0.00602977,0.01266888,-0.02212881,-0.3025,0.8032,-9.9283,0.010440,0.004790,0.018407,28.8717,17.2154,33.6915,-3.3980,0.3080,109,0,0,-0.009341,0.007582,-0.306969,0.011605,0.104601,0.005823,2.4395,-3.6299,11.4533
12834,11.0,-0.006092,-0.000224,-0.307076,-0.001514,-0.005014,0.000098,-4.4155,-1.3408,0.0062,0.00023127,0.00141454,-0.13162225,-0.00603114,0.01271884,-0.02234931,-0.2731,0.7273,-9.8650,0.026063,0.015046,0.012013,26.8906,16.5098,32.4047,-3.3980,0.3080,109,0,-1,-0.009397,0.007713,-0.306954,0.009768,0.104348,0.004810,2.4093,-3.6112,11.6408
12845,11.0,-0.006211,-0.000198,-0.307076,-0.003289,-0.004111,-0.000038,-4.3958,-1.3134,0.0011,0.00018570,0.00136003,-0.13162541,-0.00601376,0.01271041,-0.02235079,-0.2951,0.7662,-9.8117,0.025878,0.023179,0.013078,26.8906,16.5098,32.4047,-3.3980,0.3080,106,0,0,-0.009378,0.007358,-0.306912,0.009708,0.098600,0.005068,2.3495,-3.5836,11.7184
12856,11.0,-0.006368,-0.000182,-0.308083,-0.004795,-0.003402,-0.011133,-4.3833,-1.2792,0.0013,0.00015013,0.00129455,-0.13162965,-0.00586959,0.01233055,-0.01758456,-0.2432,0.7608,-9.7383,0.016640,0.031661,0.016992,26.8906,16.5098,32.4047,-3.4561,0.3100,106,0,0,-0.009470,0.007426,-0.306861,0.008210,0.099248,0.005762,2.3882,-3.5779,11.8311
12867,11.0,-0.006485,-0.000158,-0.308202,-0.006514,-0.002803,-0.010527,-4.3676,-1.2549,0.0008,0.00011557,0.00126267,-0.13163136,-0.00584890,0.01232421,-0.01758587,-0.3195,0.7484,-9.7401,0.021551,0.022627,0.016230,26.8906,16.5098,32.4047,-3.4561,0.3100,109,0,0,-0.009730,0.007531,-0.308223,0.004741,0.099375,-0.005903,2.3697,-3.5255,12.0241
12878,11.0,-0.006548,-0.000641,-0.308239,-0.007386,-0.008299,-0.010311,-4.3995,-1.2413,0.0068,0.00036864,0.00127128,-0.13163830,-0.00586238,0.01239800,-0.01797567,-0.3162,0.7287,-9.8680,0.001597,0.012933,0.017879,26.8906,16.5098,32.4047,-3.4561,0.3100,105,0,-1,-0.009843,0.007592,-0.308196,0.003139,0.098893,-0.003436,2.3276,-3.4957,12.0999
12889,11.0,-0.006678,-0.000696,-0.307623,-0.009080,-0.007942,-0.002173,-4.4213,-1.2113,0.0007,0.00034881,0.00124781,-0.13163972,-0.00594036,0.01266152,-0.02138130,-0.3303,0.7621,-9.8301,-0.035221,0.033211,0.014695,26.8906,16.5098,32.4047,-3.4561,0.3080,105,0,0,-0.009871,0.007234,-0.308269,0.002567,0.093833,-0.002680,2.2920,-3.4425,11.8405
12900,11.0,-0.006855,-0.000736,-0.307577,-0.010576,-0.007240,-0.000243,-4.4350,-1.1742,0.0003,0.00032294,0.00120609,-0.13164221,-0.00594154,0.01268032,-0.02168536,-0.2713,0.7770,-9.6919,-0.023401,0.041143,0.011689,26.8906,16.5098,32.4047,-3.4561,0.3080,107,0,0,-0.009984,0.007213,-0.307531,0.001025,0.093984,0.006303,2.2920,-3.4286,11.9538
12911,11.0,-0.006924,-0.000743,-0.307574,-0.010608,-0.005281,0.000892,-4.4288,-1.1641,-0.0021,0.00028615,0.00123497,-0.13163874,-0.00594042,0.01265929,-0.02168839,-0.2598,0.8725,-9.6878,0.006101,0.012209,0.006973,26.8906,16.5098,32.4047,-3.4561,0.3080,107,0,0,-0.010230,0.007214,-0.307285,-0.001178,0.094136,0.011245,2.2307,-3.3800,12.1386
12922,11.0,-0.006448,-0.000727,-0.308303,-0.004411,-0.003579,-0.006314,-4.4131,-1.2010,-0.0167,0.00024663,0.00157378,-0.13160889,-0.00591112,0.01237871,-0.01826373,-0.2524,0.8424,-9.6562,0.020907,-0.003838,0.012667,26.8906,16.5098,32.4047,-3.4561,0.3100,116,1,0,-0.009845,0.007359,-0.307170,0.003562,0.096135,0.013298,2.1742,-3.3787,12.1864
12933,11.0,-0.006442,-0.000246,-0.308369,-0.004433,0.002667,-0.005547,-4.3786,-1.2003,-0.0086,-0.00004782,0.00160702,-0.13159738,-0.00590931,0.01230109,-0.01827660,-0.2727,0.7965,-9.7236,0.002767,-0.002439,0.018307,27.2884,17.2228,34.0821,-3.5089,0.3100,116,0,1,-0.009942,0.007866,-0.308365,0.002374,0.102595,0.001466,2.2169,-3.3882,12.2910
12945,12.0,-0.006402,-0.000235,-0.308324,-0.004516,0.001616,-0.003277,-4.3807,-1.2071,-0.0018,-0.00003896,0.00166367,-0.13159300,-0.00593929,0.01234407,-0.01876678,-0.3108,0.6817,-9.7166,0.001623,-0.010058,0.018805,27.2884,17.2228,34.0821,-3.5089,0.3100,118,0,0,-0.010011,0.008445,-0.308212,0.001609,0.106362,0.005813,2.1950,-3.3888,12.4693
12956,11.0,-0.006337,-0.000221,-0.308174,-0.003940,0.000567,0.000372,-4.3787,-1.2189,-0.0009,-0.00004128,0.00173166,-0.13158780,-0.00597024,0.01242839,-0.01956781,-0.2791,0.6532,-9.6599,0.005564,-0.015591,0.015902,27.2884,17.2228,34.0821,-3.5089,0.3090,113,0,0,-0.009974,0.008526,-0.308143,0.001993,0.104449,0.007524,2.1417,-3.3855,12.5468
12967,11.0,-0.006259,-0.000195,-0.308083,-0.003082,0.000055,0.002788,-4.3681,-1.2345,-0.0016,-0.00005504,0.00180217,-0.13158196,-0.00600266,0.01245498,-0.01993779,-0.2611,0.6800,-9.6703,0.017050,-0.020217,0.003649,27.2884,17.2228,34.0821,-3.5089,0.3090,122,0,0,-0.009855,0.008709,-0.307955,0.003937,0.101959,0.012002,2.1152,-3.4026,12.7223
12978,11.0,-0.006167,-0.000165,-0.308050,-0.002481,-0.000659,0.003083,-4.3554,-1.2525,-0.0002,-0.00007624,0.00187840,-0.13157591,-0.00600901,0.01246556,-0.01993926,-0.2970,0.6566,-9.7783,0.019166,-0.023278,0.008807,27.2884,17.2228,34.0821,-3.5089,0.3090,122,0,0,-0.009786,0.008807,-0.307705,0.004927,0.101509,0.015564,2.1417,-3.4256,12.8218
12990,12.0,-0.006013,-0.000173,-0.308514,-0.000845,-0.001576,-0.003371,-4.3623,-1.2818,-0.0001,-0.00008036,0.00198738,-0.13156793,-0.00596543,0.01228808,-0.01774206,-0.2608,0.6792,-9.8645,-0.007351,-0.033363,0.015314,27.2884,17.2228,34.0821,-3.5089,0.3100,120,0,0,-0.009706,0.008913,-0.307552,0.005841,0.100368,0.016690,2.1243,-3.3994,12.4467
13001,11.0,-0.005897,-0.000197,-0.308556,-0.000031,-0.002835,-0.004313,-4.3779,-1.2983,0.0015,-0.00008139,0.00206224,-0.13156292,-0.00597164,0.01230655,-0.01774258,-0.2849,0.6508,-9.8895,-0.021904,-0.021760,0.015843,27.2884,17.2228,34.0821,-3.5089,0.3100,122,0,0,-0.009430,0.009073,-0.308437,0.008884,0.098638,0.005198,2.0689,-3.4357,12.6183
13012,11.0,-0.005792,-0.000196,-0.308478,0.000554,-0.003560,-0.004985,-4.3777,-1.3142,0.0005,-0.00010369,0.00212497,-0.13155800,-0.00600492,0.01235005,-0.01837534,-0.2916,0.6718,-10.0144,-0.000531,-0.022451,0.009770,27.2884,17.2228,34.0821,-3.6041,0.3100,121,0,0,-0.009315,0.009133,-0.308388,0.009832,0.097842,0.005139,2.0711,-3.4590,12.7217
13023,11.0,-0.005765,-0.000222,-0.308798,-0.000549,-0.004106,-0.009844,-4.3905,-1.3122,0.0010,-0.00011478,0.00214395,-0.13155666,-0.00595026,0.01227204,-0.01725551,-0.3647,0.7067,-9.9717,-0.019390,-0.001546,0.007105,27.2884,17.2228,34.0821,-3.6041,0.3100,120,0,0,-0.009135,0.009277,-0.308794,0.010226,0.096121,-0.002569,2.0259,-3.4753,12.8903
13034,11.0,-0.005818,-0.000241,-0.308804,-0.002176,-0.004413,-0.009152,-4.3988,-1.2949,-0.0011,-0.00013179,0.00212000,-0.13155769,-0.00596235,0.01230351,-0.01773602,-0.3384,0.7089,-9.8506,-0.013185,0.014495,0.008669,28.4739,17.2228,34.4958,-3.6041,0.3100,114,0,0,-0.009115,0.009314,-0.308715,0.009195,0.094907,-0.002025,1.9607,-3.4626,12.9634
13045,11.0,-0.005863,0.000236,-0.308906,-0.003614,0.000920,-0.009392,-4.3694,-1.2817,-0.0118,-0.00044143,0.00211187,-0.13154760,-0.00594041,0.01226105,-0.01774397,-0.3442,0.7102,-9.8194,-0.007141,0.011713,0.001401,28.4739,17.2228,34.4958,-3.6041,0.3100,116,0,1,-0.009149,0.009342,-0.308736,0.007766,0.094397,-0.001718,1.9659,-3.4584,13.0703
13056,11.0,-0.005878,0.000250,-0.308936,-0.003913,0.000638,-0.008672,-4.3646,-1.2776,0.0002,-0.00044514,0.00212847,-0.13154636,-0.00595433,0.01228231,-0.01806412,-0.2823,0.7279,-9.8101,0.009496,0.001438,0.001596,28.4739,17.2228,34.4958,-3.6041,0.3100,112,0,0,-0.009417,0.010297,-0.308973,0.003350,0.102395,-0.002421,1.9576,-3.4353,13.2287
13067,11.0,-0.005908,0.000271,-0.309032,-0.004093,0.000662,-0.008689,-4.3557,-1.2714,0.0001,-0.00045370,0.00213758,-0.13154553,-0.00594986,0.01228077,-0.01806471,-0.2563,0.7461,-9.7990,0.015067,0.003774,-0.001301,28.4739,17.2228,34.4958,-3.6041,0.3100,118,0,0,-0.009432,0.010370,-0.308998,0.003150,0.101030,-0.001704,1.9062,-3.4179,13.2958
13078,11.0,-0.006004,0.000286,-0.308991,-0.005498,0.000532,-0.007342,-4.3501,-1.2512,-0.0006,-0.00045848,0.00210944,-0.13154729,-0.00596759,0.01232067,-0.01867742,-0.3041,0.7382,-9.8248,0.010319,0.019587,-0.006397,28.4739,17.2228,34.4958,-3.6041,0.3100,116,0,0,-0.009458,0.010439,-0.308873,0.003026,0.100694,0.000728,1.9255,-3.4212,13.3960
13089,11.0,-0.006114,0.000277,-0.309051,-0.006407,-0.000043,-0.007288,-4.3584,-1.2278,0.0002,-0.00045086,0.00208226,-0.13154952,-0.00595942,0.01233245,-0.01877212,-0.2554,0.7190,-9.8188,-0.009474,0.024470,-0.000533,28.4739,17.2228,34.4958,-3.5089,0.3100,116,0,0,-0.009632,0.010535,-0.308855,0.001204,0.098883,0.001862,1.9104,-3.3534,13.0724
13100,11.0,-0.006141,0.000260,-0.309052,-0.006503,0.000156,-0.006132,-4.3686,-1.2219,0.0005,-0.00043939,0.00210956,-0.13154794,-0.00597669,0.01235744,-0.01912184,-0.2722,0.7935,-9.7752,-0.011828,0.006612,-0.002905,28.4739,17.2228,34.4958,-3.5089,0.3100,116,0,0,-0.009723,0.010564,-0.309079,0.000616,0.097362,-0.000010,1.8464,-3.3188,13.1386
13111,11.0,-0.006176,0.000253,-0.309116,-0.006140,0.000373,-0.005554,-4.3734,-1.2150,0.0001,-0.00043320,0.00213161,-0.13154653,-0.00597891,0.01235316,-0.01912264,-0.2190,0.7851,-9.7436,-0.003947,0.006587,0.005640,28.4739,17.2228,34.4958,-3.5089,0.3100,114,0,0,-0.009756,0.010595,-0.309076,0.000431,0.097120,0.000985,1.8483,-3.3177,13.2350
13122,11.0,-0.006068,0.000275,-0.309585,-0.004846,0.001367,-0.011930,-4.3617,-1.2395,-0.0011,-0.00044216,0.00223928,-0.13153812,-0.00593432,0.01223778,-0.01743295,-0.2829,0.8491,-9.9491,0.019220,-0.027377,0.001832,28.4739,17.2228,34.4958,-3.5089,0.3110,108,0,0,-0.009763,0.010715,-0.308919,0.001454,0.096923,0.003885,1.8035,-3.3080,13.3928
13133,11.0,-0.005992,0.000266,-0.309725,-0.004366,0.001980,-0.013628,-4.3689,-1.2531,-0.0008,-0.00042383,0.00232066,-0.13153237,-0.00593233,0.01222774,-0.01743591,-0.3166,0.8553,-9.9419,-0.005110,-0.016376,0.023223,26.4981,16.5023,34.4958,-3.5089,0.3110,112,0,0,-0.009672,0.010816,-0.309770,0.002524,0.097217,-0.006149,1.7489,-3.3105,13.4517
13144,11.0,-0.005970,0.000271,-0.309781,-0.004780,0.001311,-0.013986,-4.3716,-1.2554,-0.0004,-0.00041520,0.00236629,-0.13152912,-0.00595229,0.01226100,-0.01788336,-0.3402,0.7239,-9.9417,0.000259,-0.004851,0.019954,26.4981,16.5023,34.4958,-3.5089,0.3110,105,0,0,-0.009536,0.010955,-0.309819,0.002898,0.097187,-0.006452,1.6950,-3.3283,13.6356
13156,12.0,-0.006034,0.000309,-0.309442,-0.006024,0.001151,-0.007627,-4.3541,-1.2432,0.0004,-0.00042953,0.00236568,-0.13152894,-0.00600748,0.01241796,-0.01998687,-0.3238,0.7198,-9.7535,0.025746,0.009244,0.010734,26.4981,16.5023,34.4958,-3.4878,0.3100,107,0,0,-0.009522,0.011017,-0.309766,0.002453,0.096483,-0.005487,1.7037,-3.3359,13.7441
13167,11.0,-0.006117,0.000363,-0.309446,-0.006642,0.001227,-0.005424,-4.3280,-1.2299,-0.0006,-0.00045544,0.00235667,-0.13152879,-0.00601713,0.01243807,-0.02030377,-0.2576,0.7104,-9.6815,0.039165,0.011538,0.004719,26.4981,16.5023,34.4958,-3.4878,0.3100,103,0,0,-0.009646,0.011171,-0.309550,0.000474,0.094760,0.000200,1.6927,-3.3154,13.9261
13178,11.0,-0.006169,0.000380,-0.309495,-0.006765,0.000449,-0.003573,-4.3231,-1.2209,0.0004,-0.00046151,0.00237104,-0.13152772,-0.00601220,0.01245219,-0.02030334,-0.2479,0.6606,-9.6376,0.009162,0.008793,0.007442,26.4981,16.5023,34.4958,-3.4878,0.3100,107,0,0,-0.009725,0.011249,-0.309447,-0.000108,0.093621,0.003205,1.6592,-3.2898,13.9952
13189,11.0,-0.006199,0.000382,-0.309752,-0.006672,-0.000398,-0.004011,-4.3257,-1.2156,0.0001,-0.00046270,0.00239979,-0.13152564,-0.00598526,0.01238001,-0.01935608,-0.2502,0.6580,-9.6039,-0.001933,0.005579,0.005648,26.4981,16.5023,34.4958,-3.4878,0.3110,107,0,0,-0.009776,0.011305,-0.309406,-0.000058,0.092852,0.005599,1.6958,-3.2616,13.6252
13200,11.0,-0.006196,0.000421,-0.309793,-0.006548,-0.001313,-0.003457,-4.3070,-1.2201,0.0013,-0.00049568,0.00244892,-0.13152167,-0.00597987,0.01239944,-0.01935667,-0.2844,0.6119,-9.7577,0.025768,-0.005348,-0.005735,26.4981,16.5023,34.4958,-3.4878,0.3110,112,0,0,-0.009837,0.011416,-0.309867,0.000008,0.090412,0.004356,1.6565,-3.2417,13.7917
13211,11.0,-0.006194,0.000459,-0.309744,-0.006331,-0.001860,-0.003856,-4.2876,-1.2244,0.0005,-0.00053105,0.00249494,-0.13151760,-0.00600192,0.01242286,-0.01976094,-0.2775,0.6494,-9.9456,0.026594,-0.005389,-0.009967,26.4981,16.5023,34.4958,-3.4878,0.3110,103,0,0,-0.009842,0.011506,-0.309823,0.000203,0.089136,0.005403,1.6269,-3.2315,13.8532
13223,12.0,-0.006284,0.000470,-0.309945,-0.007378,-0.001722,-0.007021,-4.2794,-1.2088,0.0001,-0.00055207,0.00249137,-0.13151740,-0.00596778,0.01237646,-0.01917038,-0.2978,0.7339,-9.9235,0.010447,0.016068,-0.014481,26.8933,16.1421,32.8412,-3.4878,0.3110,110,0,0,-0.009903,0.011647,-0.310029,-0.000158,0.088268,0.001423,1.6093,-3.2177,13.9963
13234,11.0,-0.006419,0.000436,-0.309946,-0.007872,-0.001382,-0.005784,-4.2964,-1.1813,-0.0003,-0.00054096,0.00245847,-0.13151996,-0.00597259,0.01240001,-0.01947863,-0.2015,0.7913,-9.7639,-0.022862,0.030901,-0.005858,26.8933,16.1421,32.8412,-3.4878,0.3110,109,0,0,-0.009992,0.011667,-0.309927,-0.001247,0.088549,0.002622,1.6162,-3.2060,14.0849
13245,11.0,-0.006515,0.000423,-0.309997,-0.008144,-0.000859,-0.003515,-4.3025,-1.1632,0.0000,-0.00053989,0.00245414,-0.13152030,-0.00596855,0.01239370,-0.01947904,-0.2210,0.7802,-9.5902,-0.007211,0.020128,0.008105,26.8933,16.1421,32.8412,-3.4878,0.3110,119,0,0,-0.010101,0.011666,-0.309901,-0.001940,0.088003,0.003725,1.5464,-3.1667,14.1443
13256,11.0,-0.006508,0.000431,-0.310532,-0.007350,-0.000277,-0.006598,-4.2975,-1.1675,0.0000,-0.00055022,0.00251403,-0.13151570,-0.00591772,0.01224691,-0.01741899,-0.2274,0.7658,-9.5393,0.008288,-0.004279,0.009728,26.8933,16.1421,32.8412,-3.4878,0.3120,119,0,0,-0.010199,0.011674,-0.309854,-0.002505,0.088156,0.006343,1.5469,-3.1532,14.2410
