timestamp_ms,dt_ms,pos_x,pos_y,pos_z,vel_x,vel_y,vel_z,roll_deg,pitch_deg,yaw_deg,gyro_bias_x,gyro_bias_y,gyro_bias_z,accel_bias_x,accel_bias_y,accel_bias_z,raw_accel_x,raw_accel_y,raw_accel_z,raw_gyro_x,raw_gyro_y,raw_gyro_z,raw_mag_x,raw_mag_y,raw_mag_z,raw_baro_alt,raw_tof,raw_flow_squal,raw_flow_dx,raw_flow_dy,dev_pos_x,dev_pos_y,dev_pos_z,dev_vel_x,dev_vel_y,dev_vel_z,dev_roll_deg,dev_pitch_deg,dev_yaw_deg
11327,10.0,-0.000460,-0.000050,-0.316938,-0.047631,-0.000489,-0.001187,-0.0058,0.0089,0.0010,0.00000000,0.00000000,-0.13171183,-0.00151348,0.00339969,0.00000000,-0.3293,0.8976,-9.8495,-0.006445,-0.001856,-0.022963,26.1084,16.4875,33.7145,-3.3768,0.3170,111,-1,0,-0.002872,-0.000981,-0.316721,-0.014061,0.003677,0.007945,-2.8117,-2.0271,1.4500
11338,11.0,-0.001009,-0.000651,-0.316946,-0.051495,-0.022360,-0.000373,-0.2298,0.0146,0.0070,0.00000035,-0.00000000,-0.13171184,-0.00151029,0.00376862,0.00000004,-0.3261,0.9189,-9.7298,-0.028913,0.006086,-0.009972,26.1084,16.4875,33.7145,-3.3768,0.3180,101,-1,-1,-0.003321,-0.000975,-0.317053,-0.018827,0.004629,0.002869,-2.8699,-1.9620,1.5617
11349,11.0,-0.001055,-0.001259,-0.315051,-0.036792,-0.027409,0.084510,-0.4888,-0.3045,-0.0188,0.00000108,0.00000097,-0.13171178,-0.00209600,0.00421366,-0.00005047,-0.3580,0.8705,-9.6397,-0.023997,0.006939,-0.003052,26.1084,17.5681,34.5420,-3.3768,0.3180,112,0,-1,-0.003775,-0.001461,-0.317024,-0.023041,0.000321,0.003160,-2.9145,-1.9084,1.7345
11361,12.0,-0.001058,-0.001332,-0.317930,-0.027986,-0.013870,-0.028756,-0.2995,-0.7327,-0.0387,0.00000026,0.00000280,-0.13171160,-0.00284483,0.00387569,0.00004618,-0.4203,0.7224,-9.8293,0.007949,-0.012069,-0.016042,26.1084,17.5681,34.5420,-3.3768,0.3180,110,0,0,-0.003834,-0.001941,-0.316882,-0.018181,-0.002028,0.005535,-2.9423,-2.0572,1.8337
11372,11.0,-0.001050,-0.001357,-0.318145,-0.022730,-0.004137,-0.027791,-0.1843,-1.1260,-0.0328,-0.00000033,0.00000505,-0.13171141,-0.00353258,0.00369613,0.00000896,-0.4606,0.7286,-9.9777,0.019696,-0.009696,-0.032908,26.1084,17.5681,34.5420,-3.3768,0.3170,108,0,0,-0.003822,-0.001921,-0.316562,-0.015564,-0.000619,0.008002,-2.8676,-2.1562,1.8559
11384,12.0,-0.001169,-0.001394,-0.318485,-0.020768,0.004514,-0.028820,-0.2477,-1.3511,-0.0154,0.00000015,0.00000677,-0.13171129,-0.00394845,0.00381227,0.00001448,-0.4071,0.8599,-9.8787,0.005144,0.014278,-0.031572,26.1084,17.5681,34.5420,-3.3768,0.3170,110,0,0,-0.003848,-0.001880,-0.316387,-0.012438,0.003367,0.005307,-2.6953,-2.2943,1.9222
11395,11.0,-0.001296,-0.001338,-0.317178,-0.017842,0.012440,0.000610,-0.2323,-1.4793,-0.0100,0.00000051,0.00000803,-0.13171120,-0.00422727,0.00393682,-0.00095220,-0.1990,0.8416,-9.7623,0.067762,0.010307,-0.052410,26.1084,17.5681,34.5420,-3.3768,0.3170,113,0,0,-0.003985,-0.001880,-0.316260,-0.012683,0.007283,0.006153,-2.5742,-2.3053,1.9845
11406,11.0,-0.001428,-0.001230,-0.317163,-0.016027,0.021407,0.002229,-0.3221,-1.5782,-0.0045,0.00000211,0.00000914,-0.13171114,-0.00441283,0.00420399,-0.00094886,-0.2501,1.0900,-9.6450,0.097891,0.007603,-0.017675,26.1084,17.5681,34.5420,-3.3768,0.3180,113,0,0,-0.004094,-0.001791,-0.316199,-0.011671,0.009660,0.006465,-2.5186,-2.2934,1.9897
11417,11.0,-0.001479,-0.001537,-0.317040,-0.011182,0.015440,0.004679,-1.2635,-1.7748,0.0075,0.00001467,0.00001157,-0.13171117,-0.00476114,0.00599514,-0.00112324,-0.1283,1.0616,-9.6446,0.081022,-0.010699,0.018109,26.1084,17.5681,34.5420,-3.3768,0.3180,123,0,-1,-0.004249,-0.001549,-0.316978,-0.008214,0.019488,-0.000150,-2.3468,-2.3150,2.0591
11428,11.0,-0.001478,-0.001473,-0.317541,-0.007118,0.018301,-0.002482,-1.5235,-1.9886,-0.0084,0.00001867,0.00001460,-0.13171096,-0.00509658,0.00639582,-0.00003705,-0.2646,0.8983,-9.7309,0.030584,-0.013888,0.024484,26.1084,17.5681,34.5420,-3.3768,0.3180,120,0,0,-0.004259,-0.001889,-0.316976,-0.005112,0.017877,0.001077,-2.2820,-2.3574,2.1721
11439,11.0,-0.001835,-0.001816,-0.317529,-0.015131,0.006608,-0.003501,-2.4227,-1.5500,0.0479,0.00003463,0.00000673,-0.13171208,-0.00430479,0.00803100,-0.00024643,-0.3313,0.7135,-9.8829,0.015947,-0.020037,0.025388,26.1084,17.5681,34.5420,-3.3768,0.3160,117,-1,-1,-0.004602,-0.002214,-0.316016,-0.007234,0.014770,0.011452,-2.2316,-2.3509,2.4002
11450,11.0,-0.001857,-0.001799,-0.317584,-0.011324,0.007262,-0.005879,-2.5320,-1.7758,-0.0056,0.00003688,0.00001138,-0.13171178,-0.00470229,0.00822235,-0.00023487,-0.3212,0.6785,-9.9918,0.002366,-0.007032,0.007410,26.8960,17.5756,32.8640,-3.4878,0.3160,121,0,0,-0.004531,-0.002179,-0.315912,-0.004901,0.014572,0.009720,-2.1735,-2.4040,2.4494
11462,12.0,-0.001991,-0.001767,-0.316265,-0.010532,0.009942,0.008655,-2.5077,-1.7416,0.0000,0.00003776,0.00001128,-0.13171181,-0.00484175,0.00871548,-0.00594916,-0.2268,0.7358,-9.9758,0.026876,0.019610,-0.013498,26.8960,17.5756,32.8640,-3.4878,0.3160,122,0,0,-0.004499,-0.002164,-0.315722,-0.002951,0.015386,0.008905,-2.0715,-2.4507,2.5275
11473,11.0,-0.002145,-0.001697,-0.316177,-0.010600,0.012789,0.007659,-2.5642,-1.6633,0.0036,0.00004017,0.00000959,-0.13171200,-0.00473814,0.00886463,-0.00595612,-0.1964,0.8645,-9.8712,0.048422,0.024773,-0.008574,26.8960,17.5756,32.8640,-3.4878,0.3170,124,0,0,-0.004710,-0.002074,-0.316102,-0.002069,0.018910,-0.000283,-1.9018,-2.4295,2.6675
11484,11.0,-0.002235,-0.002016,-0.315994,-0.008646,0.004110,0.008993,-3.1088,-1.6772,0.0071,0.00005941,0.00001037,-0.13171232,-0.00479788,0.00994343,-0.00666449,-0.1567,0.8452,-9.7455,0.055094,0.006439,0.006099,26.8960,17.5756,32.8640,-3.4878,0.3170,116,0,-1,-0.004837,-0.001994,-0.316111,-0.002052,0.021039,-0.001096,-1.8579,-2.3922,2.5969
11495,11.0,-0.002255,-0.002337,-0.316200,-0.005053,-0.003361,0.006188,-3.5119,-1.7528,0.0018,0.00007608,0.00001308,-0.13171236,-0.00487557,0.01057438,-0.00477830,-0.1195,0.8000,-9.6983,0.070976,-0.013174,0.013037,26.8960,17.5756,32.8640,-3.4878,0.3170,116,0,-1,-0.004903,-0.002361,-0.316123,-0.000508,0.018327,-0.001002,-1.7857,-2.4056,2.7100
11506,11.0,-0.002267,-0.002274,-0.316046,-0.002715,0.000622,0.008002,-3.3698,-1.7922,-0.0008,0.00007180,0.00001474,-0.13171217,-0.00495682,0.01044788,-0.00537734,-0.1744,0.7488,-9.7163,0.072719,-0.012378,0.008139,26.8960,17.5756,32.8640,-3.4878,0.3160,120,0,0,-0.004879,-0.002599,-0.315988,0.003748,0.018352,0.002617,-1.6171,-2.4314,2.8334
11517,11.0,-0.002359,-0.002246,-0.315955,-0.004020,0.001747,0.008500,-3.3416,-1.7151,0.0000,0.00007101,0.00001165,-0.13171238,-0.00484901,0.01042049,-0.00537908,-0.2848,0.6499,-9.7458,0.025033,0.018407,0.015268,26.8960,17.5756,32.8640,-3.4878,0.3160,116,0,0,-0.004867,-0.002486,-0.315657,0.004998,0.020717,0.006810,-1.5316,-2.4279,2.8620
11528,11.0,-0.002455,-0.002257,-0.315509,-0.005753,0.001388,0.012333,-3.3572,-1.6555,-0.0005,0.00007213,0.00000937,-0.13171256,-0.00484988,0.01068234,-0.00837707,-0.3547,0.5896,-9.8208,-0.010014,0.023688,-0.004310,26.8960,17.5756,32.8640,-3.4508,0.3160,119,0,0,-0.005032,-0.002408,-0.315513,0.003445,0.022382,0.007564,-1.3613,-2.4175,3.0425
11539,11.0,-0.002535,-0.002295,-0.315384,-0.007170,0.001295,0.010625,-3.4300,-1.6286,0.0012,0.00007545,0.00000881,-0.13171269,-0.00483549,0.01076940,-0.00838942,-0.3993,0.7132,-9.9403,-0.035106,0.022544,-0.012760,27.6863,16.1347,33.6915,-3.4508,0.3160,112,0,0,-0.005122,-0.002411,-0.315502,0.002158,0.022868,0.006519,-1.2730,-2.4186,3.1397
11550,11.0,-0.002702,-0.002329,-0.315191,-0.010015,0.002849,0.010072,-3.4929,-1.5361,0.0010,0.00007913,0.00000404,-0.13171317,-0.00474970,0.01091562,-0.00924831,-0.3767,0.8741,-9.9221,-0.026031,0.042488,-0.008533,27.6863,16.1347,33.6915,-3.4508,0.3160,108,0,0,-0.005193,-0.002424,-0.315446,0.000968,0.023223,0.005148,-1.2641,-2.4211,3.2021
11561,11.0,-0.002908,-0.002301,-0.315207,-0.012365,0.006120,0.008726,-3.4989,-1.4403,0.0011,0.00008074,-0.00000174,-0.13171367,-0.00460511,0.01085583,-0.00802132,-0.2941,0.9591,-9.7586,0.027199,0.042008,-0.005185,27.6863,16.1347,33.6915,-3.4508,0.3160,115,0,0,-0.005488,-0.002452,-0.315280,-0.002524,0.027465,0.004137,-1.1944,-2.3924,3.3587
11572,11.0,-0.003057,-0.002185,-0.315046,-0.013005,0.010784,0.009418,-3.4182,-1.4189,-0.0005,0.00007891,-0.00000243,-0.13171367,-0.00461064,0.01087496,-0.00869381,-0.2888,0.9781,-9.7846,0.100915,0.015383,-0.000815,27.6863,16.1347,33.6915,-3.4508,0.3150,112,0,0,-0.005678,-0.002420,-0.315237,-0.003996,0.031422,0.004595,-1.0819,-2.3823,3.4668
11583,11.0,-0.003205,-0.002039,-0.314952,-0.013639,0.013544,0.007632,-3.3430,-1.4042,-0.0003,0.00007804,-0.00000255,-0.13171366,-0.00460888,0.01086149,-0.00869132,-0.3061,0.8317,-9.9457,0.110843,0.013349,0.011162,27.6863,16.1347,33.6915,-3.4508,0.3150,117,0,0,-0.005984,-0.002158,-0.314720,-0.005397,0.038817,0.008083,-0.8580,-2.3752,3.2576
11594,11.0,-0.003492,-0.001947,-0.314554,-0.016928,0.013585,0.012122,-3.3373,-1.2904,0.0022,0.00008219,-0.00001210,-0.13171458,-0.00456603,0.01116404,-0.01186709,-0.2998,0.6856,-9.7203,0.056419,0.055769,0.021600,27.6863,16.1347,33.6915,-3.4297,0.3150,110,0,0,-0.006150,-0.002025,-0.314564,-0.006144,0.040393,0.007969,-0.7906,-2.3645,3.3249
11605,11.0,-0.003815,-0.002274,-0.314411,-0.019484,0.004418,0.014616,-3.5436,-1.1773,0.0073,0.00011802,-0.00002228,-0.13171642,-0.00444219,0.01161957,-0.01198512,-0.2110,0.5782,-9.5699,0.063140,0.060607,0.005595,27.6863,16.1347,33.6915,-3.4297,0.3160,114,0,-1,-0.006419,-0.001942,-0.314482,-0.008112,0.041501,0.008698,-0.6670,-2.3446,3.4531
11616,11.0,-0.003985,-0.002192,-0.314159,-0.018414,0.005333,0.018046,-3.4889,-1.1798,0.0003,0.00011541,-0.00001892,-0.13171612,-0.00450347,0.01165281,-0.01279300,-0.1783,0.6302,-9.5759,0.063067,0.021094,-0.006185,27.6863,16.1347,33.6915,-3.4297,0.3160,104,0,0,-0.006904,-0.002631,-0.315121,-0.009307,0.031622,0.004526,-0.5396,-2.2918,3.6637
11627,11.0,-0.004100,-0.002571,-0.314730,-0.015364,-0.001587,0.011445,-3.6756,-1.2034,0.0002,0.00015311,-0.00001227,-0.13171636,-0.00435277,0.01144142,-0.00494699,-0.0556,0.7284,-9.5432,0.041561,0.010442,-0.000543,27.6863,16.1347,33.6915,-3.4297,0.3160,107,0,-1,-0.007041,-0.002535,-0.315066,-0.008414,0.033060,0.006936,-0.4632,-2.2791,3.6940
11638,11.0,-0.004155,-0.002543,-0.314535,-0.011828,-0.000016,0.013880,-3.6402,-1.2431,0.0025,0.00014945,-0.00000323,-0.13171569,-0.00445606,0.01145297,-0.00555406,-0.0582,0.7042,-9.6369,0.030221,-0.000872,0.000348,27.6863,16.1347,33.6915,-3.4297,0.3130,101,0,0,-0.007108,-0.002915,-0.314886,-0.005667,0.030248,0.010758,-0.3768,-2.3014,3.7889
11649,11.0,-0.004084,-0.002588,-0.314386,-0.007825,-0.000831,0.013248,-3.6849,-1.3276,0.0043,0.00015354,0.00001464,-0.13171458,-0.00460801,0.01148823,-0.00556102,-0.1719,0.6360,-9.8520,-0.039017,-0.018494,0.016888,26.5089,15.7521,34.1743,-3.4297,0.3130,107,0,0,-0.007113,-0.002834,-0.313278,0.000019,0.034754,0.027579,-0.2281,-2.3330,3.8694
11660,11.0,-0.003812,-0.002686,-0.313101,-0.002012,-0.003461,0.022822,-3.7614,-1.4959,0.0130,0.00015975,0.00004926,-0.13171266,-0.00514040,0.01240208,-0.01707707,-0.2845,0.5414,-10.1905,-0.084250,-0.058212,0.019193,26.5089,15.7521,34.1743,-3.4297,0.3130,107,0,0,-0.006996,-0.002842,-0.312930,0.002827,0.034987,0.027942,-0.2209,-2.3599,3.8969
11671,11.0,-0.003532,-0.002782,-0.312887,0.002517,-0.005344,0.016159,-3.8325,-1.6371,0.0142,0.00016512,0.00008027,-0.13171110,-0.00532062,0.01243395,-0.01708501,-0.3433,0.6071,-10.4110,-0.078276,-0.056978,0.010751,26.5089,15.7521,34.1743,-3.5037,0.3150,107,0,0,-0.006732,-0.002890,-0.312666,0.006827,0.034761,0.025010,-0.1765,-2.4362,3.9734
11682,11.0,-0.003934,-0.002812,-0.312643,-0.004591,-0.003463,0.010492,-3.8338,-1.4877,-0.0167,0.00016277,0.00003445,-0.13171378,-0.00512958,0.01249744,-0.01812621,-0.2878,0.8478,-10.4224,-0.010794,-0.007860,-0.007839,26.5089,15.7521,34.1743,-3.5037,0.3150,105,-1,0,-0.006665,-0.003006,-0.313712,0.007144,0.035838,-0.000737,-0.0728,-2.5294,3.8284
11693,11.0,-0.004077,-0.002792,-0.313466,-0.005735,0.000081,-0.006031,-3.8058,-1.4330,-0.0022,0.00015891,0.00002365,-0.13171443,-0.00488865,0.01187076,-0.00947996,-0.2317,0.9655,-10.3060,0.030891,0.027354,-0.007083,26.5089,15.7521,34.1743,-3.5037,0.3150,105,0,0,-0.006610,-0.003006,-0.313750,0.008040,0.039038,-0.006729,0.0104,-2.5638,3.9112
11704,11.0,-0.004305,-0.002737,-0.313465,-0.007872,0.003368,-0.007280,-3.7615,-1.3467,-0.0019,0.00015421,0.00000423,-0.13171580,-0.00483745,0.01190859,-0.01025230,-0.1993,0.9152,-9.9827,0.053878,0.043497,0.014915,26.5089,15.7521,34.1743,-3.5037,0.3140,113,0,0,-0.006880,-0.002926,-0.313744,0.005881,0.047599,-0.012957,0.2275,-2.5602,4.1113
11715,11.0,-0.004524,-0.002625,-0.313547,-0.008953,0.006221,-0.007666,-3.6854,-1.2772,-0.0003,0.00014639,-0.00001239,-0.13171695,-0.00478122,0.01188155,-0.01024308,-0.1312,0.8215,-9.8231,0.093539,0.034039,0.027550,26.5089,15.7521,34.1743,-3.5037,0.3140,120,0,0,-0.007090,-0.002852,-0.313798,0.004324,0.051617,-0.013452,0.3493,-2.5474,4.2297
11726,11.0,-0.005257,-0.002485,-0.313387,-0.018988,0.007420,-0.004518,-3.5999,-1.0602,-0.0077,0.00013726,-0.00009081,-0.13172257,-0.00457458,0.01201094,-0.01246376,-0.2213,0.6473,-9.7729,0.106405,0.047483,0.028785,26.5089,15.7521,34.1743,-3.5037,0.3140,116,-1,0,-0.007988,-0.002607,-0.314071,-0.003935,0.055821,-0.012828,0.5541,-2.4643,4.4339
11737,11.0,-0.006019,-0.002347,-0.313440,-0.028188,0.007865,-0.005121,-3.5219,-0.8727,-0.0117,0.00012965,-0.00016105,-0.13172722,-0.00435874,0.01198717,-0.01245780,-0.2451,0.5879,-9.8574,0.101518,0.050116,0.031039,26.5089,15.7521,34.1743,-3.5037,0.3140,116,-1,0,-0.008704,-0.002486,-0.313837,-0.011145,0.056257,-0.008702,0.6356,-2.4028,4.5296
11747,10.0,-0.006349,-0.002334,-0.313408,-0.029165,0.005346,-0.005907,-3.5394,-0.8131,-0.0024,0.00013720,-0.00016726,-0.13172773,-0.00435938,0.01206998,-0.01331523,-0.1818,0.4638,-10.0035,-0.001950,0.072444,0.031821,26.1084,16.8477,34.1282,-3.4772,0.3140,117,0,0,-0.009001,-0.002375,-0.313931,-0.012165,0.056012,-0.009882,0.7661,-2.3891,4.6470
11758,11.0,-0.006917,-0.002465,-0.313402,-0.033071,0.000823,-0.003733,-3.6636,-0.6570,-0.0154,0.00016164,-0.00020094,-0.13172990,-0.00427707,0.01218025,-0.01390082,-0.1559,0.4465,-9.6849,-0.123372,0.139491,0.031497,26.1084,16.8477,34.1282,-3.4772,0.3140,119,0,0,-0.009755,-0.002426,-0.314052,-0.015460,0.052107,-0.010417,0.8303,-2.2865,4.8308
11770,12.0,-0.007489,-0.002626,-0.313349,-0.035286,-0.003100,0.001422,-3.7991,-0.5174,-0.0143,0.00018440,-0.00022579,-0.13173139,-0.00421700,0.01229438,-0.01457961,-0.0767,0.4918,-9.4580,-0.139072,0.131912,0.017776,26.1084,16.8477,34.1282,-3.4772,0.3130,116,0,0,-0.010282,-0.002581,-0.313305,-0.018401,0.048739,0.001043,0.7794,-2.1845,4.8904
11781,11.0,-0.007782,-0.002738,-0.313312,-0.033519,-0.005285,0.005161,-3.8733,-0.4908,0.0038,0.00019473,-0.00021235,-0.13173084,-0.00425820,0.01232653,-0.01459001,-0.0537,0.5370,-9.4709,-0.090680,0.066252,0.011287,26.1084,16.8477,34.1282,-3.4772,0.3130,120,0,0,-0.010763,-0.002751,-0.313201,-0.019929,0.046587,0.005586,0.7773,-2.1182,4.9940
11792,11.0,-0.007363,-0.002346,-0.312645,-0.022312,0.000761,0.013913,-3.8054,-0.6568,0.0645,0.00012675,-0.00009479,-0.13172473,-0.00469810,0.01245372,-0.01968013,-0.1137,0.6153,-9.6556,-0.049320,0.002560,0.004714,26.1084,16.8477,34.1282,-3.4772,0.3130,115,1,1,-0.010792,-0.002448,-0.312897,-0.011499,0.052167,0.013811,0.8839,-2.1187,4.9043
11803,11.0,-0.007316,-0.001512,-0.312486,-0.017671,0.011867,0.015067,-3.6798,-0.7183,0.0501,-0.00000088,-0.00005032,-0.13172202,-0.00482233,0.01208702,-0.01960802,-0.0745,0.5801,-9.7062,-0.077382,-0.009531,0.014763,26.1084,16.8477,34.1282,-3.4772,0.3140,119,0,2,-0.010807,-0.002023,-0.312753,-0.008936,0.057313,0.015636,0.8961,-2.1303,4.9213
11814,11.0,-0.007308,-0.000614,-0.312198,-0.014339,0.021405,0.018876,-3.5507,-0.7561,0.0460,-0.00012375,-0.00001884,-0.13172023,-0.00492280,0.01179541,-0.02047157,-0.0813,0.4898,-9.5895,-0.044176,-0.003150,-0.001486,26.1084,16.8477,34.1282,-3.5142,0.3140,119,0,2,-0.010811,-0.001179,-0.313332,-0.005940,0.067421,0.009236,0.9838,-2.1723,5.0040
11825,11.0,-0.007143,-0.000587,-0.312747,-0.010179,0.018038,0.011021,-3.5972,-0.8414,0.0147,-0.00009018,0.00003404,-0.13171805,-0.00497615,0.01151530,-0.01421224,-0.1712,0.5687,-9.7099,-0.010086,-0.042354,-0.011565,26.1084,16.8477,34.1282,-3.5142,0.3140,116,0,0,-0.010761,-0.000248,-0.312999,-0.000762,0.073761,0.014930,1.0880,-2.2241,5.0847
11836,11.0,-0.006787,-0.000567,-0.312553,-0.004575,0.014116,0.010264,-3.6392,-0.9799,0.0301,-0.00006152,0.00011386,-0.13171494,-0.00517376,0.01162423,-0.01494039,-0.2443,0.4958,-9.9721,-0.013745,-0.084112,-0.007429,26.8987,17.5681,33.7145,-3.5142,0.3120,117,0,0,-0.010592,-0.000180,-0.312140,0.002477,0.072009,0.024232,1.0982,-2.2640,5.0916
11847,11.0,-0.006424,-0.000606,-0.312446,0.000799,0.010622,0.009074,-3.7103,-1.1011,0.0262,-0.00002832,0.00018631,-0.13171224,-0.00532906,0.01169681,-0.01496994,-0.2118,0.5632,-9.9167,-0.054915,-0.078069,-0.004774,26.8987,17.5681,33.7145,-3.5142,0.3120,117,0,0,-0.009876,-0.000044,-0.311677,0.011746,0.069108,0.022048,1.1727,-2.4316,5.1676
11858,11.0,-0.006115,-0.000667,-0.311689,0.005187,0.007984,0.017289,-3.7861,-1.1886,0.0163,0.00000384,0.00023967,-0.13171020,-0.00549981,0.01204594,-0.02024678,-0.1677,0.6265,-9.7597,-0.065083,-0.062071,0.004040,26.8987,17.5681,33.7145,-3.5142,0.3120,115,0,0,-0.009511,-0.000028,-0.311331,0.016031,0.068284,0.023022,1.2188,-2.5182,5.2359
11869,11.0,-0.005882,-0.000279,-0.311489,0.008395,0.012115,0.019187,-3.7837,-1.2388,0.0207,-0.00005111,0.00027108,-0.13170817,-0.00556245,0.01193461,-0.02023178,-0.1268,0.6529,-9.6352,-0.075516,-0.041460,0.008206,26.8987,17.5681,33.7145,-3.5142,0.3140,119,0,1,-0.009196,-0.000019,-0.311101,0.019394,0.067169,0.023772,1.1921,-2.5647,5.2504
11880,11.0,-0.005653,0.000150,-0.311154,0.010963,0.016757,0.023615,-3.7656,-1.2828,0.0168,-0.00010597,0.00029592,-0.13170637,-0.00562281,0.01186699,-0.02108911,-0.1415,0.7034,-9.5197,-0.045674,-0.043462,0.011490,26.8987,17.5681,33.7145,-3.5142,0.3140,117,0,1,-0.008801,0.000861,-0.312448,0.023181,0.076631,0.010429,1.2506,-2.6278,5.1165
11891,11.0,-0.005845,0.000612,-0.311080,0.006281,0.020997,0.022776,-3.7374,-1.2610,-0.0093,-0.00015928,0.00023622,-0.13170895,-0.00548757,0.01168186,-0.01954901,-0.2699,0.6966,-9.6713,-0.023831,-0.055099,0.013518,26.8987,17.5681,33.7145,-3.5512,0.3120,113,-1,1,-0.009012,0.001296,-0.312329,0.019467,0.081280,0.013503,1.3293,-2.6672,5.2098
11902,11.0,-0.006087,0.000610,-0.310746,0.000796,0.017526,0.022270,-3.7959,-1.2344,-0.0186,-0.00011328,0.00017598,-0.13171312,-0.00539156,0.01180212,-0.02030023,-0.3544,0.6257,-9.9543,-0.031143,-0.043453,0.004387,26.8987,17.5681,33.7145,-3.5512,0.3120,112,-1,0,-0.009427,0.001767,-0.311575,0.011826,0.083226,0.019725,1.3952,-2.7292,5.3513
11913,11.0,-0.006084,0.000573,-0.310513,-0.000545,0.013949,0.020209,-3.8675,-1.2238,-0.0008,-0.00006683,0.00017648,-0.13171417,-0.00539260,0.01187416,-0.02031090,-0.3452,0.6219,-9.9945,-0.054968,0.008727,0.001048,26.8987,17.5681,33.7145,-3.5512,0.3120,112,0,0,-0.009694,0.001770,-0.311273,0.007543,0.080735,0.019610,1.3785,-2.7462,5.4101
11924,11.0,-0.006247,0.000500,-0.310726,-0.003279,0.010578,0.013531,-3.9518,-1.1642,-0.0075,-0.00001984,0.00014447,-0.13171713,-0.00530174,0.01176236,-0.01704517,-0.2824,0.6451,-9.9566,-0.078511,0.049354,-0.009924,26.8987,17.5681,33.7145,-3.5512,0.3120,112,0,0,-0.009696,0.001760,-0.311086,0.007077,0.079094,0.018143,1.4185,-2.7643,5.5032
11935,11.0,-0.006515,0.000404,-0.310578,-0.006699,0.007992,0.013258,-4.0414,-1.0784,-0.0098,0.00002608,0.00009503,-0.13172118,-0.00523826,0.01182193,-0.01705082,-0.2413,0.7085,-9.8248,-0.089523,0.073369,-0.003764,26.8987,17.5681,33.7145,-3.5512,0.3140,112,0,0,-0.009800,0.001729,-0.310916,0.005790,0.076796,0.016812,1.3797,-2.7452,5.5522
11946,11.0,-0.006794,0.000347,-0.310299,-0.009162,0.006654,0.017119,-4.0990,-0.9994,-0.0076,0.00005887,0.00004964,-0.13172479,-0.00519522,0.01191801,-0.01799126,-0.1646,0.7429,-9.5802,-0.054541,0.068834,0.002220,27.6863,17.2154,34.1052,-3.5512,0.3140,117,0,0,-0.010315,0.002031,-0.312478,0.001115,0.079105,-0.000867,1.3675,-2.6644,5.6942
11957,11.0,-0.006906,0.000335,-0.311773,-0.008955,0.006063,-0.000480,-4.1202,-0.9766,-0.0005,0.00007824,0.00004794,-0.13172533,-0.00495171,0.01122894,-0.00541478,-0.1388,0.7451,-9.6036,-0.015437,0.024114,0.004341,27.6863,17.2154,34.1052,-3.5512,0.3140,113,0,0,-0.010566,0.001985,-0.312345,-0.000268,0.078444,0.003176,1.4056,-2.6402,5.7986
11968,11.0,-0.006875,0.000377,-0.311681,-0.008068,0.004863,0.001657,-4.1098,-0.9968,0.0039,0.00008257,0.00007872,-0.13172343,-0.00500622,0.01127694,-0.00613004,-0.2478,0.6227,-9.7020,0.023438,-0.013089,0.012529,27.6863,17.2154,34.1052,-3.5512,0.3120,113,0,0,-0.010733,0.002054,-0.311829,0.001083,0.078077,0.012122,1.4703,-2.6387,5.9300
11979,11.0,-0.006793,0.000435,-0.311667,-0.006613,0.003171,0.000865,-4.0881,-1.0304,0.0062,0.00007928,0.00011982,-0.13172083,-0.00505529,0.01127315,-0.00613194,-0.2492,0.5496,-9.8720,0.033887,-0.025877,0.008694,27.6863,17.2154,34.1052,-3.5512,0.3120,112,0,0,-0.010689,0.002150,-0.311606,0.002378,0.077345,0.014454,1.4967,-2.6584,5.9751
11990,11.0,-0.006739,0.000488,-0.311319,-0.005971,0.001696,0.003178,-4.0654,-1.0536,0.0052,0.00007237,0.00015119,-0.13171881,-0.00514258,0.01142180,-0.00869088,-0.2793,0.5554,-9.9617,0.032910,-0.018403,-0.004858,27.6863,17.2154,34.1052,-3.5512,0.3120,116,0,0,-0.010615,0.002250,-0.311463,0.004171,0.077144,0.014308,1.6059,-2.6839,5.7463
12001,11.0,-0.006706,0.000488,-0.311292,-0.005096,0.000077,0.001850,-4.0723,-1.0667,0.0044,0.00007488,0.00017617,-0.13171744,-0.00516630,0.01142429,-0.00869233,-0.2259,0.5802,-9.9216,-0.006501,-0.008392,-0.008856,27.6863,17.2154,34.1052,-3.5512,0.3140,114,0,0,-0.010500,0.002438,-0.312514,0.006377,0.076165,-0.002470,1.7238,-2.7449,5.8773
12012,11.0,-0.006585,0.000441,-0.311149,-0.003107,-0.000772,0.003699,-4.1040,-1.0983,0.0070,0.00008665,0.00022082,-0.13171509,-0.00522812,0.01149009,-0.00959509,-0.2121,0.6821,-9.7583,-0.038335,-0.023364,-0.004863,27.6863,17.2154,34.1052,-3.5512,0.3140,112,0,0,-0.010448,0.002487,-0.312544,0.007495,0.075477,-0.003128,1.7266,-2.7563,5.9134
12023,11.0,-0.006345,0.000419,-0.312217,0.001387,-0.000296,-0.008677,-4.1156,-1.1607,0.0079,0.00009034,0.00029095,-0.13171072,-0.00510581,0.01100650,-0.00158716,-0.0928,0.7702,-9.7243,-0.014201,-0.054436,0.002907,27.6863,17.2154,34.1052,-3.5512,0.3140,116,0,0,-0.010159,0.002542,-0.312461,0.011807,0.076291,0.000088,1.7659,-2.8254,6.0273
12034,11.0,-0.006087,0.000410,-0.312215,0.005114,0.000980,-0.006739,-4.1209,-1.2198,0.0040,0.00009406,0.00035287,-0.13170652,-0.00517695,0.01105229,-0.00227500,-0.1356,0.8414,-9.7027,-0.002359,-0.058197,0.014231,25.7079,16.5023,33.2548,-3.5512,0.3130,120,0,0,-0.009921,0.002596,-0.312369,0.015676,0.078334,0.002368,1.8362,-2.8907,6.1107
12045,11.0,-0.005835,0.000392,-0.312287,0.007523,0.001501,-0.006346,-4.1350,-1.2700,0.0015,0.00010305,0.00040511,-0.13170290,-0.00522219,0.01106025,-0.00227686,-0.2182,0.7988,-9.7428,-0.012333,-0.053638,0.027906,25.7079,16.5023,33.2548,-3.5512,0.3130,116,0,0,-0.009670,0.002673,-0.312342,0.018772,0.080033,0.003826,1.8261,-2.9239,6.1331
12057,12.0,-0.006594,0.000379,-0.312159,-0.003047,0.002057,-0.003539,-4.1489,-1.1900,-0.0010,0.00011312,0.00017479,-0.13172057,-0.00506092,0.01115941,-0.00368684,-0.2193,0.8003,-9.7416,-0.010127,-0.039287,0.020847,25.7079,16.5023,33.2548,-3.4931,0.3130,127,-2,0,-0.009199,0.002796,-0.312121,0.022842,0.082891,0.007627,1.8779,-3.0152,6.2716
12068,11.0,-0.006413,0.000339,-0.312203,-0.000969,0.002285,-0.004612,-4.1779,-1.2312,-0.0015,0.00013209,0.00023499,-0.13171624,-0.00510653,0.01117392,-0.00368789,-0.2681,0.8256,-9.8748,-0.030185,-0.036471,0.020758,25.7079,16.5023,33.2548,-3.4931,0.3140,125,0,0,-0.009896,0.002750,-0.312042,0.013637,0.083350,0.008766,1.9410,-3.0267,6.4229
12080,12.0,-0.006280,0.000276,-0.312172,0.000119,0.001728,-0.005865,-4.2267,-1.2554,-0.0014,0.00015883,0.00027703,-0.13171348,-0.00514901,0.01124169,-0.00441507,-0.2835,0.7918,-9.9866,-0.051832,-0.021803,0.022894,25.7079,16.5023,33.2548,-3.4931,0.3140,124,0,0,-0.009553,0.002796,-0.312822,0.016864,0.084973,-0.000904,1.9581,-3.0761,6.2829
12091,11.0,-0.006186,0.000257,-0.312704,0.000423,0.001672,-0.013732,-4.2424,-1.2712,-0.0011,0.00017060,0.00030535,-0.13171147,-0.00509706,0.01102664,-0.00130641,-0.3071,0.7905,-10.0138,-0.014638,-0.017823,0.009659,25.7079,16.5023,33.2548,-3.4931,0.3140,129,0,0,-0.009417,0.002814,-0.312843,0.017524,0.085046,-0.002260,1.9183,-3.0936,6.3397
12102,11.0,-0.006152,0.000252,-0.312792,0.000787,0.002245,-0.015383,-4.2496,-1.2728,-0.0004,0.00017906,0.00031400,-0.13171096,-0.00511308,0.01107045,-0.00184829,-0.2280,0.8383,-10.0095,-0.003149,-0.007086,0.003794,25.7079,16.5023,33.2548,-3.4931,0.3120,127,0,0,-0.009310,0.002853,-0.312741,0.017765,0.086254,-0.002277,1.9782,-3.1300,6.4443
12113,11.0,-0.006238,0.000244,-0.312965,-0.000255,0.002656,-0.016007,-4.2589,-1.2437,0.0025,0.00019003,0.00028569,-0.13171366,-0.00510089,0.01107509,-0.00184741,-0.2129,0.8202,-9.8335,-0.005376,0.020105,0.004231,25.7079,16.5023,33.2548,-3.4772,0.3120,127,0,0,-0.009256,0.002958,-0.311782,0.017647,0.088679,0.005320,2.0334,-3.1525,6.5994
12125,12.0,-0.006257,0.000256,-0.311939,-0.000536,0.003569,-0.001733,-4.2582,-1.2326,0.0007,0.00019654,0.00028004,-0.13171431,-0.00528730,0.01171049,-0.01001136,-0.2251,0.8428,-9.7676,0.007605,0.003091,0.007260,25.7079,16.5023,33.2548,-3.4772,0.3120,130,0,0,-0.009321,0.003004,-0.311734,0.016508,0.089122,0.005392,2.0136,-3.1305,6.6548
12136,11.0,-0.006184,0.000294,-0.311957,0.000362,0.004237,-0.001658,-4.2430,-1.2474,-0.0026,0.00019816,0.00030422,-0.13171221,-0.00529788,0.01171123,-0.01001150,-0.2217,0.8058,-9.7788,0.028219,-0.020215,0.005014,25.7079,16.5023,33.2548,-3.4772,0.3140,130,0,0,-0.009352,0.003047,-0.311678,0.015832,0.090540,0.006314,2.0788,-3.1438,6.7678
12147,11.0,-0.006078,0.000313,-0.311884,0.001282,0.004717,-0.000902,-4.2399,-1.2670,-0.0035,0.00020798,0.00033627,-0.13170959,-0.00532661,0.01176797,-0.01065262,-0.2496,0.8185,-9.8181,0.013399,-0.024798,0.012808,25.7105,15.0541,34.1052,-3.4772,0.3140,120,0,0,-0.009206,0.003242,-0.312614,0.017004,0.092857,-0.002794,2.1555,-3.1863,6.9206
12158,11.0,-0.006018,0.000306,-0.312537,0.001314,0.004153,-0.008767,-4.2544,-1.2727,-0.0012,0.00022820,0.00035251,-0.13170868,-0.00523273,0.01142380,-0.00641743,-0.2750,0.7531,-9.8221,-0.009003,-0.011231,0.014594,25.7105,15.0541,34.1052,-3.4772,0.3140,117,0,0,-0.009017,0.003400,-0.312563,0.017952,0.094284,-0.000719,2.2092,-3.2332,7.0826
12169,11.0,-0.005923,0.000260,-0.312565,0.001997,0.003513,-0.008465,-4.2908,-1.2834,-0.0019,0.00025861,0.00037871,-0.13170716,-0.00525482,0.01147691,-0.00690204,-0.2518,0.7886,-9.8341,-0.039322,-0.014745,0.016604,25.7105,15.0541,34.1052,-3.4772,0.3110,118,0,0,-0.008938,0.003454,-0.311200,0.017934,0.093839,0.014806,2.1899,-3.2412,7.1387
12180,11.0,-0.005864,0.000174,-0.312657,0.002036,0.002840,-0.008245,-4.3486,-1.2818,0.0000,0.00030060,0.00039151,-0.13170716,-0.00525989,0.01149352,-0.00689958,-0.2637,0.8230,-9.7600,-0.067791,-0.002296,0.018930,25.7105,15.0541,34.1052,-3.4772,0.3110,113,0,0,-0.008841,0.003469,-0.310976,0.018502,0.094250,0.016127,2.2264,-3.2726,7.2531
12191,11.0,-0.005780,0.000105,-0.311216,0.002040,0.001875,0.010344,-4.3948,-1.2863,-0.0008,0.00032995,0.00041189,-0.13170621,-0.00551611,0.01236338,-0.01682910,-0.2942,0.7722,-9.7231,-0.056752,-0.009191,0.023530,25.7105,15.0541,34.1052,-3.3610,0.3110,117,0,0,-0.008682,0.003448,-0.310580,0.018597,0.093764,0.019251,2.2056,-3.2670,7.0166
12203,12.0,-0.005591,0.000099,-0.311090,0.003475,0.001278,0.010602,-4.4055,-1.3213,-0.0054,0.00033870,0.00046791,-0.13170153,-0.00553934,0.01236701,-0.01682833,-0.2725,0.7385,-9.7748,-0.008158,-0.038731,0.017764,25.7105,15.0541,34.1052,-3.3610,0.3140,116,0,0,-0.008567,0.003469,-0.312113,0.018826,0.092845,0.001444,2.1481,-3.2749,7.0946
12214,11.0,-0.005413,0.000144,-0.310927,0.004751,0.001430,0.010673,-4.3844,-1.3550,-0.0053,0.00032784,0.00051597,-0.13169701,-0.00556698,0.01239174,-0.01715981,-0.2708,0.7490,-9.8443,0.032215,-0.042439,0.007207,25.7105,15.0541,34.1052,-3.3610,0.3140,116,0,0,-0.008391,0.003531,-0.312095,0.020016,0.093308,0.002421,2.2027,-3.3224,7.2058
12225,11.0,-0.005381,0.000164,-0.310916,0.004133,0.001094,0.009669,-4.3775,-1.3518,0.0004,0.00032556,0.00050976,-0.13169748,-0.00554607,0.01233097,-0.01647347,-0.2732,0.7219,-9.7744,0.013404,-0.007233,-0.000250,25.7105,15.0541,34.1052,-3.3610,0.3120,114,0,0,-0.008092,0.003745,-0.311992,0.021479,0.094513,0.003568,2.2780,-3.3886,7.3699
12236,11.0,-0.005354,0.000194,-0.310763,0.003590,0.000067,0.011686,-4.3661,-1.3491,-0.0001,0.00031677,0.00050416,-0.13169767,-0.00555055,0.01234867,-0.01672158,-0.2658,0.6300,-9.6623,0.017702,-0.007178,-0.005209,27.2911,16.4949,33.6915,-3.3610,0.3120,109,0,0,-0.008056,0.003830,-0.311480,0.020762,0.094251,0.009844,2.2732,-3.3866,7.4294
12247,11.0,-0.005684,0.000203,-0.310630,-0.001357,-0.000944,0.012578,-4.3650,-1.3309,0.0058,0.00031155,0.00037534,-0.13170771,-0.00549433,0.01234642,-0.01672374,-0.2905,0.6452,-9.7218,0.003068,-0.033155,-0.004925,27.2911,16.4949,33.6915,-3.3610,0.3120,108,-1,0,-0.008396,0.003946,-0.311250,0.015096,0.092884,0.013959,2.3404,-3.3954,7.6149
12258,11.0,-0.005485,0.000171,-0.311289,0.001335,-0.001882,0.003964,-4.3860,-1.3698,-0.0027,0.00031903,0.00045233,-0.13170190,-0.00538435,0.01192840,-0.01171351,-0.2158,0.6879,-9.7316,-0.026291,-0.040726,0.002930,27.2911,16.4949,33.6915,-3.3610,0.3130,109,0,0,-0.008676,0.003964,-0.311043,0.011509,0.092459,0.016135,2.3999,-3.4254,7.7363
12270,12.0,-0.005312,0.000103,-0.311239,0.002763,-0.001977,0.004239,-4.4254,-1.3976,-0.0018,0.00033637,0.00051009,-0.13169783,-0.00540910,0.01193575,-0.01171135,-0.2773,0.7991,-9.7634,-0.047509,-0.030040,0.005933,27.2911,16.4949,33.6915,-3.4191,0.3130,112,0,0,-0.008481,0.004025,-0.311652,0.014173,0.092091,0.008916,2.3663,-3.4473,7.7837
12282,12.0,-0.005163,0.000020,-0.311124,0.003525,-0.002133,0.003479,-4.4742,-1.4157,-0.0012,0.00035966,0.00055396,-0.13169500,-0.00543909,0.01198208,-0.01217882,-0.3019,0.8281,-9.9215,-0.058894,-0.022068,0.016295,27.2911,16.4949,33.6915,-3.4191,0.3130,108,0,0,-0.008155,0.004067,-0.311394,0.017241,0.093459,0.011584,2.3619,-3.4783,7.5500
12294,12.0,-0.004998,-0.000059,-0.311005,0.004319,-0.002596,0.002402,-4.5201,-1.4364,-0.0017,0.00037972,0.00060111,-0.13169177,-0.00546980,0.01203198,-0.01272411,-0.3101,0.8047,-9.9630,-0.055838,-0.025531,0.019643,27.2911,16.4949,33.6915,-3.4191,0.3120,105,0,0,-0.008006,0.004066,-0.311282,0.018184,0.094446,0.011212,2.3825,-3.5157,7.6642
12305,11.0,-0.004847,-0.000077,-0.310932,0.004265,-0.002210,0.001377,-4.5285,-1.4571,-0.0033,0.00037621,0.00064269,-0.13168816,-0.00549130,0.01205875,-0.01307087,-0.3779,0.8219,-9.9372,-0.010433,-0.028963,0.017565,27.2911,16.4949,33.6915,-3.4191,0.3120,114,0,0,-0.007698,0.004105,-0.311013,0.019465,0.095598,0.010556,2.3522,-3.5699,7.8541
12316,11.0,-0.004708,-0.000034,-0.310929,0.004094,-0.001738,-0.000705,-4.5040,-1.4797,-0.0051,0.00034987,0.00068042,-0.13168402,-0.00549942,0.01205320,-0.01307196,-0.3805,0.7708,-9.9772,0.033522,-0.032811,0.009091,27.2911,16.4949,33.6915,-3.4191,0.3120,113,0,0,-0.007561,0.004176,-0.310845,0.019333,0.096013,0.010710,2.3200,-3.5896,7.9296
12327,11.0,-0.004621,0.000037,-0.311453,0.003772,-0.000816,-0.007874,-4.4640,-1.4933,-0.0049,0.00031473,0.00069925,-0.13168108,-0.00540414,0.01180279,-0.01002345,-0.3406,0.7784,-9.9014,0.055413,-0.025103,0.009410,27.2911,16.4949,33.6915,-3.4191,0.3130,112,0,0,-0.007438,0.004277,-0.310744,0.019050,0.097230,0.009907,2.3897,-3.6302,8.0480
12338,11.0,-0.004592,0.000097,-0.311542,0.003267,-0.000284,-0.008157,-4.4319,-1.4935,-0.0024,0.00028733,0.00069528,-0.13168037,-0.00540345,0.01179766,-0.01002547,-0.2970,0.7513,-9.8136,0.045414,-0.011679,0.006536,27.6808,16.5098,34.4727,-3.3821,0.3130,115,0,0,-0.007276,0.004537,-0.311474,0.018511,0.099565,0.000597,2.4717,-3.6784,8.2439
12349,11.0,-0.005089,0.000120,-0.311576,-0.003141,-0.000585,-0.007791,-4.4220,-1.4430,0.0109,0.00027560,0.00048591,-0.13169700,-0.00537588,0.01182381,-0.01038228,-0.2839,0.7135,-9.8210,0.015753,-0.000267,0.007810,27.6808,16.5098,34.4727,-3.3821,0.3130,115,-1,0,-0.007246,0.004660,-0.311471,0.018032,0.099908,0.001221,2.4704,-3.6775,8.3162
12360,11.0,-0.005124,0.000109,-0.311285,-0.004065,-0.001802,-0.004336,-4.4318,-1.4304,-0.0000,0.00027485,0.00048652,-0.13169694,-0.00545702,0.01200432,-0.01264223,-0.3425,0.6624,-9.8859,-0.012235,0.009767,0.006083,27.6808,16.5098,34.4727,-3.3821,0.3120,117,0,0,-0.007693,0.004757,-0.311368,0.012099,0.099022,0.002680,2.5121,-3.6724,8.5443
12371,11.0,-0.005709,0.000050,-0.311292,-0.011002,-0.003215,-0.004488,-4.4667,-1.3625,0.0080,0.00028847,0.00027023,-0.13171412,-0.00543083,0.01202774,-0.01291224,-0.3178,0.6819,-9.8579,-0.047321,0.027540,0.008020,27.6808,16.5098,34.4727,-3.3821,0.3120,122,-1,0,-0.008161,0.004723,-0.311156,0.006327,0.097807,0.004647,2.5495,-3.6669,8.6930
12382,11.0,-0.005862,0.000004,-0.311345,-0.011758,-0.003760,-0.005145,-4.4909,-1.3311,0.0007,0.00029175,0.00025834,-0.13171516,-0.00542893,0.01202826,-0.01291227,-0.2781,0.7395,-9.8522,-0.033930,0.035946,0.002407,27.6808,16.5098,34.4727,-3.3821,0.3120,125,0,0,-0.008671,0.004656,-0.311065,0.000767,0.095620,0.005345,2.4941,-3.6292,8.7961
12393,11.0,-0.005946,0.000472,-0.311124,-0.011702,0.002039,-0.001784,-4.4597,-1.3171,-0.0194,0.00008167,0.00027683,-0.13170587,-0.00549391,0.01211817,-0.01454294,-0.2783,0.7703,-9.7791,-0.012396,0.017596,0.005663,27.6808,16.5098,34.4727,-3.3821,0.3120,123,0,1,-0.008909,0.004655,-0.310882,0.000857,0.095132,0.007220,2.4946,-3.5661,8.5544
12404,11.0,-0.005994,0.000482,-0.311142,-0.010956,0.001402,-0.001521,-4.4598,-1.3130,-0.0007,0.00008551,0.00031098,-0.13170336,-0.00550016,0.01211885,-0.01454218,-0.2488,0.7247,-9.7717,0.004271,0.006923,0.002356,27.6808,16.5098,34.4727,-3.3821,0.3120,122,0,0,-0.009051,0.005123,-0.310975,0.000511,0.100947,0.006530,2.5544,-3.5740,8.6595
12415,11.0,-0.006019,0.000507,-0.311060,-0.010069,0.000671,-0.000082,-4.4512,-1.3139,-0.0014,0.00007967,0.00035111,-0.13170011,-0.00553003,0.01216218,-0.01512544,-0.2500,0.6918,-9.7750,0.014846,0.000693,-0.001669,27.6808,16.5098,34.4727,-3.4931,0.3120,122,0,0,-0.009117,0.005247,-0.310729,0.002388,0.100562,0.009872,2.5729,-3.5804,8.8336
12426,11.0,-0.005996,0.000557,-0.309929,-0.009384,0.000260,0.013057,-4.4272,-1.3257,-0.0021,0.00006099,0.00040687,-0.13169532,-0.00578480,0.01265064,-0.02162725,-0.3126,0.6869,-9.8092,0.035296,-0.012104,-0.011817,27.6808,16.5098,34.4727,-3.4931,0.3100,123,0,0,-0.009125,0.005335,-0.310633,0.003426,0.100007,0.010914,2.5548,-3.5748,8.8909
12437,11.0,-0.005911,0.000597,-0.309711,-0.007558,-0.000222,0.013893,-4.4087,-1.3509,-0.0020,0.00004329,0.00048828,-0.13168873,-0.00581694,0.01268032,-0.02206988,-0.2664,0.6831,-9.8120,0.027068,-0.025138,-0.014574,28.0787,16.5023,34.4958,-3.4931,0.3100,125,0,0,-0.009103,0.005439,-0.309585,0.004439,0.100536,0.022013,2.6278,-3.6047,8.9862
12448,11.0,-0.005803,0.000605,-0.309561,-0.005752,-0.000539,0.013387,-4.4059,-1.3774,-0.0011,0.00003720,0.00057222,-0.13168237,-0.00583236,0.01267924,-0.02206970,-0.2769,0.7267,-9.8485,0.005627,-0.026621,-0.013247,28.0787,16.5023,34.4958,-3.4931,0.3100,118,0,0,-0.008948,0.005649,-0.309138,0.007965,0.101123,0.023212,2.6750,-3.6500,9.1285
12459,11.0,-0.005704,0.000583,-0.309668,-0.004013,-0.001354,0.010546,-4.4206,-1.3981,-0.0001,0.00004218,0.00064445,-0.13167727,-0.00579383,0.01257457,-0.02062689,-0.2547,0.7043,-9.7911,-0.019062,-0.020801,-0.015878,28.0787,16.5023,34.4958,-3.4931,0.3110,116,0,0,-0.008845,0.005735,-0.308787,0.009599,0.100955,0.025047,2.6438,-3.6585,9.1740
12470,11.0,-0.005598,0.000567,-0.309551,-0.002454,-0.001134,0.010818,-4.4294,-1.4188,-0.0009,0.00004353,0.00071090,-0.13167235,-0.00580679,0.01257484,-0.02062643,-0.2603,0.7896,-9.7716,-0.010703,-0.022819,-0.015551,28.0787,16.5023,34.4958,-3.4931,0.3110,119,0,0,-0.008740,0.005793,-0.309420,0.011290,0.101126,0.016256,2.6748,-3.6920,9.2749
12481,11.0,-0.005416,0.000563,-0.309342,-0.000524,-0.000404,0.010588,-4.4306,-1.4554,-0.0027,0.00004147,0.00080539,-0.13166499,-0.00584180,0.01261501,-0.02118630,-0.2983,0.8405,-9.9196,0.000529,-0.040810,-0.015275,28.0787,16.5023,34.4958,-3.4931,0.3110,114,0,0,-0.008490,0.005930,-0.308992,0.014284,0.102650,0.019091,2.6960,-3.7005,8.9591
12492,11.0,-0.005773,0.000061,-0.309091,-0.005002,-0.004749,0.010018,-4.4780,-1.4390,0.0211,0.00027047,0.00064809,-0.13168538,-0.00585029,0.01270140,-0.02199237,-0.3019,0.9200,-9.9954,-0.010078,-0.026091,-0.001698,28.0787,16.5023,34.4958,-3.4350,0.3100,112,-1,-1,-0.008682,0.005510,-0.308813,0.011646,0.097630,0.018648,2.6305,-3.7014,9.0331
12503,11.0,-0.005787,0.000022,-0.308931,-0.004899,-0.003102,0.009198,-4.4930,-1.4330,-0.0014,0.00026872,0.00066787,-0.13168363,-0.00586338,0.01272598,-0.02232367,-0.2919,0.9341,-9.9245,-0.020762,0.004984,0.002591,28.0787,16.5023,34.4958,-3.4350,0.3100,112,0,0,-0.008841,0.005104,-0.308666,0.009591,0.096259,0.014880,2.5878,-3.7242,9.2179
12514,11.0,-0.006378,-0.000016,-0.308828,-0.011506,-0.001467,0.009623,-4.5095,-1.3693,0.0220,0.00027490,0.00042236,-0.13170588,-0.00583479,0.01272673,-0.02232478,-0.2915,0.9408,-9.7470,-0.020837,0.026413,0.005989,28.0787,16.5023,34.4958,-3.4350,0.3100,110,-1,0,-0.008861,0.005116,-0.308442,0.009308,0.098586,0.015987,2.6137,-3.7343,9.3336
12525,11.0,-0.006485,-0.000036,-0.309346,-0.011849,-0.000078,0.002903,-4.5183,-1.3498,-0.0009,0.00028002,0.00043401,-0.13170499,-0.00572230,0.01245557,-0.01889348,-0.2941,0.9172,-9.7305,-0.008614,0.022388,0.026003,28.0787,16.5023,34.4958,-3.4350,0.3110,112,0,0,-0.009379,0.005057,-0.308285,0.003186,0.098831,0.017242,2.5446,-3.6887,9.4309
12537,12.0,-0.006547,-0.000022,-0.309314,-0.011596,-0.000014,0.002532,-4.5126,-1.3427,-0.0042,0.00027270,0.00047327,-0.13170114,-0.00572755,0.01245463,-0.01889382,-0.2970,0.7776,-9.8259,0.010690,0.007034,0.033577,27.2911,17.2154,33.2778,-3.4350,0.3110,114,0,0,-0.009537,0.005121,-0.309142,0.002528,0.101255,0.008149,2.5157,-3.6706,9.6467
12548,11.0,-0.006621,0.000006,-0.309212,-0.011707,-0.000742,0.002845,-4.5013,-1.3323,-0.0031,0.00025649,0.00050028,-0.13169821,-0.00574520,0.01248972,-0.01932431,-0.3073,0.6868,-9.8580,0.017872,0.011373,0.025080,27.2911,17.2154,33.2778,-3.4350,0.3110,106,0,0,-0.009577,0.005183,-0.309059,0.002863,0.102022,0.008888,2.5584,-3.6848,9.7784
12559,11.0,-0.006766,0.000048,-0.307963,-0.012427,-0.001837,0.016925,-4.4814,-1.3076,-0.0011,0.00022657,0.00049175,-0.13169792,-0.00596095,0.01305442,-0.02584230,-0.2854,0.6216,-9.8166,0.026916,0.025751,0.013592,27.2911,17.2154,33.2778,-3.4350,0.3080,105,0,0,-0.009723,0.005334,-0.308780,0.002816,0.100999,0.010734,2.5800,-3.6759,9.9864
12570,11.0,-0.006876,0.000080,-0.307731,-0.012494,-0.002635,0.018133,-4.4651,-1.2921,-0.0021,0.00019758,0.00050536,-0.13169587,-0.00597087,0.01307098,-0.02608043,-0.2645,0.6392,-9.7505,0.021938,0.018349,-0.002460,27.2911,17.2154,33.2778,-3.3821,0.3080,107,0,0,-0.009855,0.005410,-0.307636,0.002428,0.099874,0.022672,2.5681,-3.6466,10.0562
12581,11.0,-0.006884,0.000077,-0.307531,-0.011556,-0.003981,0.018151,-4.4679,-1.2958,-0.0024,0.00018028,0.00056894,-0.13169044,-0.00598018,0.01306856,-0.02608162,-0.2796,0.6170,-9.8134,-0.005445,-0.000268,0.001271,27.2911,17.2154,33.2778,-3.3821,0.3080,106,0,0,-0.009956,0.005479,-0.307356,0.002476,0.099634,0.024651,2.6190,-3.6495,10.1667
12592,11.0,-0.006826,0.000066,-0.307109,-0.009681,-0.004495,0.020107,-4.4720,-1.3131,-0.0023,0.00016190,0.00065895,-0.13168313,-0.00603201,0.01316760,-0.02727604,-0.2528,0.6962,-9.8713,-0.008169,-0.014805,-0.011267,27.2911,17.2154,33.2778,-3.3821,0.3080,105,0,0,-0.009940,0.005595,-0.306782,0.004924,0.098353,0.026688,2.6373,-3.6309,9.9293
12603,11.0,-0.006787,0.000039,-0.306893,-0.008206,-0.003832,0.019110,-4.4819,-1.3239,-0.0022,0.00015203,0.00073016,-0.13167734,-0.00604036,0.01316655,-0.02727703,-0.2504,0.8240,-9.8916,-0.015117,-0.008782,-0.015059,27.2911,17.2154,33.2778,-3.3821,0.3110,112,0,0,-0.009878,0.005658,-0.308679,0.006440,0.098044,0.003631,2.5800,-3.6259,9.9855
12613,10.0,-0.006814,-0.000007,-0.306647,-0.007751,-0.002648,0.020135,-4.5021,-1.3170,-0.0009,0.00015930,0.00075801,-0.13167532,-0.00605337,0.01319112,-0.02756754,-0.2513,0.9113,-9.7561,-0.030304,0.009821,-0.000959,27.2911,17.2154,33.2778,-3.3821,0.3110,112,0,0,-0.009829,0.005700,-0.308645,0.007586,0.099428,0.003689,2.6073,-3.6481,10.0793
12624,11.0,-0.006877,-0.000021,-0.308332,-0.007673,-0.000631,-0.000255,-4.5048,-1.3057,-0.0011,0.00015523,0.00077346,-0.13167389,-0.00573299,0.01237525,-0.01753636,-0.2454,0.9456,-9.6021,-0.001114,0.012107,0.008564,27.6890,16.8477,32.8869,-3.3610,0.3110,111,0,0,-0.009860,0.005740,-0.308494,0.007424,0.102096,0.007438,2.5567,-3.6377,10.2445
12636,12.0,-0.006380,0.000001,-0.308289,-0.001501,0.001547,0.001605,-4.4896,-1.3478,-0.0251,0.00014705,0.00106728,-0.13164698,-0.00579560,0.01239053,-0.01773899,-0.2757,0.9379,-9.6633,0.023795,-0.010205,0.016183,27.6890,16.8477,32.8869,-3.3610,0.3080,105,1,0,-0.009894,0.005792,-0.307594,0.007146,0.103277,0.019310,2.5022,-3.6167,10.3025
12647,11.0,-0.006288,0.000034,-0.308273,-0.001087,0.002315,0.001445,-4.4746,-1.3639,-0.0052,0.00014083,0.00112395,-0.13164160,-0.00580594,0.01238948,-0.01773975,-0.3170,0.8377,-9.8031,0.026463,-0.024004,0.028343,27.6890,16.8477,32.8869,-3.3610,0.3080,109,0,0,-0.009395,0.006054,-0.307168,0.012147,0.106975,0.023539,2.5075,-3.6515,10.4642
12658,11.0,-0.006239,0.000053,-0.309169,-0.001497,0.002310,-0.009311,-4.4694,-1.3695,-0.0028,0.00014447,0.00115961,-0.13163848,-0.00566742,0.01198622,-0.01306208,-0.3471,0.7841,-9.8025,0.013434,-0.011987,0.028553,27.6890,16.8477,32.8869,-3.3610,0.3110,122,0,0,-0.009310,0.006157,-0.306871,0.012351,0.107971,0.025164,2.5514,-3.6815,10.5868
12669,11.0,-0.006236,0.000082,-0.309274,-0.002035,0.001570,-0.009704,-4.4605,-1.3662,-0.0011,0.00014064,0.00117218,-0.13163726,-0.00566945,0.01198563,-0.01306239,-0.3156,0.7040,-9.8301,0.017132,-0.002976,0.024809,27.6890,16.8477,32.8869,-3.3610,0.3110,122,0,0,-0.009257,0.006251,-0.308678,0.011985,0.107333,0.003375,2.4949,-3.6786,10.6783
12680,11.0,-0.006258,0.000113,-0.309335,-0.002925,0.000826,-0.009702,-4.4491,-1.3586,-0.0006,0.00013077,0.00117453,-0.13163674,-0.00567791,0.01200671,-0.01331588,-0.3267,0.6914,-9.8479,0.019507,0.002525,0.013059,27.6890,16.8477,32.8869,-3.3610,0.3110,120,0,0,-0.009250,0.006425,-0.308562,0.010970,0.105937,0.004956,2.5218,-3.6512,10.4432
12691,11.0,-0.006278,0.000144,-0.308104,-0.003664,0.000247,0.004437,-4.4357,-1.3523,-0.0009,0.00011557,0.00118016,-0.13163579,-0.00589995,0.01260765,-0.02011675,-0.3261,0.7033,-9.9363,0.020267,0.001575,0.000069,27.6890,16.8477,32.8869,-3.3610,0.3080,127,0,0,-0.009278,0.006514,-0.308515,0.010202,0.105510,0.005109,2.5659,-3.6606,10.5601
12702,11.0,-0.006271,0.000112,-0.308027,-0.003587,-0.000132,0.003304,-4.4558,-1.3492,-0.0002,0.00013329,0.00120621,-0.13163427,-0.00590862,0.01262583,-0.02030660,-0.2859,0.7830,-9.9395,-0.024850,0.001415,0.002860,27.6890,16.8477,32.8869,-3.3610,0.3080,130,0,0,-0.009287,0.006653,-0.307472,0.009500,0.104831,0.013693,2.5592,-3.6606,10.7382
12713,11.0,-0.006297,0.000052,-0.307989,-0.003371,-0.000557,0.003550,-4.4915,-1.3365,0.0011,0.00016473,0.00121297,-0.13163473,-0.00590922,0.01262872,-0.02030529,-0.2300,0.7964,-9.7740,-0.046292,0.011526,0.013321,27.6890,16.8477,32.8869,-3.3081,0.3080,120,0,0,-0.009269,0.006682,-0.307315,0.009646,0.104289,0.013776,2.4848,-3.6440,10.8064
12724,11.0,-0.006301,0.000045,-0.308484,-0.002709,-0.000604,-0.001449,-4.4971,-1.3323,-0.0008,0.00016531,0.00123078,-0.13163328,-0.00581904,0.01239681,-0.01761425,-0.2042,0.7679,-9.6805,-0.005011,0.000467,0.013365,28.8717,17.2154,33.6915,-3.3081,0.3100,126,0,0,-0.009275,0.006687,-0.307174,0.009835,0.104190,0.015189,2.4835,-3.6491,10.9259
12735,11.0,-0.006274,0.000088,-0.308499,-0.002159,-0.000909,-0.001322,-4.4760,-1.3376,-0.0019,0.00013664,0.00126106,-0.13163000,-0.00582275,0.01239347,-0.01761585,-0.2433,0.6968,-9.7896,0.030834,-0.011211,0.002699,28.8717,17.2154,33.6915,-3.3081,0.3100,126,0,0,-0.009268,0.006807,-0.308202,0.010424,0.103510,0.005552,2.4477,-3.6395,11.1114
12746,11.0,-0.006284,0.000103,-0.308486,-0.002193,-0.001107,-0.001044,-4.4692,-1.3326,-0.0006,0.00012188,0.00126889,-0.13162896,-0.00582843,0.01240390,-0.01775983,-0.2535,0.7316,-9.8037,0.010907,0.000202,0.005216,28.8717,17.2154,33.6915,-3.3081,0.3100,120,0,0,-0.009683,0.006824,-0.308149,0.005739,0.101831,0.006469,2.4173,-3.6100,11.1915
12757,11.0,-0.006316,0.000098,-0.307124,-0.002428,-0.001536,0.015175,-4.4733,-1.3207,0.0002,0.00011697,0.00126166,-0.13162941,-0.00604693,0.01296788,-0.02450230,-0.2464,0.7259,-9.7793,-0.004941,0.007527,0.003390,28.8717,17.2154,33.6915,-3.3081,0.3070,116,0,0,-0.009692,0.006895,-0.308048,0.006165,0.102041,0.007739,2.4510,-3.6220,11.2960
12768,11.0,-0.006261,0.000095,-0.306938,-0.001880,-0.002021,0.015098,-4.4759,-1.3285,-0.0012,0.00010731,0.00130700,-0.13162564,-0.00605542,0.01297569,-0.02461043,-0.2707,0.7176,-9.8361,-0.002865,-0.012433,0.005079,28.8717,17.2154,33.6915,-3.3081,0.3070,116,0,0,-0.009720,0.006998,-0.306660,0.006921,0.101137,0.021678,2.4258,-3.6110,11.4569
12779,11.0,-0.006151,0.000125,-0.306779,-0.000329,-0.001955,0.013725,-4.4589,-1.3499,-0.0017,0.00007722,0.00137670,-0.13161951,-0.00606154,0.01297326,-0.02461252,-0.2292,0.7367,-9.9306,0.024091,-0.028667,0.001580,28.8717,17.2154,33.6915,-3.3081,0.3070,112,0,0,-0.009662,0.007073,-0.306419,0.007809,0.100590,0.022421,2.3774,-3.6054,11.5141
12790,11.0,-0.006041,0.000175,-0.307339,0.000881,-0.001582,0.003384,-4.4312,-1.3717,-0.0016,0.00003647,0.00143977,-0.13161367,-0.00596238,0.01270009,-0.02122466,-0.2501,0.7491,-10.0032,0.039034,-0.030258,-0.002134,28.8717,17.2154,33.6915,-3.3980,0.3090,118,0,0,-0.009569,0.007170,-0.306198,0.009510,0.101449,0.022366,2.4394,-3.6014,11.1364
12801,11.0,-0.005988,0.000208,-0.307315,0.001161,-0.000592,0.001002,-4.4113,-1.3790,-0.0009,0.00000974,0.00146442,-0.13161106,-0.00596280,0.01269977,-0.02122588,-0.2673,0.8266,-10.0114,0.029501,-0.015791,0.006922,28.8717,17.2154,33.6915,-3.3980,0.3090,111,0,0,-0.009395,0.007402,-0.307150,0.011665,0.103059,0.006635,2.4480,-3.6275,11.2872
12812,11.0,-0.005986,0.000224,-0.307253,0.000695,0.000128,0.000063,-4.4032,-1.3732,-0.0000,-0.00000067,0.00145929,-0.13161120,-0.00597141,0.01272337,-0.02152785,-0.2786,0.8242,-9.9465,0.014294,-0.001771,0.016266,28.8717,17.2154,33.6915,-3.3980,0.3090,113,0,0,-0.009355,0.007503,-0.307096,0.011789,0.103518,0.005467,2.4069,-3.6179,11.3456
12823,11.0,-0.006010,0.000236,-0.307121,-0.000272,0.000535,0.000223,-4.3983,-1.3618,0.0004,-0.00000546,0.00144330,-0.13161235,-0.00599032,0.01277522,-0.02219098,-0.3025,0.8032,-9.9283,0.010440,0.004790,0.018407,28.8717,17.2154,33.6915,-3.3980,0.3080,109,0,0,-0.009341,0.007582,-0.306969,0.011605,0.104601,0.005823,2.4395,-3.6299,11.4533
12834,11.0,-0.006093,-0.000208,-0.307076,-0.001516,-0.005015,0.000103,-4.4153,-1.3408,0.0054,0.00024335,0.00140062,-0.13162248,-0.00599730,0.01278876,-0.02241404,-0.2731,0.7273,-9.8650,0.026063,0.015046,0.012013,26.8906,16.5098,32.4047,-3.3980,0.3080,109,0,-1,-0.009397,0.007713,-0.306954,0.009768,0.104348,0.004810,2.4093,-3.6112,11.6408
12845,11.0,-0.006213,-0.000181,-0.307075,-0.003293,-0.004111,-0.000032,-4.3955,-1.3132,0.0004,0.00019757,0.00134536,-0.13162555,-0.00599766,0.01278905,-0.02241443,-0.2951,0.7662,-9.8117,0.025878,0.023179,0.013078,26.8906,16.5098,32.4047,-3.3980,0.3080,106,0,0,-0.009378,0.007358,-0.306912,0.009708,0.098600,0.005068,2.3495,-3.5836,11.7184
12856,11.0,-0.006369,-0.000166,-0.308083,-0.004799,-0.003402,-0.011128,-4.3829,-1.2789,0.0010,0.00016195,0.00127978,-0.13162974,-0.00586255,0.01241412,-0.01764674,-0.2432,0.7608,-9.7383,0.016640,0.031661,0.016992,26.8906,16.5098,32.4047,-3.4561,0.3100,106,0,0,-0.009470,0.007426,-0.306861,0.008210,0.099248,0.005762,2.3882,-3.5779,11.8311
12867,11.0,-0.006487,-0.000142,-0.308202,-0.006521,-0.002803,-0.010522,-4.3672,-1.2543,-0.0000,0.00012732,0.00124686,-0.13163133,-0.00586145,0.01241298,-0.01764718,-0.3195,0.7484,-9.7401,0.021551,0.022627,0.016230,26.8906,16.5098,32.4047,-3.4561,0.3100,109,0,0,-0.009730,0.007531,-0.308223,0.004741,0.099375,-0.005903,2.3697,-3.5255,12.0241
12878,11.0,-0.006550,-0.000625,-0.308239,-0.007392,-0.008302,-0.010305,-4.3995,-1.2408,0.0064,0.00038087,0.00125552,-0.13163821,-0.00587294,0.01245067,-0.01803970,-0.3162,0.7287,-9.8680,0.001597,0.012933,0.017879,26.8906,16.5098,32.4047,-3.4561,0.3100,105,0,-1,-0.009843,0.007592,-0.308196,0.003139,0.098893,-0.003436,2.3276,-3.4957,12.0999
12889,11.0,-0.006679,-0.000680,-0.307623,-0.009089,-0.007945,-0.002167,-4.4213,-1.2105,-0.0001,0.00036093,0.00123090,-0.13163950,-0.00597142,0.01271796,-0.02144378,-0.3303,0.7621,-9.8301,-0.035221,0.033211,0.014695,26.8906,16.5098,32.4047,-3.4561,0.3080,105,0,0,-0.009871,0.007234,-0.308269,0.002567,0.093833,-0.002680,2.2920,-3.4425,11.8405
12900,11.0,-0.006856,-0.000720,-0.307577,-0.010586,-0.007243,-0.000237,-4.4350,-1.1733,0.0001,0.00033501,0.00118915,-0.13164195,-0.00597849,0.01274046,-0.02174742,-0.2713,0.7770,-9.6919,-0.023401,0.041143,0.011689,26.8906,16.5098,32.4047,-3.4561,0.3080,107,0,0,-0.009984,0.007213,-0.307531,0.001025,0.093984,0.006303,2.2920,-3.4286,11.9538
12911,11.0,-0.006925,-0.000727,-0.307573,-0.010618,-0.005281,0.000898,-4.4285,-1.1631,-0.0019,0.00029723,0.00121767,-0.13163848,-0.00598062,0.01273783,-0.02174900,-0.2598,0.8725,-9.6878,0.006101,0.012209,0.006973,26.8906,16.5098,32.4047,-3.4561,0.3080,107,0,0,-0.010230,0.007214,-0.307285,-0.001178,0.094136,0.011245,2.2307,-3.3800,12.1386
12922,11.0,-0.006450,-0.000711,-0.308303,-0.004418,-0.003580,-0.006309,-4.4127,-1.2005,-0.0147,0.00025760,0.00155723,-0.13160892,-0.00590602,0.01246176,-0.01832419,-0.2524,0.8424,-9.6562,0.020907,-0.003838,0.012667,26.8906,16.5098,32.4047,-3.4561,0.3100,116,1,0,-0.009845,0.007359,-0.307170,0.003562,0.096135,0.013298,2.1742,-3.3787,12.1864
12933,11.0,-0.006443,-0.000230,-0.308368,-0.004440,0.002670,-0.005541,-4.3778,-1.1998,-0.0082,-0.00003784,0.00158998,-0.13159747,-0.00590980,0.01243062,-0.01833348,-0.2727,0.7965,-9.7236,0.002767,-0.002439,0.018307,27.2884,17.2228,34.0821,-3.5089,0.3100,116,0,1,-0.009942,0.007866,-0.308365,0.002374,0.102595,0.001466,2.2169,-3.3882,12.2910
12945,12.0,-0.006403,-0.000219,-0.308324,-0.004523,0.001619,-0.003270,-4.3798,-1.2067,-0.0015,-0.00002895,0.00164680,-0.13159314,-0.00593230,0.01247235,-0.01882394,-0.3108,0.6817,-9.7166,0.001623,-0.010058,0.018805,27.2884,17.2228,34.0821,-3.5089,0.3100,118,0,0,-0.010011,0.008445,-0.308212,0.001609,0.106362,0.005813,2.1950,-3.3888,12.4693
12956,11.0,-0.006339,-0.000205,-0.308174,-0.003948,0.000568,0.000376,-4.3781,-1.2184,-0.0013,-0.00003002,0.00171404,-0.13158786,-0.00596755,0.01253883,-0.01962485,-0.2791,0.6532,-9.6599,0.005564,-0.015591,0.015902,27.2884,17.2228,34.0821,-3.5089,0.3090,113,0,0,-0.009974,0.008526,-0.308143,0.001993,0.104449,0.007524,2.1417,-3.3855,12.5468
12967,11.0,-0.006261,-0.000179,-0.308083,-0.003089,0.000056,0.002793,-4.3675,-1.2340,-0.0012,-0.00004382,0.00178476,-0.13158210,-0.00599059,0.01256726,-0.01999494,-0.2611,0.6800,-9.6703,0.017050,-0.020217,0.003649,27.2884,17.2228,34.0821,-3.5089,0.3090,122,0,0,-0.009855,0.008709,-0.307955,0.003937,0.101959,0.012002,2.1152,-3.4026,12.7223
12978,11.0,-0.006168,-0.000149,-0.308050,-0.002489,-0.000660,0.003088,-4.3550,-1.2519,-0.0006,-0.00006394,0.00186014,-0.13157597,-0.00600189,0.01256447,-0.01999728,-0.2970,0.6566,-9.7783,0.019166,-0.023278,0.008807,27.2884,17.2228,34.0821,-3.5089,0.3090,122,0,0,-0.009786,0.008807,-0.307705,0.004927,0.101509,0.015564,2.1417,-3.4256,12.8218
12990,12.0,-0.006014,-0.000157,-0.308514,-0.000852,-0.001577,-0.003367,-4.3619,-1.2814,0.0005,-0.00006809,0.00196943,-0.13156807,-0.00594324,0.01238731,-0.01779955,-0.2608,0.6792,-9.8645,-0.007351,-0.033363,0.015314,27.2884,17.2228,34.0821,-3.5089,0.3100,120,0,0,-0.009706,0.008913,-0.307552,0.005841,0.100368,0.016690,2.1243,-3.3994,12.4467
13001,11.0,-0.005899,-0.000181,-0.308556,-0.000039,-0.002838,-0.004308,-4.3777,-1.2979,0.0012,-0.00006786,0.00204368,-0.13156299,-0.00595103,0.01238750,-0.01780139,-0.2849,0.6508,-9.8895,-0.021904,-0.021760,0.015843,27.2884,17.2228,34.0821,-3.5089,0.3100,122,0,0,-0.009430,0.009073,-0.308437,0.008884,0.098638,0.005198,2.0689,-3.4357,12.6183
13012,11.0,-0.005793,-0.000180,-0.308478,0.000547,-0.003563,-0.004980,-4.3775,-1.3138,0.0009,-0.00009025,0.00210661,-0.13155815,-0.00597572,0.01243409,-0.01843415,-0.2916,0.6718,-10.0144,-0.000531,-0.022451,0.009770,27.2884,17.2228,34.0821,-3.6041,0.3100,121,0,0,-0.009315,0.009133,-0.308388,0.009832,0.097842,0.005139,2.0711,-3.4590,12.7217
13023,11.0,-0.005767,-0.000206,-0.308798,-0.000559,-0.004110,-0.009840,-4.3904,-1.3116,0.0001,-0.00010090,0.00212420,-0.13155665,-0.00593945,0.01235088,-0.01731366,-0.3647,0.7067,-9.9717,-0.019390,-0.001546,0.007105,27.2884,17.2228,34.0821,-3.6041,0.3100,120,0,0,-0.009135,0.009277,-0.308794,0.010226,0.096121,-0.002569,2.0259,-3.4753,12.8903
13034,11.0,-0.005819,-0.000225,-0.308804,-0.002186,-0.004417,-0.009147,-4.3986,-1.2942,-0.0012,-0.00011798,0.00210026,-0.13155764,-0.00595500,0.01238461,-0.01779392,-0.3384,0.7089,-9.8506,-0.013185,0.014495,0.008669,28.4739,17.2228,34.4958,-3.6041,0.3100,114,0,0,-0.009115,0.009314,-0.308715,0.009195,0.094907,-0.002025,1.9607,-3.4626,12.9634
13045,11.0,-0.005865,0.000252,-0.308906,-0.003627,0.000918,-0.009385,-4.3689,-1.2808,-0.0123,-0.00042794,0.00209085,-0.13154747,-0.00595493,0.01237747,-0.01779869,-0.3442,0.7102,-9.8194,-0.007141,0.011713,0.001401,28.4739,17.2228,34.4958,-3.6041,0.3100,116,0,1,-0.009149,0.009342,-0.308736,0.007766,0.094397,-0.001718,1.9659,-3.4584,13.0703
13056,11.0,-0.005879,0.000267,-0.308936,-0.003926,0.000636,-0.008668,-4.3641,-1.2767,0.0003,-0.00043167,0.00210758,-0.13154623,-0.00596659,0.01239914,-0.01811774,-0.2823,0.7279,-9.8101,0.009496,0.001438,0.001596,28.4739,17.2228,34.4958,-3.6041,0.3100,112,0,0,-0.009417,0.010297,-0.308973,0.003350,0.102395,-0.002421,1.9576,-3.4353,13.2287
13067,11.0,-0.005909,0.000287,-0.309032,-0.004106,0.000661,-0.008685,-4.3552,-1.2705,-0.0001,-0.00044027,0.00211637,-0.13154536,-0.00596683,0.01239894,-0.01811811,-0.2563,0.7461,-9.7990,0.015067,0.003774,-0.001301,28.4739,17.2228,34.4958,-3.6041,0.3100,118,0,0,-0.009432,0.010370,-0.308998,0.003150,0.101030,-0.001704,1.9062,-3.4179,13.2958
13078,11.0,-0.006006,0.000303,-0.308991,-0.005512,0.000531,-0.007337,-4.3496,-1.2502,-0.0007,-0.00044507,0.00208824,-0.13154709,-0.00598852,0.01243939,-0.01873068,-0.3041,0.7382,-9.8248,0.010319,0.019587,-0.006397,28.4739,17.2228,34.4958,-3.6041,0.3100,116,0,0,-0.009458,0.010439,-0.308873,0.003026,0.100694,0.000728,1.9255,-3.4212,13.3960
13089,11.0,-0.006115,0.000293,-0.309051,-0.006422,-0.000045,-0.007285,-4.3580,-1.2267,-0.0003,-0.00043713,0.00206056,-0.13154922,-0.00599133,0.01244576,-0.01882444,-0.2554,0.7190,-9.8188,-0.009474,0.024470,-0.000533,28.4739,17.2228,34.4958,-3.5089,0.3100,116,0,0,-0.009632,0.010535,-0.308855,0.001204,0.098883,0.001862,1.9104,-3.3534,13.0724
13100,11.0,-0.006142,0.000276,-0.309052,-0.006517,0.000154,-0.006128,-4.3682,-1.2208,0.0007,-0.00042565,0.00208803,-0.13154766,-0.00600492,0.01246921,-0.01917438,-0.2722,0.7935,-9.7752,-0.011828,0.006612,-0.002905,28.4739,17.2228,34.4958,-3.5089,0.3100,116,0,0,-0.009723,0.010564,-0.309079,0.000616,0.097362,-0.000010,1.8464,-3.3188,13.1386
13111,11.0,-0.006177,0.000269,-0.309116,-0.006154,0.000371,-0.005549,-4.3729,-1.2139,0.0003,-0.00041984,0.00211012,-0.13154624,-0.00600581,0.01246948,-0.01917488,-0.2190,0.7851,-9.7436,-0.003947,0.006587,0.005640,28.4739,17.2228,34.4958,-3.5089,0.3100,114,0,0,-0.009756,0.010595,-0.309076,0.000431,0.097120,0.000985,1.8483,-3.3177,13.2350
13122,11.0,-0.006070,0.000291,-0.309585,-0.004859,0.001365,-0.011927,-4.3612,-1.2385,-0.0005,-0.00042885,0.00221819,-0.13153791,-0.00594678,0.01235534,-0.01748471,-0.2829,0.8491,-9.9491,0.019220,-0.027377,0.001832,28.4739,17.2228,34.4958,-3.5089,0.3110,108,0,0,-0.009763,0.010715,-0.308919,0.001454,0.096923,0.003885,1.8035,-3.3080,13.3928
13133,11.0,-0.005993,0.000282,-0.309725,-0.004380,0.001980,-0.013624,-4.3683,-1.2520,-0.0007,-0.00041136,0.00229904,-0.13153216,-0.00594600,0.01235535,-0.01748690,-0.3166,0.8553,-9.9419,-0.005110,-0.016376,0.023223,26.4981,16.5023,34.4958,-3.5089,0.3110,112,0,0,-0.009672,0.010816,-0.309770,0.002524,0.097217,-0.006149,1.7489,-3.3105,13.4517
13144,11.0,-0.005971,0.000287,-0.309781,-0.004794,0.001310,-0.013982,-4.3710,-1.2545,-0.0002,-0.00040272,0.00234489,-0.13152893,-0.00596004,0.01238744,-0.01793460,-0.3402,0.7239,-9.9417,0.000259,-0.004851,0.019954,26.4981,16.5023,34.4958,-3.5089,0.3110,105,0,0,-0.009536,0.010955,-0.309819,0.002898,0.097187,-0.006452,1.6950,-3.3283,13.6356
13156,12.0,-0.006036,0.000325,-0.309443,-0.006040,0.001149,-0.007624,-4.3535,-1.2420,-0.0004,-0.00041681,0.00234316,-0.13152860,-0.00603254,0.01254237,-0.02003692,-0.3238,0.7198,-9.7535,0.025746,0.009244,0.010734,26.4981,16.5023,34.4958,-3.4878,0.3100,107,0,0,-0.009522,0.011017,-0.309766,0.002453,0.096483,-0.005487,1.7037,-3.3359,13.7441
13167,11.0,-0.006119,0.000379,-0.309446,-0.006658,0.001226,-0.005420,-4.3275,-1.2287,-0.0006,-0.00044280,0.00233423,-0.13152844,-0.00604351,0.01256585,-0.02035354,-0.2576,0.7104,-9.6815,0.039165,0.011538,0.004719,26.4981,16.5023,34.4958,-3.4878,0.3100,103,0,0,-0.009646,0.011171,-0.309550,0.000474,0.094760,0.000200,1.6927,-3.3154,13.9261
13178,11.0,-0.006171,0.000396,-0.309495,-0.006781,0.000446,-0.003569,-4.3227,-1.2196,-0.0000,-0.00044783,0.00234821,-0.13152727,-0.00604412,0.01256568,-0.02035403,-0.2479,0.6606,-9.6376,0.009162,0.008793,0.007442,26.4981,16.5023,34.4958,-3.4878,0.3100,107,0,0,-0.009725,0.011249,-0.309447,-0.000108,0.093621,0.003205,1.6592,-3.2898,13.9952
13189,11.0,-0.006201,0.000398,-0.309752,-0.006688,-0.000402,-0.004008,-4.3253,-1.2144,0.0003,-0.00044905,0.00237716,-0.13152520,-0.00601327,0.01249361,-0.01940632,-0.2502,0.6580,-9.6039,-0.001933,0.005579,0.005648,26.4981,16.5023,34.4958,-3.4878,0.3110,107,0,0,-0.009776,0.011305,-0.309406,-0.000058,0.092852,0.005599,1.6958,-3.2616,13.6252
13200,11.0,-0.006198,0.000437,-0.309793,-0.006565,-0.001319,-0.003453,-4.3070,-1.2187,0.0005,-0.00048030,0.00242541,-0.13152106,-0.00601714,0.01249128,-0.01940829,-0.2844,0.6119,-9.7577,0.025768,-0.005348,-0.005735,26.4981,16.5023,34.4958,-3.4878,0.3110,112,0,0,-0.009837,0.011416,-0.309867,0.000008,0.090412,0.004356,1.6565,-3.2417,13.7917
13211,11.0,-0.006196,0.000476,-0.309744,-0.006348,-0.001865,-0.003851,-4.2875,-1.2231,0.0008,-0.00051583,0.00247169,-0.13151705,-0.00603310,0.01251938,-0.01981238,-0.2775,0.6494,-9.9456,0.026594,-0.005389,-0.009967,26.4981,16.5023,34.4958,-3.4878,0.3110,103,0,0,-0.009842,0.011506,-0.309823,0.000203,0.089136,0.005403,1.6269,-3.2315,13.8532
13223,12.0,-0.006286,0.000486,-0.309945,-0.007397,-0.001728,-0.007017,-4.2793,-1.2073,-0.0005,-0.00053695,0.00246724,-0.13151671,-0.00601321,0.01247603,-0.01922096,-0.2978,0.7339,-9.9235,0.010447,0.016068,-0.014481,26.8933,16.1421,32.8412,-3.4878,0.3110,110,0,0,-0.009903,0.011647,-0.310029,-0.000158,0.088268,0.001423,1.6093,-3.2177,13.9963
13234,11.0,-0.006421,0.000452,-0.309946,-0.007891,-0.001387,-0.005779,-4.2962,-1.1798,-0.0006,-0.00052584,0.00243437,-0.13151923,-0.00602244,0.01249809,-0.01952921,-0.2015,0.7913,-9.7639,-0.022862,0.030901,-0.005858,26.8933,16.1421,32.8412,-3.4878,0.3110,109,0,0,-0.009992,0.011667,-0.309927,-0.001247,0.088549,0.002622,1.6162,-3.2060,14.0849
13245,11.0,-0.006516,0.000439,-0.309998,-0.008164,-0.000864,-0.003509,-4.3023,-1.1616,-0.0001,-0.00052526,0.00242993,-0.13151956,-0.00602215,0.01249812,-0.01952906,-0.2210,0.7802,-9.5902,-0.007211,0.020128,0.008105,26.8933,16.1421,32.8412,-3.4878,0.3110,119,0,0,-0.010101,0.011666,-0.309901,-0.001940,0.088003,0.003725,1.5464,-3.1667,14.1443
13256,11.0,-0.006510,0.000447,-0.310532,-0.007369,-0.000282,-0.006594,-4.2973,-1.1660,0.0004,-0.00053566,0.00249014,-0.13151500,-0.00596334,0.01235275,-0.01746852,-0.2274,0.7658,-9.5393,0.008288,-0.004279,0.009728,26.8933,16.1421,32.8412,-3.4878,0.3120,119,0,0,-0.010199,0.011674,-0.309854,-0.002505,0.088156,0.006343,1.5469,-3.1532,14.2410
