timestamp_ms,dt_ms,pos_x,pos_y,pos_z,vel_x,vel_y,vel_z,roll_deg,pitch_deg,yaw_deg,gyro_bias_x,gyro_bias_y,gyro_bias_z,accel_bias_x,accel_bias_y,accel_bias_z,raw_accel_x,raw_accel_y,raw_accel_z,raw_gyro_x,raw_gyro_y,raw_gyro_z,raw_mag_x,raw_mag_y,raw_mag_z,raw_baro_alt,raw_tof,raw_flow_squal,raw_flow_dx,raw_flow_dy,dev_pos_x,dev_pos_y,dev_pos_z,dev_vel_x,dev_vel_y,dev_vel_z,dev_roll_deg,dev_pitch_deg,dev_yaw_deg
11327,10.0,-0.000460,-0.000050,-0.316938,-0.047631,-0.000489,-0.001187,-0.0058,0.0089,0.0010,0.00000000,0.00000000,-0.13171183,-0.00151348,0.00339969,0.00000000,-0.3293,0.8976,-9.8495,-0.006445,-0.001856,-0.022963,26.1084,16.4875,33.7145,-3.3768,0.3170,111,-1,0,-0.002872,-0.000981,-0.316721,-0.014061,0.003677,0.007945,-2.8117,-2.0271,1.4500
11338,11.0,-0.001015,-0.000636,-0.316947,-0.051337,-0.022781,-0.000535,-0.6582,-0.1454,0.0077,0.00000192,0.00000059,-0.13171184,-0.00150840,0.00376356,0.00000004,-0.3261,0.9189,-9.7298,-0.028913,0.006086,-0.009972,26.1084,16.4875,33.7145,-3.3768,0.3180,101,-1,-1,-0.003321,-0.000975,-0.317053,-0.018827,0.004629,0.002869,-2.8699,-1.9620,1.5617
11349,11.0,-0.001060,-0.001241,-0.315054,-0.036545,-0.028166,0.084297,-0.8909,-0.4350,-0.0169,0.00000257,0.00000145,-0.13171178,-0.00209030,0.00419620,-0.00004729,-0.3580,0.8705,-9.6397,-0.023997,0.006939,-0.003052,26.1084,17.5681,34.5420,-3.3768,0.3180,112,0,-1,-0.003775,-0.001461,-0.317024,-0.023041,0.000321,0.003160,-2.9145,-1.9084,1.7345
11361,12.0,-0.001073,-0.001287,-0.317857,-0.027262,-0.016024,-0.026836,-1.0354,-0.9796,-0.0316,0.00000450,0.00000442,-0.13171160,-0.00281728,0.00379377,0.00004605,-0.4203,0.7224,-9.8293,0.007949,-0.012069,-0.016042,26.1084,17.5681,34.5420,-3.3768,0.3180,110,0,0,-0.003834,-0.001941,-0.316882,-0.018181,-0.002028,0.005535,-2.9423,-2.0572,1.8337
11372,11.0,-0.001061,-0.001307,-0.318051,-0.022065,-0.006879,-0.025952,-0.9035,-1.2997,-0.0305,0.00000381,0.00000623,-0.13171139,-0.00349441,0.00353908,0.00000810,-0.4606,0.7286,-9.9777,0.019696,-0.009696,-0.032908,26.1084,17.5681,34.5420,-3.3768,0.3170,108,0,0,-0.003822,-0.001921,-0.316562,-0.015564,-0.000619,0.008002,-2.8676,-2.1562,1.8559
11384,12.0,-0.001181,-0.001318,-0.318371,-0.019879,0.000091,-0.027202,-1.1690,-1.5345,-0.0145,0.00000756,0.00000846,-0.13171126,-0.00387753,0.00345990,0.00001286,-0.4071,0.8599,-9.8787,0.005144,0.014278,-0.031572,26.1084,17.5681,34.5420,-3.3768,0.3170,110,0,0,-0.003848,-0.001880,-0.316387,-0.012438,0.003367,0.005307,-2.6953,-2.2943,1.9222
11395,11.0,-0.001305,-0.001263,-0.317085,-0.017020,0.007689,0.001446,-1.0836,-1.6242,-0.0108,0.00000727,0.00000940,-0.13171116,-0.00414109,0.00343415,-0.00093048,-0.1990,0.8416,-9.7623,0.067762,0.010307,-0.052410,26.1084,17.5681,34.5420,-3.3768,0.3170,113,0,0,-0.003985,-0.001880,-0.316260,-0.012683,0.007283,0.006153,-2.5742,-2.3053,1.9845
11406,11.0,-0.001432,-0.001133,-0.317063,-0.015341,0.015375,0.002864,-1.2764,-1.6828,-0.0093,0.00001225,0.00001003,-0.13171105,-0.00432004,0.00337726,-0.00092906,-0.2501,1.0900,-9.6450,0.097891,0.007603,-0.017675,26.1084,17.5681,34.5420,-3.3768,0.3180,113,0,0,-0.004094,-0.001791,-0.316199,-0.011671,0.009660,0.006465,-2.5186,-2.2934,1.9897
11417,11.0,-0.001477,-0.001478,-0.316927,-0.010737,0.010610,0.005503,-1.9495,-1.8332,0.0095,0.00002190,0.00001199,-0.13171108,-0.00468663,0.00517271,-0.00107329,-0.1283,1.0616,-9.6446,0.081022,-0.010699,0.018109,26.1084,17.5681,34.5420,-3.3768,0.3180,123,0,-1,-0.004249,-0.001549,-0.316978,-0.008214,0.019488,-0.000150,-2.3468,-2.3150,2.0591
11428,11.0,-0.001465,-0.001408,-0.317404,-0.007097,0.012893,-0.001502,-2.2226,-1.9856,-0.0162,0.00002855,0.00001400,-0.13171078,-0.00509089,0.00526239,-0.00001328,-0.2646,0.8983,-9.7309,0.030584,-0.013888,0.024484,26.1084,17.5681,34.5420,-3.3768,0.3180,120,0,0,-0.004259,-0.001889,-0.316976,-0.005112,0.017877,0.001077,-2.2820,-2.3574,2.1721
11439,11.0,-0.001839,-0.001793,-0.317377,-0.014446,0.002672,-0.002283,-2.8897,-1.6261,0.0586,0.00004121,0.00000713,-0.13171200,-0.00413194,0.00705228,-0.00018983,-0.3313,0.7135,-9.8829,0.015947,-0.020037,0.025388,26.1084,17.5681,34.5420,-3.3768,0.3160,117,-1,-1,-0.004602,-0.002214,-0.316016,-0.007234,0.014770,0.011452,-2.2316,-2.3509,2.4002
11450,11.0,-0.001852,-0.001778,-0.317417,-0.010966,0.003183,-0.004643,-2.9812,-1.8099,-0.0125,0.00004440,0.00001134,-0.13171162,-0.00459367,0.00703556,-0.00017883,-0.3212,0.6785,-9.9918,0.002366,-0.007032,0.007410,26.8960,17.5756,32.8640,-3.4878,0.3160,121,0,0,-0.004531,-0.002179,-0.315912,-0.004901,0.014572,0.009720,-2.1735,-2.4040,2.4494
11462,12.0,-0.001986,-0.001755,-0.316119,-0.010141,0.005839,0.009456,-2.9252,-1.7764,-0.0008,0.00004427,0.00001119,-0.13171163,-0.00471347,0.00741633,-0.00574548,-0.2268,0.7358,-9.9758,0.026876,0.019610,-0.013498,26.8960,17.5756,32.8640,-3.4878,0.3160,122,0,0,-0.004499,-0.002164,-0.315722,-0.002951,0.015386,0.008905,-2.0715,-2.4507,2.5275
11473,11.0,-0.002138,-0.001683,-0.316022,-0.010295,0.008455,0.008436,-2.9834,-1.6878,-0.0025,0.00004900,0.00000852,-0.13171175,-0.00462029,0.00726632,-0.00576035,-0.1964,0.8645,-9.8712,0.048422,0.024773,-0.008574,26.8960,17.5756,32.8640,-3.4878,0.3170,124,0,0,-0.004710,-0.002074,-0.316102,-0.002069,0.018910,-0.000283,-1.9018,-2.4295,2.6675
11484,11.0,-0.002226,-0.002034,-0.315825,-0.008405,0.001046,0.009925,-3.3922,-1.6949,0.0125,0.00006485,0.00000913,-0.13171212,-0.00468980,0.00867338,-0.00642627,-0.1567,0.8452,-9.7455,0.055094,0.006439,0.006099,26.8960,17.5756,32.8640,-3.4878,0.3170,116,0,-1,-0.004837,-0.001994,-0.316111,-0.002052,0.021039,-0.001096,-1.8579,-2.3922,2.5969
11495,11.0,-0.002236,-0.002373,-0.316066,-0.005262,-0.005764,0.006639,-3.7256,-1.7297,-0.0070,0.00008143,0.00000907,-0.13171203,-0.00496029,0.00942324,-0.00418438,-0.1195,0.8000,-9.6983,0.070976,-0.013174,0.013037,26.8960,17.5756,32.8640,-3.4878,0.3170,116,0,-1,-0.004903,-0.002361,-0.316123,-0.000508,0.018327,-0.001002,-1.7857,-2.4056,2.7100
11506,11.0,-0.002247,-0.002310,-0.315907,-0.002983,-0.001823,0.008428,-3.5803,-1.7649,-0.0049,0.00007662,0.00001067,-0.13171177,-0.00508419,0.00913593,-0.00479318,-0.1744,0.7488,-9.7163,0.072719,-0.012378,0.008139,26.8960,17.5756,32.8640,-3.4878,0.3160,120,0,0,-0.004879,-0.002599,-0.315988,0.003748,0.018352,0.002617,-1.6171,-2.4314,2.8334
11517,11.0,-0.002342,-0.002286,-0.315811,-0.004187,-0.000657,0.008920,-3.5428,-1.6972,0.0014,0.00007568,0.00000777,-0.13171197,-0.00492686,0.00898143,-0.00480186,-0.2848,0.6499,-9.7458,0.025033,0.018407,0.015268,26.8960,17.5756,32.8640,-3.4878,0.3160,116,0,0,-0.004867,-0.002486,-0.315657,0.004998,0.020717,0.006810,-1.5316,-2.4279,2.8620
11528,11.0,-0.002439,-0.002300,-0.315408,-0.005841,-0.000911,0.012197,-3.5446,-1.6447,0.0017,0.00007576,0.00000575,-0.13171214,-0.00487264,0.00917278,-0.00739820,-0.3547,0.5896,-9.8208,-0.010014,0.023688,-0.004310,26.8960,17.5756,32.8640,-3.4508,0.3160,119,0,0,-0.005032,-0.002408,-0.315513,0.003445,0.022382,0.007564,-1.3613,-2.4175,3.0425
11539,11.0,-0.002523,-0.002343,-0.315284,-0.007094,-0.000911,0.010483,-3.6055,-1.6313,0.0064,0.00007931,0.00000719,-0.13171233,-0.00473769,0.00917871,-0.00741148,-0.3993,0.7132,-9.9403,-0.035106,0.022544,-0.012760,27.6863,16.1347,33.6915,-3.4508,0.3160,112,0,0,-0.005122,-0.002411,-0.315502,0.002158,0.022868,0.006519,-1.2730,-2.4186,3.1397
11550,11.0,-0.002693,-0.002383,-0.315092,-0.009839,0.000839,0.009921,-3.6494,-1.5470,0.0057,0.00008163,0.00000272,-0.13171285,-0.00456080,0.00934197,-0.00826420,-0.3767,0.8741,-9.9221,-0.026031,0.042488,-0.008533,27.6863,16.1347,33.6915,-3.4508,0.3160,108,0,0,-0.005193,-0.002424,-0.315446,0.000968,0.023223,0.005148,-1.2641,-2.4211,3.2021
11561,11.0,-0.002902,-0.002354,-0.315129,-0.012062,0.004010,0.008325,-3.6608,-1.4610,0.0039,0.00008602,-0.00000234,-0.13171339,-0.00428036,0.00903045,-0.00686786,-0.2941,0.9591,-9.7586,0.027199,0.042008,-0.005185,27.6863,16.1347,33.6915,-3.4508,0.3160,115,0,0,-0.005488,-0.002452,-0.315280,-0.002524,0.027465,0.004137,-1.1944,-2.3924,3.3587
11572,11.0,-0.003051,-0.002241,-0.314973,-0.012710,0.008754,0.008993,-3.5719,-1.4387,-0.0011,0.00008307,-0.00000318,-0.13171336,-0.00426842,0.00897538,-0.00754335,-0.2888,0.9781,-9.7846,0.100915,0.015383,-0.000815,27.6863,16.1347,33.6915,-3.4508,0.3150,112,0,0,-0.005678,-0.002420,-0.315237,-0.003996,0.031422,0.004595,-1.0819,-2.3823,3.4668
11583,11.0,-0.003199,-0.002095,-0.314884,-0.013310,0.011414,0.007183,-3.5024,-1.4263,-0.0013,0.00008471,-0.00000247,-0.13171329,-0.00420511,0.00870683,-0.00755936,-0.3061,0.8317,-9.9457,0.110843,0.013349,0.011162,27.6863,16.1347,33.6915,-3.4508,0.3150,117,0,0,-0.005984,-0.002158,-0.314720,-0.005397,0.038817,0.008083,-0.8580,-2.3752,3.2576
11594,11.0,-0.003489,-0.002007,-0.314495,-0.016501,0.011600,0.011601,-3.4845,-1.3200,0.0090,0.00008734,-0.00001185,-0.13171434,-0.00402109,0.00901939,-0.01067939,-0.2998,0.6856,-9.7203,0.056419,0.055769,0.021600,27.6863,16.1347,33.6915,-3.4297,0.3150,110,0,0,-0.006150,-0.002025,-0.314564,-0.006144,0.040393,0.007969,-0.7906,-2.3645,3.3249
11605,11.0,-0.003813,-0.002348,-0.314356,-0.018972,0.002986,0.014102,-3.6490,-1.2133,0.0217,0.00011929,-0.00002192,-0.13171652,-0.00375541,0.00997038,-0.01072892,-0.2110,0.5782,-9.5699,0.063140,0.060607,0.005595,27.6863,16.1347,33.6915,-3.4297,0.3160,114,0,-1,-0.006419,-0.001942,-0.314482,-0.008112,0.041501,0.008698,-0.6670,-2.3446,3.4531
11616,11.0,-0.003981,-0.002268,-0.314110,-0.017967,0.003945,0.017517,-3.5908,-1.2110,-0.0026,0.00011577,-0.00001909,-0.13171616,-0.00385125,0.00994211,-0.01153903,-0.1783,0.6302,-9.5759,0.063067,0.021094,-0.006185,27.6863,16.1347,33.6915,-3.4297,0.3160,104,0,0,-0.006904,-0.002631,-0.315121,-0.009307,0.031622,0.004526,-0.5396,-2.2918,3.6637
11627,11.0,-0.004091,-0.002656,-0.314688,-0.015141,-0.002627,0.010888,-3.7517,-1.2180,-0.0076,0.00015321,-0.00001696,-0.13171622,-0.00395931,0.01004716,-0.00361275,-0.0556,0.7284,-9.5432,0.041561,0.010442,-0.000543,27.6863,16.1347,33.6915,-3.4297,0.3160,107,0,-1,-0.007041,-0.002535,-0.315066,-0.008414,0.033060,0.006936,-0.4632,-2.2791,3.6940
11638,11.0,-0.004143,-0.002629,-0.314500,-0.011693,-0.001038,0.013307,-3.7148,-1.2513,-0.0032,0.00014888,-0.00000849,-0.13171540,-0.00416481,0.00999692,-0.00422140,-0.0582,0.7042,-9.6369,0.030221,-0.000872,0.000348,27.6863,16.1347,33.6915,-3.4297,0.3130,101,0,0,-0.007108,-0.002915,-0.314886,-0.005667,0.030248,0.010758,-0.3768,-2.3014,3.7889
11649,11.0,-0.004069,-0.002677,-0.314357,-0.007877,-0.001774,0.012660,-3.7535,-1.3221,-0.0080,0.00015175,0.00000692,-0.13171396,-0.00458672,0.01006774,-0.00421347,-0.1719,0.6360,-9.8520,-0.039017,-0.018494,0.016888,26.5089,15.7521,34.1743,-3.4297,0.3130,107,0,0,-0.007113,-0.002834,-0.313278,0.000019,0.034754,0.027579,-0.2281,-2.3330,3.8694
11660,11.0,-0.003792,-0.002776,-0.313078,-0.002294,-0.004352,0.022229,-3.8256,-1.4737,-0.0038,0.00015707,0.00004014,-0.13171157,-0.00548970,0.01103145,-0.01571799,-0.2845,0.5414,-10.1905,-0.084250,-0.058212,0.019193,26.5089,15.7521,34.1743,-3.4297,0.3130,107,0,0,-0.006996,-0.002842,-0.312930,0.002827,0.034987,0.027942,-0.2209,-2.3599,3.8969
11671,11.0,-0.003508,-0.002875,-0.312870,0.002064,-0.006172,0.015552,-3.8916,-1.6027,0.0006,0.00016141,0.00007041,-0.13170958,-0.00597533,0.01110121,-0.01571007,-0.3433,0.6071,-10.4110,-0.078276,-0.056978,0.010751,26.5089,15.7521,34.1743,-3.5037,0.3150,107,0,0,-0.006732,-0.002890,-0.312666,0.006827,0.034761,0.025010,-0.1765,-2.4362,3.9734
11682,11.0,-0.003915,-0.002906,-0.312633,-0.004801,-0.004274,0.009868,-3.8913,-1.4712,0.0020,0.00015827,0.00002618,-0.13171276,-0.00538449,0.01113198,-0.01676413,-0.2878,0.8478,-10.4224,-0.010794,-0.007860,-0.007839,26.5089,15.7521,34.1743,-3.5037,0.3150,105,-1,0,-0.006665,-0.003006,-0.313712,0.007144,0.035838,-0.000737,-0.0728,-2.5294,3.8284
11693,11.0,-0.004060,-0.002886,-0.313454,-0.005894,-0.000706,-0.006571,-3.8614,-1.4206,0.0014,0.00015340,0.00001578,-0.13171349,-0.00505961,0.01046625,-0.00820615,-0.2317,0.9655,-10.3060,0.030891,0.027354,-0.007083,26.5089,15.7521,34.1743,-3.5037,0.3150,105,0,0,-0.006610,-0.003006,-0.313750,0.008040,0.039038,-0.006729,0.0104,-2.5638,3.9112
11704,11.0,-0.004290,-0.002832,-0.313459,-0.007952,0.002595,-0.007837,-3.8162,-1.3401,0.0043,0.00014787,-0.00000325,-0.13171501,-0.00486536,0.01045883,-0.00898589,-0.1993,0.9152,-9.9827,0.053878,0.043497,0.014915,26.5089,15.7521,34.1743,-3.5037,0.3140,113,0,0,-0.006880,-0.002926,-0.313744,0.005881,0.047599,-0.012957,0.2275,-2.5602,4.1113
11715,11.0,-0.004509,-0.002719,-0.313547,-0.009021,0.005361,-0.008240,-3.7468,-1.2715,-0.0027,0.00014387,-0.00002193,-0.13171606,-0.00478593,0.01017633,-0.00899898,-0.1312,0.8215,-9.8231,0.093539,0.034039,0.027550,26.5089,15.7521,34.1743,-3.5037,0.3140,120,0,0,-0.007090,-0.002852,-0.313798,0.004324,0.051617,-0.013452,0.3493,-2.5474,4.2297
11726,11.0,-0.005249,-0.002580,-0.313378,-0.018807,0.006565,-0.004925,-3.6612,-1.0728,0.0160,0.00013381,-0.00009943,-0.13172244,-0.00405212,0.01024325,-0.01137951,-0.2213,0.6473,-9.7729,0.106405,0.047483,0.028785,26.5089,15.7521,34.1743,-3.5037,0.3140,116,-1,0,-0.007988,-0.002607,-0.314071,-0.003935,0.055821,-0.012828,0.5541,-2.4643,4.4339
11737,11.0,-0.006016,-0.002443,-0.313436,-0.027751,0.007041,-0.005540,-3.5811,-0.9045,0.0155,0.00012409,-0.00016563,-0.13172801,-0.00324265,0.01020152,-0.01139046,-0.2451,0.5879,-9.8574,0.101518,0.050116,0.031039,26.5089,15.7521,34.1743,-3.5037,0.3140,116,-1,0,-0.008704,-0.002486,-0.313837,-0.011145,0.056257,-0.008702,0.6356,-2.4028,4.5296
11747,10.0,-0.006346,-0.002431,-0.313409,-0.028731,0.004577,-0.006336,-3.5953,-0.8451,0.0001,0.00013048,-0.00017230,-0.13172863,-0.00319818,0.01032330,-0.01224324,-0.1818,0.4638,-10.0035,-0.001950,0.072444,0.031821,26.1084,16.8477,34.1282,-3.4772,0.3140,117,0,0,-0.009001,-0.002375,-0.313931,-0.012165,0.056012,-0.009882,0.7661,-2.3891,4.6470
11758,11.0,-0.006917,-0.002569,-0.313395,-0.032531,0.000342,-0.004033,-3.6981,-0.6971,0.0071,0.00014072,-0.00020366,-0.13173164,-0.00281789,0.01106475,-0.01288606,-0.1559,0.4465,-9.6849,-0.123372,0.139491,0.031497,26.1084,16.8477,34.1282,-3.4772,0.3140,119,0,0,-0.009755,-0.002426,-0.314052,-0.015460,0.052107,-0.010417,0.8303,-2.2865,4.8308
11770,12.0,-0.007488,-0.002733,-0.313345,-0.034700,-0.003510,0.001110,-3.8284,-0.5610,-0.0053,0.00016228,-0.00022867,-0.13173351,-0.00259452,0.01131484,-0.01355408,-0.0767,0.4918,-9.4580,-0.139072,0.131912,0.017776,26.1084,16.8477,34.1282,-3.4772,0.3130,116,0,0,-0.010282,-0.002581,-0.313305,-0.018401,0.048739,0.001043,0.7794,-2.1845,4.8904
11781,11.0,-0.007779,-0.002845,-0.313313,-0.032987,-0.005656,0.004837,-3.9001,-0.5309,0.0010,0.00017182,-0.00021632,-0.13173290,-0.00270647,0.01140152,-0.01355613,-0.0537,0.5370,-9.4709,-0.090680,0.066252,0.011287,26.1084,16.8477,34.1282,-3.4772,0.3130,120,0,0,-0.010763,-0.002751,-0.313201,-0.019929,0.046587,0.005586,0.7773,-2.1182,4.9940
11792,11.0,-0.007355,-0.002451,-0.312640,-0.022039,0.000267,0.013683,-3.8423,-0.6777,0.0302,0.00010441,-0.00010128,-0.13172549,-0.00379098,0.01116084,-0.01874099,-0.1137,0.6153,-9.6556,-0.049320,0.002560,0.004714,26.1084,16.8477,34.1282,-3.4772,0.3130,115,1,1,-0.010792,-0.002448,-0.312897,-0.011499,0.052167,0.013811,0.8839,-2.1187,4.9043
11803,11.0,-0.007305,-0.001614,-0.312483,-0.017528,0.011198,0.014828,-3.7304,-0.7295,0.0277,-0.00002588,-0.00006055,-0.13172190,-0.00424523,0.01024713,-0.01871611,-0.0745,0.5801,-9.7062,-0.077382,-0.009531,0.014763,26.1084,16.8477,34.1282,-3.4772,0.3140,119,0,2,-0.010807,-0.002023,-0.312753,-0.008936,0.057313,0.015636,0.8961,-2.1303,4.9213
11814,11.0,-0.007295,-0.000712,-0.312199,-0.014263,0.020543,0.018629,-3.6168,-0.7623,0.0298,-0.00014757,-0.00002990,-0.13171946,-0.00451687,0.00931034,-0.01963659,-0.0813,0.4898,-9.5895,-0.044176,-0.003150,-0.001486,26.1084,16.8477,34.1282,-3.5142,0.3140,119,0,2,-0.010811,-0.001179,-0.313332,-0.005940,0.067421,0.009236,0.9838,-2.1723,5.0040
11825,11.0,-0.007128,-0.000688,-0.312736,-0.010174,0.017288,0.010929,-3.6550,-0.8421,0.0095,-0.00011927,0.00002359,-0.13171704,-0.00477756,0.00928912,-0.01346475,-0.1712,0.5687,-9.7099,-0.010086,-0.042354,-0.011565,26.1084,16.8477,34.1282,-3.5142,0.3140,116,0,0,-0.010761,-0.000248,-0.312999,-0.000762,0.073761,0.014930,1.0880,-2.2241,5.0847
11836,11.0,-0.006770,-0.000669,-0.312543,-0.004699,0.013428,0.010163,-3.6923,-0.9706,0.0150,-0.00009247,0.00010177,-0.13171327,-0.00537093,0.00952758,-0.01416982,-0.2443,0.4958,-9.9721,-0.013745,-0.084112,-0.007429,26.8987,17.5681,33.7145,-3.5142,0.3120,117,0,0,-0.010592,-0.000180,-0.312140,0.002477,0.072009,0.024232,1.0982,-2.2640,5.0916
11847,11.0,-0.006404,-0.000712,-0.312437,0.000587,0.010042,0.008963,-3.7550,-1.0849,0.0176,-0.00006562,0.00017472,-0.13171016,-0.00581982,0.00988876,-0.01416685,-0.2118,0.5632,-9.9167,-0.054915,-0.078069,-0.004774,26.8987,17.5681,33.7145,-3.5142,0.3120,117,0,0,-0.009876,-0.000044,-0.311677,0.011746,0.069108,0.022048,1.1727,-2.4316,5.1676
11858,11.0,-0.006095,-0.000774,-0.311678,0.004905,0.007465,0.017212,-3.8263,-1.1667,0.0076,-0.00003511,0.00022731,-0.13170768,-0.00624618,0.01038636,-0.01945464,-0.1677,0.6265,-9.7597,-0.065083,-0.062071,0.004040,26.8987,17.5681,33.7145,-3.5142,0.3120,115,0,0,-0.009511,-0.000028,-0.311331,0.016031,0.068284,0.023022,1.2188,-2.5182,5.2359
11869,11.0,-0.005860,-0.000386,-0.311479,0.008041,0.011541,0.019100,-3.8285,-1.2111,0.0065,-0.00009014,0.00025457,-0.13170499,-0.00657973,0.01002989,-0.01945506,-0.1268,0.6529,-9.6352,-0.075516,-0.041460,0.008206,26.8987,17.5681,33.7145,-3.5142,0.3140,119,0,1,-0.009196,-0.000019,-0.311101,0.019394,0.067169,0.023772,1.1921,-2.5647,5.2504
11880,11.0,-0.005630,0.000044,-0.311145,0.010586,0.016133,0.023518,-3.8149,-1.2530,0.0092,-0.00014488,0.00027954,-0.13170277,-0.00675739,0.00971524,-0.02033109,-0.1415,0.7034,-9.5197,-0.045674,-0.043462,0.011490,26.8987,17.5681,33.7145,-3.5142,0.3140,117,0,1,-0.008801,0.000861,-0.312448,0.023181,0.076631,0.010429,1.2506,-2.6278,5.1165
11891,11.0,-0.005825,0.000507,-0.311069,0.006001,0.020314,0.022713,-3.7919,-1.2388,0.0009,-0.00019634,0.00022416,-0.13170575,-0.00630427,0.00923900,-0.01885051,-0.2699,0.6966,-9.6713,-0.023831,-0.055099,0.013518,26.8987,17.5681,33.7145,-3.5512,0.3120,113,-1,1,-0.009012,0.001296,-0.312329,0.019467,0.081280,0.013503,1.3293,-2.6672,5.2098
11902,11.0,-0.006069,0.000503,-0.310735,0.000589,0.016908,0.022198,-3.8452,-1.2179,-0.0057,-0.00015263,0.00016572,-0.13171047,-0.00596257,0.00954105,-0.01959082,-0.3544,0.6257,-9.9543,-0.031143,-0.043453,0.004387,26.8987,17.5681,33.7145,-3.5512,0.3120,112,-1,0,-0.009427,0.001767,-0.311575,0.011826,0.083226,0.019725,1.3952,-2.7292,5.3513
11913,11.0,-0.006067,0.000464,-0.310502,-0.000698,0.013408,0.020128,-3.9107,-1.2116,0.0101,-0.00011056,0.00017336,-0.13171196,-0.00577721,0.00985165,-0.01958547,-0.3452,0.6219,-9.9945,-0.054968,0.008727,0.001048,26.8987,17.5681,33.7145,-3.5512,0.3120,112,0,0,-0.009694,0.001770,-0.311273,0.007543,0.080735,0.019610,1.3785,-2.7462,5.4101
11924,11.0,-0.006231,0.000389,-0.310713,-0.003398,0.010094,0.013477,-3.9906,-1.1548,-0.0001,-0.00006573,0.00014230,-0.13171522,-0.00556338,0.00991186,-0.01633082,-0.2824,0.6451,-9.9566,-0.078511,0.049354,-0.009924,26.8987,17.5681,33.7145,-3.5512,0.3120,112,0,0,-0.009696,0.001760,-0.311086,0.007077,0.079094,0.018143,1.4185,-2.7643,5.5032
11935,11.0,-0.006501,0.000293,-0.310567,-0.006753,0.007556,0.013194,-4.0763,-1.0743,0.0028,-0.00002110,0.00009659,-0.13171986,-0.00524574,0.01011995,-0.01632892,-0.2413,0.7085,-9.8248,-0.089523,0.073369,-0.003764,26.8987,17.5681,33.7145,-3.5512,0.3140,112,0,0,-0.009800,0.001729,-0.310916,0.005790,0.076796,0.016812,1.3797,-2.7452,5.5522
11946,11.0,-0.006780,0.000234,-0.310288,-0.009177,0.006259,0.017045,-4.1309,-0.9985,0.0007,0.00001013,0.00005215,-0.13172385,-0.00503828,0.01033150,-0.01726296,-0.1646,0.7429,-9.5802,-0.054541,0.068834,0.002220,27.6863,17.2154,34.1052,-3.5512,0.3140,117,0,0,-0.010315,0.002031,-0.312478,0.001115,0.079105,-0.000867,1.3675,-2.6644,5.6942
11957,11.0,-0.006893,0.000221,-0.311762,-0.008977,0.005681,-0.000545,-4.1513,-0.9752,-0.0015,0.00002961,0.00004925,-0.13172431,-0.00482255,0.00964601,-0.00469683,-0.1388,0.7451,-9.6036,-0.015437,0.024114,0.004341,27.6863,17.2154,34.1052,-3.5512,0.3140,113,0,0,-0.010566,0.001985,-0.312345,-0.000268,0.078444,0.003176,1.4056,-2.6402,5.7986
11968,11.0,-0.006861,0.000264,-0.311670,-0.008115,0.004494,0.001584,-4.1400,-0.9934,-0.0003,0.00003298,0.00007954,-0.13172217,-0.00498302,0.00970541,-0.00540877,-0.2478,0.6227,-9.7020,0.023438,-0.013089,0.012529,27.6863,17.2154,34.1052,-3.5512,0.3120,113,0,0,-0.010733,0.002054,-0.311829,0.001083,0.078077,0.012122,1.4703,-2.6387,5.9300
11979,11.0,-0.006779,0.000319,-0.311657,-0.006659,0.002873,0.000783,-4.1125,-1.0270,0.0093,0.00001797,0.00012528,-0.13171971,-0.00503636,0.00996942,-0.00539154,-0.2492,0.5496,-9.8720,0.033887,-0.025877,0.008694,27.6863,17.2154,34.1052,-3.5512,0.3120,112,0,0,-0.010689,0.002150,-0.311606,0.002378,0.077345,0.014454,1.4967,-2.6584,5.9751
11990,11.0,-0.006725,0.000372,-0.311310,-0.006040,0.001399,0.003089,-4.0898,-1.0483,0.0006,0.00001051,0.00015619,-0.13171741,-0.00522824,0.01009470,-0.00795099,-0.2793,0.5554,-9.9617,0.032910,-0.018403,-0.004858,27.6863,17.2154,34.1052,-3.5512,0.3120,116,0,0,-0.010615,0.002250,-0.311463,0.004171,0.077144,0.014308,1.6059,-2.6839,5.7463
12001,11.0,-0.006691,0.000371,-0.311284,-0.005166,-0.000165,0.001752,-4.0921,-1.0614,0.0068,0.00000394,0.00018397,-0.13171615,-0.00525739,0.01031096,-0.00793709,-0.2259,0.5802,-9.9216,-0.006501,-0.008392,-0.008856,27.6863,17.2154,34.1052,-3.5512,0.3140,114,0,0,-0.010500,0.002438,-0.312514,0.006377,0.076165,-0.002470,1.7238,-2.7449,5.8773
12012,11.0,-0.006570,0.000324,-0.311142,-0.003206,-0.001001,0.003592,-4.1229,-1.0906,0.0016,0.00001488,0.00022796,-0.13171345,-0.00546232,0.01041207,-0.00883402,-0.2121,0.6821,-9.7583,-0.038335,-0.023364,-0.004863,27.6863,17.2154,34.1052,-3.5512,0.3140,112,0,0,-0.010448,0.002487,-0.312544,0.007495,0.075477,-0.003128,1.7266,-2.7563,5.9134
12023,11.0,-0.006328,0.000301,-0.312210,0.001220,-0.000534,-0.008785,-4.1355,-1.1470,-0.0067,0.00002081,0.00029216,-0.13170817,-0.00567843,0.00985461,-0.00082929,-0.0928,0.7702,-9.7243,-0.014201,-0.054436,0.002907,27.6863,17.2154,34.1052,-3.5512,0.3140,116,0,0,-0.010159,0.002542,-0.312461,0.011807,0.076291,0.000088,1.7659,-2.8254,6.0273
12034,11.0,-0.006070,0.000292,-0.312210,0.004914,0.000750,-0.006857,-4.1402,-1.2031,-0.0035,0.00002381,0.00035345,-0.13170350,-0.00593635,0.00991008,-0.00151247,-0.1356,0.8414,-9.7027,-0.002359,-0.058197,0.014231,25.7079,16.5023,33.2548,-3.5512,0.3130,120,0,0,-0.009921,0.002596,-0.312369,0.015676,0.078334,0.002368,1.8362,-2.8907,6.1107
12045,11.0,-0.005817,0.000274,-0.312283,0.007298,0.001262,-0.006473,-4.1552,-1.2510,-0.0053,0.00003603,0.00040565,-0.13169943,-0.00612812,0.00984645,-0.00151622,-0.2182,0.7988,-9.7428,-0.012333,-0.053638,0.027906,25.7079,16.5023,33.2548,-3.5512,0.3130,116,0,0,-0.009670,0.002673,-0.312342,0.018772,0.080033,0.003826,1.8261,-2.9239,6.1331
12057,12.0,-0.006579,0.000261,-0.312155,-0.003148,0.001827,-0.003654,-4.1683,-1.1821,0.0254,0.00004537,0.00017961,-0.13171865,-0.00532464,0.00997006,-0.00295083,-0.2193,0.8003,-9.7416,-0.010127,-0.039287,0.020847,25.7079,16.5023,33.2548,-3.4931,0.3130,127,-2,0,-0.009199,0.002796,-0.312121,0.022842,0.082891,0.007627,1.8779,-3.0152,6.2716
12068,11.0,-0.006398,0.000221,-0.312201,-0.001087,0.002049,-0.004736,-4.1981,-1.2217,-0.0065,0.00006803,0.00024182,-0.13171397,-0.00547428,0.00992736,-0.00295355,-0.2681,0.8256,-9.8748,-0.030185,-0.036471,0.020758,25.7079,16.5023,33.2548,-3.4931,0.3140,125,0,0,-0.009896,0.002750,-0.312042,0.013637,0.083350,0.008766,1.9410,-3.0267,6.4229
12080,12.0,-0.006265,0.000157,-0.312170,-0.000019,0.001508,-0.005999,-4.2453,-1.2442,-0.0051,0.00009366,0.00028360,-0.13171093,-0.00562891,0.01006617,-0.00367304,-0.2835,0.7918,-9.9866,-0.051832,-0.021803,0.022894,25.7079,16.5023,33.2548,-3.4931,0.3140,124,0,0,-0.009553,0.002796,-0.312822,0.016864,0.084973,-0.000904,1.9581,-3.0761,6.2829
12091,11.0,-0.006171,0.000138,-0.312700,0.000292,0.001451,-0.013829,-4.2614,-1.2606,-0.0007,0.00010741,0.00031622,-0.13170891,-0.00555712,0.00981572,-0.00059472,-0.3071,0.7905,-10.0138,-0.014638,-0.017823,0.009659,25.7079,16.5023,33.2548,-3.4931,0.3140,129,0,0,-0.009417,0.002814,-0.312843,0.017524,0.085046,-0.002260,1.9183,-3.0936,6.3397
12102,11.0,-0.006137,0.000132,-0.312790,0.000654,0.002033,-0.015488,-4.2679,-1.2619,-0.0011,0.00011507,0.00032516,-0.13170829,-0.00559606,0.00987961,-0.00113462,-0.2280,0.8383,-10.0095,-0.003149,-0.007086,0.003794,25.7079,16.5023,33.2548,-3.4931,0.3120,127,0,0,-0.009310,0.002853,-0.312741,0.017765,0.086254,-0.002277,1.9782,-3.1300,6.4443
12113,11.0,-0.006223,0.000125,-0.312963,-0.000373,0.002437,-0.016121,-4.2781,-1.2340,0.0044,0.00012947,0.00029767,-0.13171107,-0.00551511,0.00981608,-0.00113982,-0.2129,0.8202,-9.8335,-0.005376,0.020105,0.004231,25.7079,16.5023,33.2548,-3.4772,0.3120,127,0,0,-0.009256,0.002958,-0.311782,0.017647,0.088679,0.005320,2.0334,-3.1525,6.5994
12125,12.0,-0.006242,0.000136,-0.311935,-0.000652,0.003356,-0.001814,-4.2769,-1.2233,0.0013,0.00013535,0.00029242,-0.13171171,-0.00568887,0.01046859,-0.00932756,-0.2251,0.8428,-9.7676,0.007605,0.003091,0.007260,25.7079,16.5023,33.2548,-3.4772,0.3120,130,0,0,-0.009321,0.003004,-0.311734,0.016508,0.089122,0.005392,2.0136,-3.1305,6.6548
12136,11.0,-0.006170,0.000174,-0.311955,0.000242,0.004015,-0.001748,-4.2627,-1.2375,-0.0054,0.00014011,0.00031722,-0.13170937,-0.00574453,0.01038961,-0.00933242,-0.2217,0.8058,-9.7788,0.028219,-0.020215,0.005014,25.7079,16.5023,33.2548,-3.4772,0.3140,130,0,0,-0.009352,0.003047,-0.311678,0.015832,0.090540,0.006314,2.0788,-3.1438,6.7678
12147,11.0,-0.006064,0.000193,-0.311882,0.001152,0.004504,-0.001000,-4.2590,-1.2561,-0.0062,0.00014908,0.00034929,-0.13170649,-0.00584632,0.01046840,-0.00997042,-0.2496,0.8185,-9.8181,0.013399,-0.024798,0.012808,25.7105,15.0541,34.1052,-3.4772,0.3140,120,0,0,-0.009206,0.003242,-0.312614,0.017004,0.092857,-0.002794,2.1555,-3.1863,6.9206
12158,11.0,-0.006003,0.000186,-0.312533,0.001192,0.003949,-0.008834,-4.2729,-1.2624,0.0002,0.00016951,0.00036907,-0.13170563,-0.00572383,0.01014483,-0.00575691,-0.2750,0.7531,-9.8221,-0.009003,-0.011231,0.014594,25.7105,15.0541,34.1052,-3.4772,0.3140,117,0,0,-0.009017,0.003400,-0.312563,0.017952,0.094284,-0.000719,2.2092,-3.2332,7.0826
12169,11.0,-0.005908,0.000139,-0.312562,0.001868,0.003324,-0.008541,-4.3080,-1.2724,-0.0035,0.00019888,0.00039539,-0.13170394,-0.00580412,0.01026529,-0.00623529,-0.2518,0.7886,-9.8341,-0.039322,-0.014745,0.016604,25.7105,15.0541,34.1052,-3.4772,0.3110,118,0,0,-0.008938,0.003454,-0.311200,0.017934,0.093839,0.014806,2.1899,-3.2412,7.1387
12180,11.0,-0.005850,0.000053,-0.312655,0.001913,0.002656,-0.008329,-4.3654,-1.2712,0.0008,0.00024358,0.00041079,-0.13170396,-0.00579195,0.01029455,-0.00623200,-0.2637,0.8230,-9.7600,-0.067791,-0.002296,0.018930,25.7105,15.0541,34.1052,-3.4772,0.3110,113,0,0,-0.008841,0.003469,-0.310976,0.018502,0.094250,0.016127,2.2264,-3.2726,7.2531
12191,11.0,-0.005766,-0.000017,-0.311212,0.001912,0.001705,0.010280,-4.4105,-1.2751,-0.0019,0.00027219,0.00043132,-0.13170287,-0.00609057,0.01122455,-0.01617146,-0.2942,0.7722,-9.7231,-0.056752,-0.009191,0.023530,25.7105,15.0541,34.1052,-3.3610,0.3110,117,0,0,-0.008682,0.003448,-0.310580,0.018597,0.093764,0.019251,2.2056,-3.2670,7.0166
12203,12.0,-0.005577,-0.000023,-0.311088,0.003340,0.001117,0.010530,-4.4204,-1.3095,-0.0073,0.00027919,0.00049017,-0.13169798,-0.00617034,0.01126706,-0.01616681,-0.2725,0.7385,-9.7748,-0.008158,-0.038731,0.017764,25.7105,15.0541,34.1052,-3.3610,0.3140,116,0,0,-0.008567,0.003469,-0.312113,0.018826,0.092845,0.001444,2.1481,-3.2749,7.0946
12214,11.0,-0.005399,0.000022,-0.310925,0.004604,0.001270,0.010593,-4.3994,-1.3420,-0.0095,0.00026787,0.00053823,-0.13169309,-0.00629381,0.01126928,-0.01649804,-0.2708,0.7490,-9.8443,0.032215,-0.042439,0.007207,25.7105,15.0541,34.1052,-3.3610,0.3140,116,0,0,-0.008391,0.003531,-0.312095,0.020016,0.093308,0.002421,2.2027,-3.3224,7.2058
12225,11.0,-0.005367,0.000042,-0.310913,0.003999,0.000943,0.009602,-4.3919,-1.3399,0.0033,0.00026317,0.00053538,-0.13169374,-0.00621005,0.01123910,-0.01582256,-0.2732,0.7219,-9.7744,0.013404,-0.007233,-0.000250,25.7105,15.0541,34.1052,-3.3610,0.3120,114,0,0,-0.008092,0.003745,-0.311992,0.021479,0.094513,0.003568,2.2780,-3.3886,7.3699
12236,11.0,-0.005340,0.000072,-0.310761,0.003460,-0.000083,0.011611,-4.3805,-1.3375,0.0000,0.00025392,0.00053032,-0.13169388,-0.00620442,0.01123762,-0.01607233,-0.2658,0.6300,-9.6623,0.017702,-0.007178,-0.005209,27.2911,16.4949,33.6915,-3.3610,0.3120,109,0,0,-0.008056,0.003830,-0.311480,0.020762,0.094251,0.009844,2.2732,-3.3866,7.4294
12247,11.0,-0.005671,0.000081,-0.310628,-0.001438,-0.001071,0.012496,-4.3772,-1.3241,0.0210,0.00024051,0.00040792,-0.13170511,-0.00581934,0.01136744,-0.01607195,-0.2905,0.6452,-9.7218,0.003068,-0.033155,-0.004925,27.2911,16.4949,33.6915,-3.3610,0.3120,108,-1,0,-0.008396,0.003946,-0.311250,0.015096,0.092884,0.013959,2.3404,-3.3954,7.6149
12258,11.0,-0.005472,0.000048,-0.311286,0.001236,-0.002002,0.003899,-4.3977,-1.3610,-0.0086,0.00024731,0.00048442,-0.13169879,-0.00585755,0.01096775,-0.01107057,-0.2158,0.6879,-9.7316,-0.026291,-0.040726,0.002930,27.2911,16.4949,33.6915,-3.3610,0.3130,109,0,0,-0.008676,0.003964,-0.311043,0.011509,0.092459,0.016135,2.3999,-3.4254,7.7363
12270,12.0,-0.005299,-0.000020,-0.311238,0.002656,-0.002097,0.004166,-4.4371,-1.3881,-0.0047,0.00026628,0.00054424,-0.13169445,-0.00594792,0.01096539,-0.01106774,-0.2773,0.7991,-9.7634,-0.047509,-0.030040,0.005933,27.2911,16.4949,33.6915,-3.4191,0.3130,112,0,0,-0.008481,0.004025,-0.311652,0.014173,0.092091,0.008916,2.3663,-3.4473,7.7837
12282,12.0,-0.005150,-0.000104,-0.311123,0.003408,-0.002245,0.003397,-4.4851,-1.4052,-0.0040,0.00028885,0.00058808,-0.13169134,-0.00605847,0.01105503,-0.01153030,-0.3019,0.8281,-9.9215,-0.058894,-0.022068,0.016295,27.2911,16.4949,33.6915,-3.4191,0.3130,108,0,0,-0.008155,0.004067,-0.311394,0.017241,0.093459,0.011584,2.3619,-3.4783,7.5500
12294,12.0,-0.004985,-0.000182,-0.311003,0.004202,-0.002705,0.002337,-4.5308,-1.4259,-0.0024,0.00030995,0.00063894,-0.13168798,-0.00610772,0.01111155,-0.01208830,-0.3101,0.8047,-9.9630,-0.055838,-0.025531,0.019643,27.2911,16.4949,33.6915,-3.4191,0.3120,105,0,0,-0.008006,0.004066,-0.311282,0.018184,0.094446,0.011212,2.3825,-3.5157,7.6642
12305,11.0,-0.004834,-0.000200,-0.310931,0.004141,-0.002317,0.001305,-4.5391,-1.4458,-0.0064,0.00030603,0.00068058,-0.13168406,-0.00620146,0.01113220,-0.01243400,-0.3779,0.8219,-9.9372,-0.010433,-0.028963,0.017565,27.2911,16.4949,33.6915,-3.4191,0.3120,114,0,0,-0.007698,0.004105,-0.311013,0.019465,0.095598,0.010556,2.3522,-3.5699,7.8541
12316,11.0,-0.004695,-0.000157,-0.310928,0.003983,-0.001848,-0.000785,-4.5151,-1.4695,-0.0030,0.00027941,0.00072582,-0.13168007,-0.00614367,0.01108098,-0.01244010,-0.3805,0.7708,-9.9772,0.033522,-0.032811,0.009091,27.2911,16.4949,33.6915,-3.4191,0.3120,113,0,0,-0.007561,0.004176,-0.310845,0.019333,0.096013,0.010710,2.3200,-3.5896,7.9296
12327,11.0,-0.004608,-0.000086,-0.311452,0.003659,-0.000930,-0.007936,-4.4757,-1.4828,-0.0070,0.00024409,0.00074495,-0.13167690,-0.00608032,0.01077101,-0.00940833,-0.3406,0.7784,-9.9014,0.055413,-0.025103,0.009410,27.2911,16.4949,33.6915,-3.4191,0.3130,112,0,0,-0.007438,0.004277,-0.310744,0.019050,0.097230,0.009907,2.3897,-3.6302,8.0480
12338,11.0,-0.004579,-0.000026,-0.311541,0.003165,-0.000400,-0.008226,-4.4440,-1.4839,-0.0007,0.00021589,0.00074427,-0.13167629,-0.00602442,0.01072787,-0.00941447,-0.2970,0.7513,-9.8136,0.045414,-0.011679,0.006536,27.6808,16.5098,34.4727,-3.3821,0.3130,115,0,0,-0.007276,0.004537,-0.311474,0.018511,0.099565,0.000597,2.4717,-3.6784,8.2439
12349,11.0,-0.005077,-0.000003,-0.311576,-0.003200,-0.000703,-0.007868,-4.4343,-1.4379,0.0245,0.00020375,0.00053737,-0.13169409,-0.00565626,0.01072783,-0.00978046,-0.2839,0.7135,-9.8210,0.015753,-0.000267,0.007810,27.6808,16.5098,34.4727,-3.3821,0.3130,115,-1,0,-0.007246,0.004660,-0.311471,0.018032,0.099908,0.001221,2.4704,-3.6775,8.3162
12360,11.0,-0.005113,-0.000015,-0.311283,-0.004105,-0.001900,-0.004390,-4.4422,-1.4272,0.0067,0.00019523,0.00054561,-0.13169463,-0.00561380,0.01103242,-0.01204990,-0.3425,0.6624,-9.8859,-0.012235,0.009767,0.006083,27.6808,16.5098,34.4727,-3.3821,0.3120,117,0,0,-0.007693,0.004757,-0.311368,0.012099,0.099022,0.002680,2.5121,-3.6724,8.5443
12371,11.0,-0.005699,-0.000074,-0.311291,-0.011000,-0.003310,-0.004549,-4.4767,-1.3637,0.0224,0.00020824,0.00033166,-0.13171311,-0.00524281,0.01107284,-0.01232611,-0.3178,0.6819,-9.8579,-0.047321,0.027540,0.008020,27.6808,16.5098,34.4727,-3.3821,0.3120,122,-1,0,-0.008161,0.004723,-0.311156,0.006327,0.097807,0.004647,2.5495,-3.6669,8.6930
12382,11.0,-0.005851,-0.000120,-0.311345,-0.011745,-0.003847,-0.005214,-4.5002,-1.3334,0.0043,0.00020899,0.00032333,-0.13171448,-0.00516557,0.01111256,-0.01232503,-0.2781,0.7395,-9.8522,-0.033930,0.035946,0.002407,27.6808,16.5098,34.4727,-3.3821,0.3120,125,0,0,-0.008671,0.004656,-0.311065,0.000767,0.095620,0.005345,2.4941,-3.6292,8.7961
12393,11.0,-0.005935,0.000349,-0.311122,-0.011690,0.001915,-0.001831,-4.4732,-1.3193,-0.0243,0.00000067,0.00034158,-0.13170472,-0.00524336,0.01086754,-0.01399508,-0.2783,0.7703,-9.7791,-0.012396,0.017596,0.005663,27.6808,16.5098,34.4727,-3.3821,0.3120,123,0,1,-0.008909,0.004655,-0.310882,0.000857,0.095132,0.007220,2.4946,-3.5661,8.5544
12404,11.0,-0.005983,0.000359,-0.311141,-0.010946,0.001289,-0.001574,-4.4723,-1.3149,-0.0010,0.00000097,0.00037713,-0.13170218,-0.00527327,0.01092339,-0.01398984,-0.2488,0.7247,-9.7717,0.004271,0.006923,0.002356,27.6808,16.5098,34.4727,-3.3821,0.3120,122,0,0,-0.009051,0.005123,-0.310975,0.000511,0.100947,0.006530,2.5544,-3.5740,8.6595
12415,11.0,-0.006008,0.000383,-0.311059,-0.010066,0.000560,-0.000142,-4.4637,-1.3151,-0.0040,-0.00000530,0.00041679,-0.13169867,-0.00536308,0.01095746,-0.01457246,-0.2500,0.6918,-9.7750,0.014846,0.000693,-0.001669,27.6808,16.5098,34.4727,-3.4931,0.3120,122,0,0,-0.009117,0.005247,-0.310729,0.002388,0.100562,0.009872,2.5729,-3.5804,8.8336
12426,11.0,-0.005986,0.000434,-0.309926,-0.009375,0.000162,0.013020,-4.4387,-1.3275,-0.0001,-0.00002977,0.00047860,-0.13169408,-0.00558917,0.01150938,-0.02108515,-0.3126,0.6869,-9.8092,0.035296,-0.012104,-0.011817,27.6808,16.5098,34.4727,-3.4931,0.3100,123,0,0,-0.009125,0.005335,-0.310633,0.003426,0.100007,0.010914,2.5548,-3.5748,8.8909
12437,11.0,-0.005900,0.000473,-0.309709,-0.007562,-0.000321,0.013848,-4.4204,-1.3513,-0.0074,-0.00004768,0.00055910,-0.13168697,-0.00574115,0.01151269,-0.02152700,-0.2664,0.6831,-9.8120,0.027068,-0.025138,-0.014574,28.0787,16.5023,34.4958,-3.4931,0.3100,125,0,0,-0.009103,0.005439,-0.309585,0.004439,0.100536,0.022013,2.6278,-3.6047,8.9862
12448,11.0,-0.005792,0.000482,-0.309559,-0.005763,-0.000631,0.013336,-4.4170,-1.3769,-0.0039,-0.00005629,0.00064531,-0.13168034,-0.00583033,0.01153727,-0.02152332,-0.2769,0.7267,-9.8485,0.005627,-0.026621,-0.013247,28.0787,16.5023,34.4958,-3.4931,0.3100,118,0,0,-0.008948,0.005649,-0.309138,0.007965,0.101123,0.023212,2.6750,-3.6500,9.1285
12459,11.0,-0.005692,0.000459,-0.309665,-0.004035,-0.001442,0.010509,-4.4315,-1.3963,-0.0045,-0.00005177,0.00071679,-0.13167480,-0.00589892,0.01144103,-0.02008763,-0.2547,0.7043,-9.7911,-0.019062,-0.020801,-0.015878,28.0787,16.5023,34.4958,-3.4931,0.3110,116,0,0,-0.008845,0.005735,-0.308787,0.009599,0.100955,0.025047,2.6438,-3.6585,9.1740
12470,11.0,-0.005587,0.000442,-0.309548,-0.002484,-0.001224,0.010774,-4.4406,-1.4162,-0.0044,-0.00004880,0.00078388,-0.13166951,-0.00598725,0.01141100,-0.02008764,-0.2603,0.7896,-9.7716,-0.010703,-0.022819,-0.015551,28.0787,16.5023,34.4958,-3.4931,0.3110,119,0,0,-0.008740,0.005793,-0.309420,0.011290,0.101126,0.016256,2.6748,-3.6920,9.2749
12481,11.0,-0.005404,0.000439,-0.309340,-0.000567,-0.000492,0.010537,-4.4417,-1.4513,-0.0082,-0.00005121,0.00087746,-0.13166156,-0.00615478,0.01144954,-0.02064456,-0.2983,0.8405,-9.9196,0.000529,-0.040810,-0.015275,28.0787,16.5023,34.4958,-3.4931,0.3110,114,0,0,-0.008490,0.005930,-0.308992,0.014284,0.102650,0.019091,2.6960,-3.7005,8.9591
12492,11.0,-0.005762,-0.000063,-0.309088,-0.005016,-0.004818,0.009981,-4.4867,-1.4380,0.0340,0.00018299,0.00072484,-0.13168325,-0.00591610,0.01173212,-0.02145187,-0.3019,0.9200,-9.9954,-0.010078,-0.026091,-0.001698,28.0787,16.5023,34.4958,-3.4350,0.3100,112,-1,-1,-0.008682,0.005510,-0.308813,0.011646,0.097630,0.018648,2.6305,-3.7014,9.0331
12503,11.0,-0.005775,-0.000103,-0.308928,-0.004916,-0.003170,0.009155,-4.5017,-1.4317,-0.0026,0.00018094,0.00074448,-0.13168137,-0.00595541,0.01175434,-0.02178273,-0.2919,0.9341,-9.9245,-0.020762,0.004984,0.002591,28.0787,16.5023,34.4958,-3.4350,0.3100,112,0,0,-0.008841,0.005104,-0.308666,0.009591,0.096259,0.014880,2.5878,-3.7242,9.2179
12514,11.0,-0.006367,-0.000141,-0.308825,-0.011484,-0.001551,0.009572,-4.5200,-1.3724,0.0352,0.00019522,0.00050434,-0.13170497,-0.00556504,0.01162064,-0.02180215,-0.2915,0.9408,-9.7470,-0.020837,0.026413,0.005989,28.0787,16.5023,34.4958,-3.4350,0.3100,110,-1,0,-0.008861,0.005116,-0.308442,0.009308,0.098586,0.015987,2.6137,-3.7343,9.3336
12525,11.0,-0.006474,-0.000160,-0.309343,-0.011829,-0.000159,0.002865,-4.5286,-1.3527,-0.0015,0.00019982,0.00051575,-0.13170399,-0.00546999,0.01135760,-0.01837914,-0.2941,0.9172,-9.7305,-0.008614,0.022388,0.026003,28.0787,16.5023,34.4958,-3.4350,0.3110,112,0,0,-0.009379,0.005057,-0.308285,0.003186,0.098831,0.017242,2.5446,-3.6887,9.4309
12537,12.0,-0.006537,-0.000146,-0.309311,-0.011571,-0.000095,0.002486,-4.5230,-1.3460,-0.0035,0.00019245,0.00055923,-0.13170023,-0.00545397,0.01134241,-0.01838107,-0.2970,0.7776,-9.8259,0.010690,0.007034,0.033577,27.2911,17.2154,33.2778,-3.4350,0.3110,114,0,0,-0.009537,0.005121,-0.309142,0.002528,0.101255,0.008149,2.5157,-3.6706,9.6467
12548,11.0,-0.006611,-0.000118,-0.309209,-0.011685,-0.000823,0.002793,-4.5117,-1.3353,-0.0048,0.00017602,0.00058582,-0.13169712,-0.00550412,0.01135584,-0.01881240,-0.3073,0.6868,-9.8580,0.017872,0.011373,0.025080,27.2911,17.2154,33.2778,-3.4350,0.3110,106,0,0,-0.009577,0.005183,-0.309059,0.002863,0.102022,0.008888,2.5584,-3.6848,9.7784
12559,11.0,-0.006756,-0.000077,-0.307961,-0.012392,-0.001892,0.016879,-4.4893,-1.3119,0.0056,0.00013159,0.00058334,-0.13169762,-0.00561761,0.01209429,-0.02532552,-0.2854,0.6216,-9.8166,0.026916,0.025751,0.013592,27.2911,17.2154,33.2778,-3.4350,0.3080,105,0,0,-0.009723,0.005334,-0.308780,0.002816,0.100999,0.010734,2.5800,-3.6759,9.9864
12570,11.0,-0.006866,-0.000045,-0.307728,-0.012460,-0.002692,0.018080,-4.4733,-1.2963,-0.0033,0.00010265,0.00059661,-0.13169545,-0.00564274,0.01207231,-0.02556614,-0.2645,0.6392,-9.7505,0.021938,0.018349,-0.002460,27.2911,17.2154,33.2778,-3.3821,0.3080,107,0,0,-0.009855,0.005410,-0.307636,0.002428,0.099874,0.022672,2.5681,-3.6466,10.0562
12581,11.0,-0.006874,-0.000048,-0.307530,-0.011520,-0.004010,0.018091,-4.4732,-1.3002,0.0006,0.00007017,0.00066520,-0.13169043,-0.00564877,0.01227202,-0.02555271,-0.2796,0.6170,-9.8134,-0.005445,-0.000268,0.001271,27.2911,17.2154,33.2778,-3.3821,0.3080,106,0,0,-0.009956,0.005479,-0.307356,0.002476,0.099634,0.024651,2.6190,-3.6495,10.1667
12592,11.0,-0.006815,-0.000060,-0.307107,-0.009655,-0.004524,0.020052,-4.4775,-1.3163,-0.0073,0.00005195,0.00075389,-0.13168254,-0.00581267,0.01234819,-0.02675136,-0.2528,0.6962,-9.8713,-0.008169,-0.014805,-0.011267,27.2911,17.2154,33.2778,-3.3821,0.3080,105,0,0,-0.009940,0.005595,-0.306782,0.004924,0.098353,0.026688,2.6373,-3.6309,9.9293
12603,11.0,-0.006777,-0.000086,-0.306892,-0.008185,-0.003868,0.019049,-4.4882,-1.3265,-0.0058,0.00004595,0.00082572,-0.13167636,-0.00588476,0.01227854,-0.02675583,-0.2504,0.8240,-9.8916,-0.015117,-0.008782,-0.015059,27.2911,17.2154,33.2778,-3.3821,0.3110,112,0,0,-0.009878,0.005658,-0.308679,0.006440,0.098044,0.003631,2.5800,-3.6259,9.9855
12613,10.0,-0.006803,-0.000133,-0.306646,-0.007732,-0.002681,0.020068,-4.5082,-1.3192,-0.0022,0.00005297,0.00085312,-0.13167419,-0.00593170,0.01231273,-0.02704480,-0.2513,0.9113,-9.7561,-0.030304,0.009821,-0.000959,27.2911,17.2154,33.2778,-3.3821,0.3110,112,0,0,-0.009829,0.005700,-0.308645,0.007586,0.099428,0.003689,2.6073,-3.6481,10.0793
12624,11.0,-0.006866,-0.000146,-0.308330,-0.007654,-0.000680,-0.000305,-4.5127,-1.3079,-0.0033,0.00005819,0.00086940,-0.13167249,-0.00561669,0.01135755,-0.01703478,-0.2454,0.9456,-9.6021,-0.001114,0.012107,0.008564,27.6890,16.8477,32.8869,-3.3610,0.3110,111,0,0,-0.009860,0.005740,-0.308494,0.007424,0.102096,0.007438,2.5567,-3.6377,10.2445
12636,12.0,-0.006369,-0.000125,-0.308288,-0.001511,0.001500,0.001549,-4.4975,-1.3463,-0.0393,0.00005002,0.00115951,-0.13164395,-0.00601605,0.01137267,-0.01722912,-0.2757,0.9379,-9.6633,0.023795,-0.010205,0.016183,27.6890,16.8477,32.8869,-3.3610,0.3080,105,1,0,-0.009894,0.005792,-0.307594,0.007146,0.103277,0.019310,2.5022,-3.6167,10.3025
12647,11.0,-0.006277,-0.000092,-0.308272,-0.001093,0.002261,0.001381,-4.4833,-1.3627,-0.0056,0.00004825,0.00122106,-0.13163854,-0.00601279,0.01129810,-0.01723563,-0.3170,0.8377,-9.8031,0.026463,-0.024004,0.028343,27.6890,16.8477,32.8869,-3.3610,0.3080,109,0,0,-0.009395,0.006054,-0.307168,0.012147,0.106975,0.023539,2.5075,-3.6515,10.4642
12658,11.0,-0.006228,-0.000072,-0.309167,-0.001505,0.002259,-0.009358,-4.4780,-1.3679,-0.0045,0.00005149,0.00125628,-0.13163522,-0.00591706,0.01090469,-0.01256659,-0.3471,0.7841,-9.8025,0.013434,-0.011987,0.028553,27.6890,16.8477,32.8869,-3.3610,0.3110,122,0,0,-0.009310,0.006157,-0.306871,0.012351,0.107971,0.025164,2.5514,-3.6815,10.5868
12669,11.0,-0.006224,-0.000044,-0.309272,-0.002032,0.001529,-0.009756,-4.4680,-1.3658,0.0034,0.00004225,0.00127579,-0.13163458,-0.00583725,0.01097155,-0.01256399,-0.3156,0.7040,-9.8301,0.017132,-0.002976,0.024809,27.6890,16.8477,32.8869,-3.3610,0.3110,122,0,0,-0.009257,0.006251,-0.308678,0.011985,0.107333,0.003375,2.4949,-3.6786,10.6783
12680,11.0,-0.006247,-0.000013,-0.309335,-0.002921,0.000785,-0.009761,-4.4566,-1.3582,-0.0009,0.00003229,0.00127809,-0.13163401,-0.00584764,0.01098031,-0.01281835,-0.3267,0.6914,-9.8479,0.019507,0.002525,0.013059,27.6890,16.8477,32.8869,-3.3610,0.3110,120,0,0,-0.009250,0.006425,-0.308562,0.010970,0.105937,0.004956,2.5218,-3.6512,10.4432
12691,11.0,-0.006267,0.000018,-0.308102,-0.003646,0.000213,0.004390,-4.4425,-1.3535,0.0043,0.00001227,0.00129179,-0.13163376,-0.00596199,0.01162396,-0.01962647,-0.3261,0.7033,-9.9363,0.020267,0.001575,0.000069,27.6890,16.8477,32.8869,-3.3610,0.3080,127,0,0,-0.009278,0.006514,-0.308515,0.010202,0.105510,0.005109,2.5659,-3.6606,10.5601
12702,11.0,-0.006259,-0.000013,-0.308026,-0.003571,-0.000162,0.003251,-4.4623,-1.3500,-0.0012,0.00002960,0.00131738,-0.13163212,-0.00600057,0.01166340,-0.01981401,-0.2859,0.7830,-9.9395,-0.024850,0.001415,0.002860,27.6890,16.8477,32.8869,-3.3610,0.3080,130,0,0,-0.009287,0.006653,-0.307472,0.009500,0.104831,0.013693,2.5592,-3.6606,10.7382
12713,11.0,-0.006286,-0.000074,-0.307989,-0.003355,-0.000586,0.003490,-4.4979,-1.3373,0.0008,0.00006259,0.00132404,-0.13163255,-0.00600859,0.01167354,-0.01981197,-0.2300,0.7964,-9.7740,-0.046292,0.011526,0.013321,27.6890,16.8477,32.8869,-3.3081,0.3080,120,0,0,-0.009269,0.006682,-0.307315,0.009646,0.104289,0.013776,2.4848,-3.6440,10.8064
12724,11.0,-0.006290,-0.000081,-0.308482,-0.002695,-0.000632,-0.001495,-4.5034,-1.3330,-0.0017,0.00006297,0.00134149,-0.13163100,-0.00594008,0.01144558,-0.01712839,-0.2042,0.7679,-9.6805,-0.005011,0.000467,0.013365,28.8717,17.2154,33.6915,-3.3081,0.3100,126,0,0,-0.009275,0.006687,-0.307174,0.009835,0.104190,0.015189,2.4835,-3.6491,10.9259
12735,11.0,-0.006263,-0.000038,-0.308498,-0.002144,-0.000927,-0.001374,-4.4813,-1.3382,-0.0017,0.00002795,0.00137266,-0.13162780,-0.00595866,0.01150072,-0.01712532,-0.2433,0.6968,-9.7896,0.030834,-0.011211,0.002699,28.8717,17.2154,33.6915,-3.3081,0.3100,126,0,0,-0.009268,0.006807,-0.308202,0.010424,0.103510,0.005552,2.4477,-3.6395,11.1114
12746,11.0,-0.006272,-0.000023,-0.308485,-0.002178,-0.001124,-0.001102,-4.4746,-1.3331,-0.0012,0.00001331,0.00138028,-0.13162668,-0.00597221,0.01149404,-0.01727037,-0.2535,0.7316,-9.8037,0.010907,0.000202,0.005216,28.8717,17.2154,33.6915,-3.3081,0.3100,120,0,0,-0.009683,0.006824,-0.308149,0.005739,0.101831,0.006469,2.4173,-3.6100,11.1915
12757,11.0,-0.006305,-0.000028,-0.307123,-0.002408,-0.001547,0.015126,-4.4781,-1.3217,0.0023,0.00000489,0.00137490,-0.13162744,-0.00615526,0.01209660,-0.02401748,-0.2464,0.7259,-9.7793,-0.004941,0.007527,0.003390,28.8717,17.2154,33.6915,-3.3081,0.3070,116,0,0,-0.009692,0.006895,-0.308048,0.006165,0.102041,0.007739,2.4510,-3.6220,11.2960
12768,11.0,-0.006249,-0.000031,-0.306937,-0.001864,-0.002032,0.015044,-4.4808,-1.3291,-0.0034,-0.00000465,0.00141944,-0.13162339,-0.00621267,0.01209418,-0.02412514,-0.2707,0.7176,-9.8361,-0.002865,-0.012433,0.005079,28.8717,17.2154,33.6915,-3.3081,0.3070,116,0,0,-0.009720,0.006998,-0.306660,0.006921,0.101137,0.021678,2.4258,-3.6110,11.4569
12779,11.0,-0.006140,-0.000001,-0.306779,-0.000319,-0.001963,0.013665,-4.4636,-1.3496,-0.0050,-0.00003669,0.00148786,-0.13161685,-0.00629543,0.01209141,-0.02412535,-0.2292,0.7367,-9.9306,0.024091,-0.028667,0.001580,28.8717,17.2154,33.6915,-3.3081,0.3070,112,0,0,-0.009662,0.007073,-0.306419,0.007809,0.100590,0.022421,2.3774,-3.6054,11.5141
12790,11.0,-0.006029,0.000049,-0.307339,0.000886,-0.001593,0.003336,-4.4363,-1.3708,-0.0051,-0.00007687,0.00154985,-0.13161054,-0.00626557,0.01177533,-0.02074668,-0.2501,0.7491,-10.0032,0.039034,-0.030258,-0.002134,28.8717,17.2154,33.6915,-3.3980,0.3090,118,0,0,-0.009569,0.007170,-0.306198,0.009510,0.101449,0.022366,2.4394,-3.6014,11.1364
12801,11.0,-0.005976,0.000083,-0.307315,0.001169,-0.000613,0.000948,-4.4176,-1.3782,-0.0021,-0.00009808,0.00157636,-0.13160779,-0.00626077,0.01167503,-0.02075545,-0.2673,0.8266,-10.0114,0.029501,-0.015791,0.006922,28.8717,17.2154,33.6915,-3.3980,0.3090,111,0,0,-0.009395,0.007402,-0.307150,0.011665,0.103059,0.006635,2.4480,-3.6275,11.2872
12812,11.0,-0.005974,0.000098,-0.307253,0.000704,0.000108,0.000002,-4.4096,-1.3726,0.0001,-0.00010845,0.00157126,-0.13160793,-0.00626351,0.01168662,-0.02105846,-0.2786,0.8242,-9.9465,0.014294,-0.001771,0.016266,28.8717,17.2154,33.6915,-3.3980,0.3090,113,0,0,-0.009355,0.007503,-0.307096,0.011789,0.103518,0.005467,2.4069,-3.6179,11.3456
12823,11.0,-0.005999,0.000110,-0.307120,-0.000252,0.000508,0.000183,-4.4053,-1.3623,0.0032,-0.00010959,0.00156067,-0.13160948,-0.00619770,0.01168217,-0.02173885,-0.3025,0.8032,-9.9283,0.010440,0.004790,0.018407,28.8717,17.2154,33.6915,-3.3980,0.3080,109,0,0,-0.009341,0.007582,-0.306969,0.011605,0.104601,0.005823,2.4395,-3.6299,11.4533
12834,11.0,-0.006082,-0.000334,-0.307075,-0.001491,-0.005017,0.000058,-4.4192,-1.3418,0.0109,0.00013518,0.00151863,-0.13162038,-0.00616675,0.01196921,-0.02194257,-0.2731,0.7273,-9.8650,0.026063,0.015046,0.012013,26.8906,16.5098,32.4047,-3.3980,0.3080,109,0,-1,-0.009397,0.007713,-0.306954,0.009768,0.104348,0.004810,2.4093,-3.6112,11.6408
12845,11.0,-0.006201,-0.000307,-0.307075,-0.003254,-0.004118,-0.000083,-4.4001,-1.3159,0.0051,0.00009110,0.00146980,-0.13162415,-0.00603539,0.01190267,-0.02195123,-0.2951,0.7662,-9.8117,0.025878,0.023179,0.013078,26.8906,16.5098,32.4047,-3.3980,0.3080,106,0,0,-0.009378,0.007358,-0.306912,0.009708,0.098600,0.005068,2.3495,-3.5836,11.7184
12856,11.0,-0.006358,-0.000292,-0.308082,-0.004754,-0.003411,-0.011168,-4.3879,-1.2824,0.0033,0.00005590,0.00140504,-0.13162866,-0.00583347,0.01148958,-0.01719537,-0.2432,0.7608,-9.7383,0.016640,0.031661,0.016992,26.8906,16.5098,32.4047,-3.4561,0.3100,106,0,0,-0.009470,0.007426,-0.306861,0.008210,0.099248,0.005762,2.3882,-3.5779,11.8311
12867,11.0,-0.006475,-0.000268,-0.308201,-0.006458,-0.002814,-0.010567,-4.3725,-1.2597,0.0057,0.00002171,0.00138109,-0.13163114,-0.00568721,0.01144837,-0.01720245,-0.3195,0.7484,-9.7401,0.021551,0.022627,0.016230,26.8906,16.5098,32.4047,-3.4561,0.3100,109,0,0,-0.009730,0.007531,-0.308223,0.004741,0.099375,-0.005903,2.3697,-3.5255,12.0241
12878,11.0,-0.006538,-0.000751,-0.308239,-0.007331,-0.008290,-0.010356,-4.4018,-1.2460,0.0095,0.00027107,0.00138928,-0.13163850,-0.00571612,0.01175777,-0.01757438,-0.3162,0.7287,-9.8680,0.001597,0.012933,0.017879,26.8906,16.5098,32.4047,-3.4561,0.3100,105,0,-1,-0.009843,0.007592,-0.308196,0.003139,0.098893,-0.003436,2.3276,-3.4957,12.0999
12889,11.0,-0.006668,-0.000806,-0.307622,-0.009009,-0.007935,-0.002209,-4.4239,-1.2177,0.0060,0.00025191,0.00137463,-0.13164076,-0.00566247,0.01199529,-0.02099064,-0.3303,0.7621,-9.8301,-0.035221,0.033211,0.014695,26.8906,16.5098,32.4047,-3.4561,0.3080,105,0,0,-0.009871,0.007234,-0.308269,0.002567,0.093833,-0.002680,2.2920,-3.4425,11.8405
12900,11.0,-0.006845,-0.000846,-0.307577,-0.010502,-0.007234,-0.000284,-4.4378,-1.1810,0.0016,0.00022645,0.00133311,-0.13164347,-0.00562585,0.01198950,-0.02129747,-0.2713,0.7770,-9.6919,-0.023401,0.041143,0.011689,26.8906,16.5098,32.4047,-3.4561,0.3080,107,0,0,-0.009984,0.007213,-0.307531,0.001025,0.093984,0.006303,2.2920,-3.4286,11.9538
12911,11.0,-0.006914,-0.000853,-0.307574,-0.010530,-0.005287,0.000845,-4.4331,-1.1713,-0.0028,0.00019724,0.00136474,-0.13163993,-0.00560082,0.01184423,-0.02131032,-0.2598,0.8725,-9.6878,0.006101,0.012209,0.006973,26.8906,16.5098,32.4047,-3.4561,0.3080,107,0,0,-0.010230,0.007214,-0.307285,-0.001178,0.094136,0.011245,2.2307,-3.3800,12.1386
12922,11.0,-0.006438,-0.000837,-0.308302,-0.004356,-0.003586,-0.006344,-4.4177,-1.2052,-0.0292,0.00015849,0.00169778,-0.13160832,-0.00585537,0.01153831,-0.01788876,-0.2524,0.8424,-9.6562,0.020907,-0.003838,0.012667,26.8906,16.5098,32.4047,-3.4561,0.3100,116,1,0,-0.009845,0.007359,-0.307170,0.003562,0.096135,0.013298,2.1742,-3.3787,12.1864
12933,11.0,-0.006431,-0.000355,-0.308368,-0.004371,0.002635,-0.005582,-4.3866,-1.2052,-0.0112,-0.00012849,0.00173482,-0.13159648,-0.00581266,0.01115675,-0.01792520,-0.2727,0.7965,-9.7236,0.002767,-0.002439,0.018307,27.2884,17.2228,34.0821,-3.5089,0.3100,116,0,1,-0.009942,0.007866,-0.308365,0.002374,0.102595,0.001466,2.2169,-3.3882,12.2910
12945,12.0,-0.006392,-0.000344,-0.308324,-0.004457,0.001586,-0.003317,-4.3885,-1.2115,-0.0037,-0.00011992,0.00179020,-0.13159184,-0.00588938,0.01120837,-0.01841352,-0.3108,0.6817,-9.7166,0.001623,-0.010058,0.018805,27.2884,17.2228,34.0821,-3.5089,0.3100,118,0,0,-0.010011,0.008445,-0.308212,0.001609,0.106362,0.005813,2.1950,-3.3888,12.4693
12956,11.0,-0.006327,-0.000331,-0.308172,-0.003876,0.000552,0.000348,-4.3848,-1.2238,0.0019,-0.00013157,0.00186346,-0.13158721,-0.00589740,0.01140785,-0.01921497,-0.2791,0.6532,-9.6599,0.005564,-0.015591,0.015902,27.2884,17.2228,34.0821,-3.5089,0.3090,113,0,0,-0.009974,0.008526,-0.308143,0.001993,0.104449,0.007524,2.1417,-3.3855,12.5468
12967,11.0,-0.006249,-0.000305,-0.308081,-0.003022,0.000041,0.002760,-4.3744,-1.2387,-0.0042,-0.00014514,0.00193239,-0.13158099,-0.00598798,0.01142321,-0.01958427,-0.2611,0.6800,-9.6703,0.017050,-0.020217,0.003649,27.2884,17.2228,34.0821,-3.5089,0.3090,122,0,0,-0.009855,0.008709,-0.307955,0.003937,0.101959,0.012002,2.1152,-3.4026,12.7223
12978,11.0,-0.006156,-0.000275,-0.308049,-0.002414,-0.000661,0.003050,-4.3603,-1.2574,0.0024,-0.00017440,0.00201468,-0.13157550,-0.00596665,0.01152010,-0.01957999,-0.2970,0.6566,-9.7783,0.019166,-0.023278,0.008807,27.2884,17.2228,34.0821,-3.5089,0.3090,122,0,0,-0.009786,0.008807,-0.307705,0.004927,0.101509,0.015564,2.1417,-3.4256,12.8218
12990,12.0,-0.006002,-0.000282,-0.308512,-0.000785,-0.001577,-0.003396,-4.3672,-1.2857,-0.0042,-0.00017839,0.00212130,-0.13156691,-0.00601669,0.01134177,-0.01738543,-0.2608,0.6792,-9.8645,-0.007351,-0.033363,0.015314,27.2884,17.2228,34.0821,-3.5089,0.3100,120,0,0,-0.009706,0.008913,-0.307552,0.005841,0.100368,0.016690,2.1243,-3.3994,12.4467
13001,11.0,-0.005887,-0.000307,-0.308555,0.000034,-0.002820,-0.004342,-4.3811,-1.3026,0.0036,-0.00018881,0.00220050,-0.13156238,-0.00601689,0.01147765,-0.01737734,-0.2849,0.6508,-9.8895,-0.021904,-0.021760,0.015843,27.2884,17.2228,34.0821,-3.5089,0.3100,122,0,0,-0.009430,0.009073,-0.308437,0.008884,0.098638,0.005198,2.0689,-3.4357,12.6183
13012,11.0,-0.005781,-0.000306,-0.308477,0.000615,-0.003546,-0.005020,-4.3810,-1.3179,-0.0020,-0.00021057,0.00226167,-0.13155712,-0.00610298,0.01150207,-0.01801013,-0.2916,0.6718,-10.0144,-0.000531,-0.022451,0.009770,27.2884,17.2228,34.0821,-3.6041,0.3100,121,0,0,-0.009315,0.009133,-0.308388,0.009832,0.097842,0.005139,2.0711,-3.4590,12.7217
13023,11.0,-0.005754,-0.000332,-0.308797,-0.000472,-0.004087,-0.009876,-4.3933,-1.3176,0.0066,-0.00022503,0.00229104,-0.13155684,-0.00593262,0.01145712,-0.01689361,-0.3647,0.7067,-9.9717,-0.019390,-0.001546,0.007105,27.2884,17.2228,34.0821,-3.6041,0.3100,120,0,0,-0.009135,0.009277,-0.308794,0.010226,0.096121,-0.002569,2.0259,-3.4753,12.8903
13034,11.0,-0.005807,-0.000351,-0.308803,-0.002096,-0.004394,-0.009189,-4.4017,-1.3005,-0.0004,-0.00024163,0.00226705,-0.13155802,-0.00592244,0.01147379,-0.01737577,-0.3384,0.7089,-9.8506,-0.013185,0.014495,0.008669,28.4739,17.2228,34.4958,-3.6041,0.3100,114,0,0,-0.009115,0.009314,-0.308715,0.009195,0.094907,-0.002025,1.9607,-3.4626,12.9634
13045,11.0,-0.005853,0.000126,-0.308905,-0.003518,0.000922,-0.009433,-4.3747,-1.2892,-0.0091,-0.00054891,0.00226850,-0.13154854,-0.00576000,0.01120163,-0.01740435,-0.3442,0.7102,-9.8194,-0.007141,0.011713,0.001401,28.4739,17.2228,34.4958,-3.6041,0.3100,116,0,1,-0.009149,0.009342,-0.308736,0.007766,0.094397,-0.001718,1.9659,-3.4584,13.0703
13056,11.0,-0.005867,0.000141,-0.308935,-0.003818,0.000641,-0.008699,-4.3698,-1.2850,-0.0004,-0.00055251,0.00228417,-0.13154726,-0.00578735,0.01122046,-0.01773150,-0.2823,0.7279,-9.8101,0.009496,0.001438,0.001596,28.4739,17.2228,34.4958,-3.6041,0.3100,112,0,0,-0.009417,0.010297,-0.308973,0.003350,0.102395,-0.002421,1.9576,-3.4353,13.2287
13067,11.0,-0.005897,0.000162,-0.309031,-0.003993,0.000665,-0.008721,-4.3609,-1.2793,0.0013,-0.00056090,0.00229552,-0.13154669,-0.00575380,0.01121086,-0.01773342,-0.2563,0.7461,-9.7990,0.015067,0.003774,-0.001301,28.4739,17.2228,34.4958,-3.6041,0.3100,118,0,0,-0.009432,0.010370,-0.308998,0.003150,0.101030,-0.001704,1.9062,-3.4179,13.2958
13078,11.0,-0.005994,0.000177,-0.308990,-0.005396,0.000536,-0.007379,-4.3553,-1.2593,0.0004,-0.00056559,0.00226730,-0.13154867,-0.00574627,0.01124677,-0.01834707,-0.3041,0.7382,-9.8248,0.010319,0.019587,-0.006397,28.4739,17.2228,34.4958,-3.6041,0.3100,116,0,0,-0.009458,0.010439,-0.308873,0.003026,0.100694,0.000728,1.9255,-3.4212,13.3960
13089,11.0,-0.006103,0.000167,-0.309049,-0.006297,-0.000034,-0.007314,-4.3631,-1.2368,0.0036,-0.00056047,0.00224373,-0.13155158,-0.00567146,0.01129356,-0.01844658,-0.2554,0.7190,-9.8188,-0.009474,0.024470,-0.000533,28.4739,17.2228,34.4958,-3.5089,0.3100,116,0,0,-0.009632,0.010535,-0.308855,0.001204,0.098883,0.001862,1.9104,-3.3534,13.0724
13100,11.0,-0.006130,0.000150,-0.309050,-0.006394,0.000167,-0.006163,-4.3731,-1.2306,-0.0003,-0.00054914,0.00226979,-0.13154994,-0.00571098,0.01132899,-0.01879491,-0.2722,0.7935,-9.7752,-0.011828,0.006612,-0.002905,28.4739,17.2228,34.4958,-3.5089,0.3100,116,0,0,-0.009723,0.010564,-0.309079,0.000616,0.097362,-0.000010,1.8464,-3.3188,13.1386
13111,11.0,-0.006165,0.000144,-0.309115,-0.006031,0.000381,-0.005589,-4.3783,-1.2237,-0.0007,-0.00054020,0.00229143,-0.13154843,-0.00572166,0.01129557,-0.01879764,-0.2190,0.7851,-9.7436,-0.003947,0.006587,0.005640,28.4739,17.2228,34.4958,-3.5089,0.3100,114,0,0,-0.009756,0.010595,-0.309076,0.000431,0.097120,0.000985,1.8483,-3.3177,13.2350
13122,11.0,-0.006057,0.000165,-0.309583,-0.004744,0.001376,-0.011956,-4.3667,-1.2473,-0.0050,-0.00054884,0.00239617,-0.13153942,-0.00576575,0.01117373,-0.01711126,-0.2829,0.8491,-9.9491,0.019220,-0.027377,0.001832,28.4739,17.2228,34.4958,-3.5089,0.3110,108,0,0,-0.009763,0.010715,-0.308919,0.001454,0.096923,0.003885,1.8035,-3.3080,13.3928
13133,11.0,-0.005981,0.000156,-0.309723,-0.004260,0.001980,-0.013658,-4.3748,-1.2612,-0.0012,-0.00052407,0.00248163,-0.13153370,-0.00575209,0.01109547,-0.01711954,-0.3166,0.8553,-9.9419,-0.005110,-0.016376,0.023223,26.4981,16.5023,34.4958,-3.5089,0.3110,112,0,0,-0.009672,0.010816,-0.309770,0.002524,0.097217,-0.006149,1.7489,-3.3105,13.4517
13144,11.0,-0.005959,0.000161,-0.309780,-0.004677,0.001312,-0.014021,-4.3773,-1.2632,-0.0018,-0.00051557,0.00252565,-0.13153026,-0.00580823,0.01113698,-0.01756540,-0.3402,0.7239,-9.9417,0.000259,-0.004851,0.019954,26.4981,16.5023,34.4958,-3.5089,0.3110,105,0,0,-0.009536,0.010955,-0.309819,0.002898,0.097187,-0.006452,1.6950,-3.3283,13.6356
13156,12.0,-0.006023,0.000199,-0.309440,-0.005905,0.001155,-0.007652,-4.3595,-1.2524,0.0053,-0.00053180,0.00253335,-0.13153112,-0.00575639,0.01130658,-0.01967610,-0.3238,0.7198,-9.7535,0.025746,0.009244,0.010734,26.4981,16.5023,34.4958,-3.4878,0.3100,107,0,0,-0.009522,0.011017,-0.309766,0.002453,0.096483,-0.005487,1.7037,-3.3359,13.7441
13167,11.0,-0.006106,0.000253,-0.309444,-0.006523,0.001231,-0.005453,-4.3337,-1.2392,-0.0006,-0.00055715,0.00252376,-0.13153103,-0.00575684,0.01130479,-0.01999484,-0.2576,0.7104,-9.6815,0.039165,0.011538,0.004719,26.4981,16.5023,34.4958,-3.4878,0.3100,103,0,0,-0.009646,0.011171,-0.309550,0.000474,0.094760,0.000200,1.6927,-3.3154,13.9261
13178,11.0,-0.006158,0.000270,-0.309494,-0.006641,0.000465,-0.003607,-4.3274,-1.2307,0.0032,-0.00057089,0.00254074,-0.13153063,-0.00572181,0.01140949,-0.01998844,-0.2479,0.6606,-9.6376,0.009162,0.008793,0.007442,26.4981,16.5023,34.4958,-3.4878,0.3100,107,0,0,-0.009725,0.011249,-0.309447,-0.000108,0.093621,0.003205,1.6592,-3.2898,13.9952
13189,11.0,-0.006188,0.000272,-0.309750,-0.006550,-0.000381,-0.004038,-4.3300,-1.2252,-0.0009,-0.00057192,0.00256805,-0.13152842,-0.00571819,0.01133714,-0.01904447,-0.2502,0.6580,-9.6039,-0.001933,0.005579,0.005648,26.4981,16.5023,34.4958,-3.4878,0.3110,107,0,0,-0.009776,0.011305,-0.309406,-0.000058,0.092852,0.005599,1.6958,-3.2616,13.6252
13200,11.0,-0.006185,0.000311,-0.309791,-0.006418,-0.001277,-0.003488,-4.3094,-1.2305,0.0055,-0.00061730,0.00262317,-0.13152549,-0.00566364,0.01149022,-0.01903638,-0.2844,0.6119,-9.7577,0.025768,-0.005348,-0.005735,26.4981,16.5023,34.4958,-3.4878,0.3110,112,0,0,-0.009837,0.011416,-0.309867,0.000008,0.090412,0.004356,1.6565,-3.2417,13.7917
13211,11.0,-0.006183,0.000350,-0.309743,-0.006204,-0.001825,-0.003892,-4.2903,-1.2345,-0.0016,-0.00065160,0.00266731,-0.13152114,-0.00572184,0.01148446,-0.01944179,-0.2775,0.6494,-9.9456,0.026594,-0.005389,-0.009967,26.4981,16.5023,34.4958,-3.4878,0.3110,103,0,0,-0.009842,0.011506,-0.309823,0.000203,0.089136,0.005403,1.6269,-3.2315,13.8532
13223,12.0,-0.006273,0.000361,-0.309943,-0.007238,-0.001688,-0.007054,-4.2822,-1.2201,0.0036,-0.00067191,0.00267016,-0.13152175,-0.00559986,0.01141769,-0.01885820,-0.2978,0.7339,-9.9235,0.010447,0.016068,-0.014481,26.8933,16.1421,32.8412,-3.4878,0.3110,110,0,0,-0.009903,0.011647,-0.310029,-0.000158,0.088268,0.001423,1.6093,-3.2177,13.9963
13234,11.0,-0.006408,0.000326,-0.309945,-0.007730,-0.001347,-0.005820,-4.2990,-1.1929,0.0010,-0.00066086,0.00263713,-0.13152462,-0.00557682,0.01145060,-0.01916647,-0.2015,0.7913,-9.7639,-0.022862,0.030901,-0.005858,26.8933,16.1421,32.8412,-3.4878,0.3110,109,0,0,-0.009992,0.011667,-0.309927,-0.001247,0.088549,0.002622,1.6162,-3.2060,14.0849
13245,11.0,-0.006503,0.000313,-0.309997,-0.008000,-0.000828,-0.003556,-4.3057,-1.1750,0.0004,-0.00065621,0.00263349,-0.13152510,-0.00554986,0.01140318,-0.01917051,-0.2210,0.7802,-9.5902,-0.007211,0.020128,0.008105,26.8933,16.1421,32.8412,-3.4878,0.3110,119,0,0,-0.010101,0.011666,-0.309901,-0.001940,0.088003,0.003725,1.5464,-3.1667,14.1443
13256,11.0,-0.006496,0.000321,-0.310530,-0.007211,-0.000247,-0.006629,-4.3008,-1.1788,-0.0022,-0.00066604,0.00269098,-0.13152015,-0.00554692,0.01124834,-0.01711468,-0.2274,0.7658,-9.5393,0.008288,-0.004279,0.009728,26.8933,16.1421,32.8412,-3.4878,0.3120,119,0,0,-0.010199,0.011674,-0.309854,-0.002505,0.088156,0.006343,1.5469,-3.1532,14.2410
