timestamp_ms,dt_ms,pos_x,pos_y,pos_z,vel_x,vel_y,vel_z,roll_deg,pitch_deg,yaw_deg,gyro_bias_x,gyro_bias_y,gyro_bias_z,accel_bias_x,accel_bias_y,accel_bias_z,raw_accel_x,raw_accel_y,raw_accel_z,raw_gyro_x,raw_gyro_y,raw_gyro_z,raw_mag_x,raw_mag_y,raw_mag_z,raw_baro_alt,raw_tof,raw_flow_squal,raw_flow_dx,raw_flow_dy,dev_pos_x,dev_pos_y,dev_pos_z,dev_vel_x,dev_vel_y,dev_vel_z,dev_roll_deg,dev_pitch_deg,dev_yaw_deg
11327,10.0,-0.000460,-0.000050,-0.316938,-0.047631,-0.000489,-0.001187,-0.0058,0.0089,0.0010,0.00000000,0.00000000,-0.13171183,-0.00151348,0.00339969,0.00000000,-0.3293,0.8976,-9.8495,-0.006445,-0.001856,-0.022963,26.1084,16.4875,33.7145,-3.3768,0.3170,111,-1,0,-0.002872,-0.000981,-0.316721,-0.014061,0.003677,0.007945,-2.8117,-2.0271,1.4500
11338,11.0,-0.001042,-0.000562,-0.316951,-0.050564,-0.024832,-0.001319,-2.7411,-0.9229,0.0288,0.00000958,0.00000345,-0.13171184,-0.00149932,0.00373905,0.00000004,-0.3261,0.9189,-9.7298,-0.028913,0.006086,-0.009972,26.1084,16.4875,33.7145,-3.3768,0.3180,101,-1,-1,-0.003321,-0.000975,-0.317053,-0.018827,0.004629,0.002869,-2.8699,-1.9620,1.5617
11349,11.0,-0.001087,-0.001156,-0.315067,-0.035328,-0.031885,0.083339,-2.8613,-1.0742,-0.0133,0.00000983,0.00000382,-0.13171178,-0.00206228,0.00411027,-0.00003389,-0.3580,0.8705,-9.6397,-0.023997,0.006939,-0.003052,26.1084,17.5681,34.5420,-3.3768,0.3180,112,0,-1,-0.003775,-0.001461,-0.317024,-0.023041,0.000321,0.003160,-2.9145,-1.9084,1.7345
11361,12.0,-0.001107,-0.001173,-0.317314,-0.025244,-0.022367,-0.011504,-3.2002,-1.6630,-0.0113,0.00001483,0.00000930,-0.13171159,-0.00274032,0.00355223,0.00003406,-0.4203,0.7224,-9.8293,0.007949,-0.012069,-0.016042,26.1084,17.5681,34.5420,-3.3768,0.3180,110,0,0,-0.003834,-0.001941,-0.316882,-0.018181,-0.002028,0.005535,-2.9423,-2.0572,1.8337
11372,11.0,-0.001084,-0.001171,-0.317341,-0.020166,-0.015240,-0.010794,-3.0930,-1.7916,-0.0332,0.00001428,0.00001002,-0.13171136,-0.00338542,0.00306067,-0.00001664,-0.4606,0.7286,-9.9777,0.019696,-0.009696,-0.032908,26.1084,17.5681,34.5420,-3.3768,0.3170,108,0,0,-0.003822,-0.001921,-0.316562,-0.015564,-0.000619,0.008002,-2.8676,-2.1562,1.8559
11384,12.0,-0.001201,-0.001155,-0.317481,-0.017733,-0.011110,-0.012230,-3.4984,-1.9744,-0.0146,0.00002517,0.00001377,-0.13171118,-0.00370590,0.00256855,-0.00003214,-0.4071,0.8599,-9.8787,0.005144,0.014278,-0.031572,26.1084,17.5681,34.5420,-3.3768,0.3170,110,0,0,-0.003848,-0.001880,-0.316387,-0.012438,0.003367,0.005307,-2.6953,-2.2943,1.9222
11395,11.0,-0.001320,-0.001085,-0.316418,-0.014920,-0.005132,0.009317,-3.3772,-1.9926,-0.0179,0.00002436,0.00001409,-0.13171102,-0.00391949,0.00207850,-0.00076913,-0.1990,0.8416,-9.7623,0.067762,0.010307,-0.052410,26.1084,17.5681,34.5420,-3.3768,0.3170,113,0,0,-0.003985,-0.001880,-0.316260,-0.012683,0.007283,0.006153,-2.5742,-2.3053,1.9845
11406,11.0,-0.001429,-0.000902,-0.316310,-0.013872,-0.000716,0.010442,-3.8176,-1.9049,-0.0326,0.00004698,0.00001028,-0.13171080,-0.00412062,0.00117434,-0.00081232,-0.2501,1.0900,-9.6450,0.097891,0.007603,-0.017675,26.1084,17.5681,34.5420,-3.3768,0.3180,113,0,0,-0.004094,-0.001791,-0.316199,-0.011671,0.009660,0.006465,-2.5186,-2.2934,1.9897
11417,11.0,-0.001459,-0.001318,-0.316084,-0.009810,-0.003510,0.013278,-3.9527,-1.9520,0.0058,0.00005027,0.00001112,-0.13171078,-0.00453114,0.00276709,-0.00089009,-0.1283,1.0616,-9.6446,0.081022,-0.010699,0.018109,26.1084,17.5681,34.5420,-3.3768,0.3180,123,0,-1,-0.004249,-0.001549,-0.316978,-0.008214,0.019488,-0.000150,-2.3468,-2.3150,2.0591
11428,11.0,-0.001420,-0.001258,-0.316686,-0.007270,-0.001714,0.003372,-4.1085,-1.9493,-0.0410,0.00006228,0.00000817,-0.13171031,-0.00510788,0.00217491,0.00056540,-0.2646,0.8983,-9.7309,0.030584,-0.013888,0.024484,26.1084,17.5681,34.5420,-3.3768,0.3180,120,0,0,-0.004259,-0.001889,-0.316976,-0.005112,0.017877,0.001077,-2.2820,-2.3574,2.1721
11439,11.0,-0.001837,-0.001728,-0.316598,-0.012764,-0.009121,0.002940,-4.2888,-1.8110,0.0915,0.00006746,0.00000432,-0.13171175,-0.00369189,0.00409340,0.00046188,-0.3313,0.7135,-9.8829,0.015947,-0.020037,0.025388,26.1084,17.5681,34.5420,-3.3768,0.3160,117,-1,-1,-0.004602,-0.002214,-0.316016,-0.007234,0.014770,0.011452,-2.2316,-2.3509,2.4002
11450,11.0,-0.001827,-0.001742,-0.316578,-0.010237,-0.008021,0.000658,-4.2149,-1.8760,-0.0322,0.00006273,0.00000680,-0.13171117,-0.00435407,0.00374928,0.00046081,-0.3212,0.6785,-9.9918,0.002366,-0.007032,0.007410,26.8960,17.5756,32.8640,-3.4878,0.3160,121,0,0,-0.004531,-0.002179,-0.315912,-0.004901,0.014572,0.009720,-2.1735,-2.4040,2.4494
11462,12.0,-0.001962,-0.001728,-0.315510,-0.009292,-0.006167,0.011197,-4.1470,-1.8494,-0.0062,0.00006089,0.00000659,-0.13171108,-0.00439329,0.00352035,-0.00394754,-0.2268,0.7358,-9.9758,0.026876,0.019610,-0.013498,26.8960,17.5756,32.8640,-3.4878,0.3160,122,0,0,-0.004499,-0.002164,-0.315722,-0.002951,0.015386,0.008905,-2.0715,-2.4507,2.5275
11473,11.0,-0.002110,-0.001660,-0.315393,-0.009630,-0.003829,0.010136,-4.1711,-1.7390,-0.0171,0.00007154,-0.00000353,-0.13171099,-0.00432064,0.00265070,-0.00401012,-0.1964,0.8645,-9.8712,0.048422,0.024773,-0.008574,26.8960,17.5756,32.8640,-3.4878,0.3170,124,0,0,-0.004710,-0.002074,-0.316102,-0.002069,0.018910,-0.000283,-1.9018,-2.4295,2.6675
11484,11.0,-0.002195,-0.002083,-0.315168,-0.007868,-0.008524,0.011824,-4.2781,-1.7320,0.0222,0.00007996,-0.00000324,-0.13171144,-0.00440516,0.00459777,-0.00457063,-0.1567,0.8452,-9.7455,0.055094,0.006439,0.006099,26.8960,17.5756,32.8640,-3.4878,0.3170,116,0,-1,-0.004837,-0.001994,-0.316111,-0.002052,0.021039,-0.001096,-1.8579,-2.3922,2.5969
11495,11.0,-0.002181,-0.002479,-0.315590,-0.005773,-0.013093,0.006257,-4.3789,-1.6721,-0.0258,0.00009332,-0.00001745,-0.13171111,-0.00510179,0.00574382,-0.00087016,-0.1195,0.8000,-9.6983,0.070976,-0.013174,0.013037,26.8960,17.5756,32.8640,-3.4878,0.3170,116,0,-1,-0.004903,-0.002361,-0.316123,-0.000508,0.018327,-0.001002,-1.7857,-2.4056,2.7100
11506,11.0,-0.002188,-0.002409,-0.315437,-0.003706,-0.009752,0.007953,-4.2644,-1.6910,-0.0224,0.00008748,-0.00001607,-0.13171054,-0.00536687,0.00470518,-0.00154576,-0.1744,0.7488,-9.7163,0.072719,-0.012378,0.008139,26.8960,17.5756,32.8640,-3.4878,0.3160,120,0,0,-0.004879,-0.002599,-0.315988,0.003748,0.018352,0.002617,-1.6171,-2.4314,2.8334
11517,11.0,-0.002291,-0.002398,-0.315347,-0.004591,-0.008265,0.008410,-4.1805,-1.6524,0.0080,0.00007626,-0.00001796,-0.13171075,-0.00504678,0.00425606,-0.00158351,-0.2848,0.6499,-9.7458,0.025033,0.018407,0.015268,26.8960,17.5756,32.8640,-3.4878,0.3160,116,0,0,-0.004867,-0.002486,-0.315657,0.004998,0.020717,0.006810,-1.5316,-2.4279,2.8620
11528,11.0,-0.002394,-0.002419,-0.315077,-0.006048,-0.008508,0.010159,-4.1649,-1.6175,0.0032,0.00007367,-0.00001952,-0.13171087,-0.00484619,0.00396647,-0.00312932,-0.3547,0.5896,-9.8208,-0.010014,0.023688,-0.004310,26.8960,17.5756,32.8640,-3.4508,0.3160,119,0,0,-0.005032,-0.002408,-0.315513,0.003445,0.022382,0.007564,-1.3613,-2.4175,3.0425
11539,11.0,-0.002488,-0.002476,-0.314975,-0.006875,-0.008099,0.008407,-4.1782,-1.6392,0.0211,0.00007206,-0.00000606,-0.13171118,-0.00439557,0.00378196,-0.00315370,-0.3993,0.7132,-9.9403,-0.035106,0.022544,-0.012760,27.6863,16.1347,33.6915,-3.4508,0.3160,112,0,0,-0.005122,-0.002411,-0.315502,0.002158,0.022868,0.006519,-1.2730,-2.4186,3.1397
11550,11.0,-0.002665,-0.002528,-0.314806,-0.009302,-0.006077,0.007783,-4.1891,-1.5800,0.0161,0.00007094,-0.00000998,-0.13171180,-0.00393431,0.00369891,-0.00402223,-0.3767,0.8741,-9.9221,-0.026031,0.042488,-0.008533,27.6863,16.1347,33.6915,-3.4508,0.3160,108,0,0,-0.005193,-0.002424,-0.315446,0.000968,0.023223,0.005148,-1.2641,-2.4211,3.2021
11561,11.0,-0.002884,-0.002492,-0.314883,-0.011088,-0.003453,0.005917,-4.2345,-1.5275,0.0107,0.00009758,-0.00001118,-0.13171236,-0.00320782,0.00236438,-0.00255761,-0.2941,0.9591,-9.7586,0.027199,0.042008,-0.005185,27.6863,16.1347,33.6915,-3.4508,0.3160,115,0,0,-0.005488,-0.002452,-0.315280,-0.002524,0.027465,0.004137,-1.1944,-2.3924,3.3587
11572,11.0,-0.003033,-0.002383,-0.314754,-0.011719,0.001265,0.006493,-4.1402,-1.5058,-0.0054,0.00009124,-0.00001241,-0.13171217,-0.00309526,0.00174693,-0.00328314,-0.2888,0.9781,-9.7846,0.100915,0.015383,-0.000815,27.6863,16.1347,33.6915,-3.4508,0.3150,112,0,0,-0.005678,-0.002420,-0.315237,-0.003996,0.031422,0.004595,-1.0819,-2.3823,3.4668
11583,11.0,-0.003183,-0.002236,-0.314693,-0.012199,0.003655,0.004612,-4.0836,-1.5017,-0.0042,0.00010325,-0.00000652,-0.13171194,-0.00282076,0.00064761,-0.00337130,-0.3061,0.8317,-9.9457,0.110843,0.013349,0.011162,27.6863,16.1347,33.6915,-3.4508,0.3150,117,0,0,-0.005984,-0.002158,-0.314720,-0.005397,0.038817,0.008083,-0.8580,-2.3752,3.2576
11594,11.0,-0.003481,-0.002160,-0.314301,-0.015021,0.004101,0.009359,-4.0418,-1.4225,0.0294,0.00010113,-0.00001555,-0.13171336,-0.00213398,0.00071620,-0.00684122,-0.2998,0.6856,-9.7203,0.056419,0.055769,0.021600,27.6863,16.1347,33.6915,-3.4297,0.3150,110,0,0,-0.006150,-0.002025,-0.314564,-0.006144,0.040393,0.007969,-0.7906,-2.3645,3.3249
11605,11.0,-0.003810,-0.002548,-0.314185,-0.017245,-0.002666,0.011861,-4.0668,-1.3342,0.0670,0.00010998,-0.00002862,-0.13171656,-0.00143380,0.00324647,-0.00669310,-0.2110,0.5782,-9.5699,0.063140,0.060607,0.005595,27.6863,16.1347,33.6915,-3.4297,0.3160,114,0,-1,-0.006419,-0.001942,-0.314482,-0.008112,0.041501,0.008698,-0.6670,-2.3446,3.4531
11616,11.0,-0.003974,-0.002472,-0.313963,-0.016393,-0.001691,0.015225,-4.0063,-1.3206,-0.0120,0.00010303,-0.00002717,-0.13171595,-0.00156333,0.00277336,-0.00753970,-0.1783,0.6302,-9.5759,0.063067,0.021094,-0.006185,27.6863,16.1347,33.6915,-3.4297,0.3160,104,0,0,-0.006904,-0.002631,-0.315121,-0.009307,0.031622,0.004526,-0.5396,-2.2918,3.6637
11627,11.0,-0.004069,-0.002893,-0.314543,-0.014176,-0.006986,0.008831,-4.0722,-1.2828,-0.0231,0.00013698,-0.00004852,-0.13171567,-0.00234280,0.00402993,0.00034820,-0.0556,0.7284,-9.5432,0.041561,0.010442,-0.000543,27.6863,16.1347,33.6915,-3.4297,0.3160,107,0,-1,-0.007041,-0.002535,-0.315066,-0.008414,0.033060,0.006936,-0.4632,-2.2791,3.6940
11638,11.0,-0.004115,-0.002868,-0.314378,-0.010989,-0.005410,0.011198,-4.0359,-1.2970,-0.0224,0.00012971,-0.00004135,-0.13171436,-0.00282796,0.00359146,-0.00028687,-0.0582,0.7042,-9.6369,0.030221,-0.000872,0.000348,27.6863,16.1347,33.6915,-3.4297,0.3130,101,0,0,-0.007108,-0.002915,-0.314886,-0.005667,0.030248,0.010758,-0.3768,-2.3014,3.7889
11649,11.0,-0.004028,-0.002927,-0.314259,-0.007709,-0.005808,0.010506,-4.0485,-1.3284,-0.0413,0.00011949,-0.00003479,-0.13171200,-0.00399251,0.00381443,-0.00023652,-0.1719,0.6360,-9.8520,-0.039017,-0.018494,0.016888,26.5089,15.7521,34.1743,-3.4297,0.3130,107,0,0,-0.007113,-0.002834,-0.313278,0.000019,0.034754,0.027579,-0.2281,-2.3330,3.8694
11660,11.0,-0.003734,-0.003034,-0.312983,-0.002855,-0.008235,0.020282,-4.1076,-1.4271,-0.0580,0.00012170,-0.00000344,-0.13170807,-0.00605071,0.00484920,-0.01189806,-0.2845,0.5414,-10.1905,-0.084250,-0.058212,0.019193,26.5089,15.7521,34.1743,-3.4297,0.3130,107,0,0,-0.006996,-0.002842,-0.312930,0.002827,0.034987,0.027942,-0.2209,-2.3599,3.8969
11671,11.0,-0.003437,-0.003139,-0.312796,0.000922,-0.009895,0.013565,-4.1597,-1.5150,-0.0468,0.00012222,0.00002642,-0.13170461,-0.00753269,0.00488890,-0.01185560,-0.3433,0.6071,-10.4110,-0.078276,-0.056978,0.010751,26.5089,15.7521,34.1743,-3.5037,0.3150,107,0,0,-0.006732,-0.002890,-0.312666,0.006827,0.034761,0.025010,-0.1765,-2.4362,3.9734
11682,11.0,-0.003863,-0.003173,-0.312581,-0.005184,-0.007996,0.007829,-4.1577,-1.4390,0.0593,0.00011537,-0.00001616,-0.13170931,-0.00567731,0.00463697,-0.01296726,-0.2878,0.8478,-10.4224,-0.010794,-0.007860,-0.007839,26.5089,15.7521,34.1743,-3.5037,0.3150,105,-1,0,-0.006665,-0.003006,-0.313712,0.007144,0.035838,-0.000737,-0.0728,-2.5294,3.8284
11693,11.0,-0.004012,-0.003157,-0.313387,-0.006125,-0.004407,-0.008215,-4.1253,-1.3999,0.0102,0.00010570,-0.00002628,-0.13171017,-0.00508202,0.00365159,-0.00480906,-0.2317,0.9655,-10.3060,0.030891,0.027354,-0.007083,26.5089,15.7521,34.1743,-3.5037,0.3150,105,0,0,-0.006610,-0.003006,-0.313750,0.008040,0.039038,-0.006729,0.0104,-2.5638,3.9112
11704,11.0,-0.004248,-0.003105,-0.313410,-0.007933,-0.001093,-0.009535,-4.0797,-1.3377,0.0231,0.00009576,-0.00004545,-0.13171217,-0.00440463,0.00333001,-0.00562884,-0.1993,0.9152,-9.9827,0.053878,0.043497,0.014915,26.5089,15.7521,34.1743,-3.5037,0.3140,113,0,0,-0.006880,-0.002926,-0.313744,0.005881,0.047599,-0.012957,0.2275,-2.5602,4.1113
11715,11.0,-0.004468,-0.002988,-0.313518,-0.008974,0.001433,-0.009989,-4.0291,-1.2713,-0.0106,0.00011005,-0.00008074,-0.13171287,-0.00424294,0.00219604,-0.00571637,-0.1312,0.8215,-9.8231,0.093539,0.034039,0.027550,26.5089,15.7521,34.1743,-3.5037,0.3140,120,0,0,-0.007090,-0.002852,-0.313798,0.004324,0.051617,-0.013452,0.3493,-2.5474,4.2297
11726,11.0,-0.005227,-0.002851,-0.313317,-0.017920,0.002614,-0.006101,-3.9469,-1.1345,0.0960,0.00009512,-0.00015927,-0.13172184,-0.00169376,0.00186123,-0.00865396,-0.2213,0.6473,-9.7729,0.106405,0.047483,0.028785,26.5089,15.7521,34.1743,-3.5037,0.3140,116,-1,0,-0.007988,-0.002607,-0.314071,-0.003935,0.055821,-0.012828,0.5541,-2.4643,4.4339
11737,11.0,-0.006011,-0.002720,-0.313387,-0.026119,0.003232,-0.006748,-3.8574,-1.0216,0.0975,0.00006524,-0.00021702,-0.13173023,0.00088649,0.00174708,-0.00871993,-0.2451,0.5879,-9.8574,0.101518,0.050116,0.031039,26.5089,15.7521,34.1743,-3.5037,0.3140,116,-1,0,-0.008704,-0.002486,-0.313837,-0.011145,0.056257,-0.008702,0.6356,-2.4028,4.5296
11747,10.0,-0.006342,-0.002711,-0.313373,-0.027093,0.000948,-0.007568,-3.8619,-0.9640,0.0094,0.00006681,-0.00022588,-0.13173123,0.00113971,0.00185666,-0.00957228,-0.1818,0.4638,-10.0035,-0.001950,0.072444,0.031821,26.1084,16.8477,34.1282,-3.4772,0.3140,117,0,0,-0.009001,-0.002375,-0.313931,-0.012165,0.056012,-0.009882,0.7661,-2.3891,4.6470
11758,11.0,-0.006917,-0.002864,-0.313332,-0.030676,-0.002725,-0.004804,-3.9243,-0.8329,0.0536,0.00003428,-0.00025981,-0.13173600,0.00221531,0.00362398,-0.01050383,-0.1559,0.4465,-9.6849,-0.123372,0.139491,0.031497,26.1084,16.8477,34.1282,-3.4772,0.3140,119,0,0,-0.009755,-0.002426,-0.314052,-0.015460,0.052107,-0.010417,0.8303,-2.2865,4.8308
11770,12.0,-0.007488,-0.003039,-0.313291,-0.032696,-0.006343,0.000310,-4.0376,-0.7083,0.0245,0.00005186,-0.00028781,-0.13173907,0.00300107,0.00418092,-0.01114892,-0.0767,0.4918,-9.4580,-0.139072,0.131912,0.017776,26.1084,16.8477,34.1282,-3.4772,0.3130,116,0,0,-0.010282,-0.002581,-0.313305,-0.018401,0.048739,0.001043,0.7794,-2.1845,4.8904
11781,11.0,-0.007776,-0.003156,-0.313267,-0.031135,-0.008339,0.004009,-4.1007,-0.6687,-0.0056,0.00005747,-0.00027810,-0.13173833,0.00273812,0.00433873,-0.01113417,-0.0537,0.5370,-9.4709,-0.090680,0.066252,0.011287,26.1084,16.8477,34.1282,-3.4772,0.3130,120,0,0,-0.010763,-0.002751,-0.313201,-0.019929,0.046587,0.005586,0.7773,-2.1182,4.9940
11792,11.0,-0.007332,-0.002755,-0.312577,-0.020981,-0.002792,0.013147,-4.0739,-0.7573,-0.0770,-0.00001575,-0.00016209,-0.13172685,-0.00029222,0.00282511,-0.01662240,-0.1137,0.6153,-9.6556,-0.049320,0.002560,0.004714,26.1084,16.8477,34.1282,-3.4772,0.3130,115,1,1,-0.010792,-0.002448,-0.312897,-0.011499,0.052167,0.013811,0.8839,-2.1187,4.9043
11803,11.0,-0.007273,-0.001907,-0.312426,-0.016835,0.007605,0.014271,-4.0048,-0.7823,-0.0377,-0.00017964,-0.00013349,-0.13172066,-0.00162691,0.00005917,-0.01676572,-0.0745,0.5801,-9.7062,-0.077382,-0.009531,0.014763,26.1084,16.8477,34.1282,-3.4772,0.3140,119,0,2,-0.010807,-0.002023,-0.312753,-0.008936,0.057313,0.015636,0.8961,-2.1303,4.9213
11814,11.0,-0.007259,-0.000993,-0.312148,-0.013766,0.016349,0.018058,-3.9403,-0.8008,-0.0198,-0.00031052,-0.00010313,-0.13171616,-0.00235847,-0.00305545,-0.01788420,-0.0813,0.4898,-9.5895,-0.044176,-0.003150,-0.001486,26.1084,16.8477,34.1282,-3.5142,0.3140,119,0,2,-0.010811,-0.001179,-0.313332,-0.005940,0.067421,0.009236,0.9838,-2.1723,5.0040
11825,11.0,-0.007086,-0.000981,-0.312652,-0.009933,0.013498,0.010792,-3.9490,-0.8611,-0.0102,-0.00031390,-0.00004404,-0.13171285,-0.00333374,-0.00227322,-0.01194432,-0.1712,0.5687,-9.7099,-0.010086,-0.042354,-0.011565,26.1084,16.8477,34.1282,-3.5142,0.3140,116,0,0,-0.010761,-0.000248,-0.312999,-0.000762,0.073761,0.014930,1.0880,-2.2241,5.0847
11836,11.0,-0.006719,-0.000970,-0.312461,-0.004843,0.009837,0.010007,-3.9718,-0.9600,-0.0315,-0.00029311,0.00003552,-0.13170700,-0.00508875,-0.00175130,-0.01258676,-0.2443,0.4958,-9.9721,-0.013745,-0.084112,-0.007429,26.8987,17.5681,33.7145,-3.5142,0.3120,117,0,0,-0.010592,-0.000180,-0.312140,0.002477,0.072009,0.024232,1.0982,-2.2640,5.0916
11847,11.0,-0.006347,-0.001023,-0.312358,0.000159,0.006818,0.008780,-4.0068,-1.0522,-0.0105,-0.00030068,0.00011801,-0.13170251,-0.00645577,-0.00055117,-0.01248554,-0.2118,0.5632,-9.9167,-0.054915,-0.078069,-0.004774,26.8987,17.5681,33.7145,-3.5142,0.3120,117,0,0,-0.009876,-0.000044,-0.311677,0.011746,0.069108,0.022048,1.1727,-2.4316,5.1676
11858,11.0,-0.006033,-0.001091,-0.311594,0.004260,0.004438,0.017085,-4.0640,-1.1170,-0.0194,-0.00027497,0.00017252,-0.13169868,-0.00763716,0.00029789,-0.01777496,-0.1677,0.6265,-9.7597,-0.065083,-0.062071,0.004040,26.8987,17.5681,33.7145,-3.5142,0.3120,115,0,0,-0.009511,-0.000028,-0.311331,0.016031,0.068284,0.023022,1.2188,-2.5182,5.2359
11869,11.0,-0.005795,-0.000703,-0.311396,0.007218,0.008435,0.018948,-4.0742,-1.1469,-0.0287,-0.00034945,0.00018639,-0.13169423,-0.00862960,-0.00067800,-0.01781994,-0.1268,0.6529,-9.6352,-0.075516,-0.041460,0.008206,26.8987,17.5681,33.7145,-3.5142,0.3140,119,0,1,-0.009196,-0.000019,-0.311101,0.019394,0.067169,0.023772,1.1921,-2.5647,5.2504
11880,11.0,-0.005564,-0.000272,-0.311064,0.009687,0.012897,0.023338,-4.0735,-1.1821,-0.0147,-0.00041078,0.00021329,-0.13169071,-0.00915165,-0.00183149,-0.01876304,-0.1415,0.7034,-9.5197,-0.045674,-0.043462,0.011490,26.8987,17.5681,33.7145,-3.5142,0.3140,117,0,1,-0.008801,0.000861,-0.312448,0.023181,0.076631,0.010429,1.2506,-2.6278,5.1165
11891,11.0,-0.005765,0.000192,-0.310984,0.005380,0.016973,0.022572,-4.0612,-1.1897,0.0334,-0.00047127,0.00017517,-0.13169500,-0.00775925,-0.00307981,-0.01741500,-0.2699,0.6966,-9.6713,-0.023831,-0.055099,0.013518,26.8987,17.5681,33.7145,-3.5512,0.3120,113,-1,1,-0.009012,0.001296,-0.312329,0.019467,0.081280,0.013503,1.3293,-2.6672,5.2098
11902,11.0,-0.006014,0.000181,-0.310653,0.000155,0.013761,0.022035,-4.0998,-1.1837,0.0293,-0.00043391,0.00011754,-0.13170117,-0.00675444,-0.00236562,-0.01812945,-0.3544,0.6257,-9.9543,-0.031143,-0.043453,0.004387,26.8987,17.5681,33.7145,-3.5512,0.3120,112,-1,0,-0.009427,0.001767,-0.311575,0.011826,0.083226,0.019725,1.3952,-2.7292,5.3513
11913,11.0,-0.006015,0.000133,-0.310422,-0.000993,0.010546,0.019942,-4.1427,-1.1884,0.0410,-0.00042158,0.00016172,-0.13170391,-0.00608856,-0.00126041,-0.01806679,-0.3452,0.6219,-9.9945,-0.054968,0.008727,0.001048,26.8987,17.5681,33.7145,-3.5512,0.3120,112,0,0,-0.009694,0.001770,-0.311273,0.007543,0.080735,0.019610,1.3785,-2.7462,5.4101
11924,11.0,-0.006182,0.000053,-0.310630,-0.003608,0.007405,0.013323,-4.2092,-1.1384,0.0193,-0.00038319,0.00013116,-0.13170794,-0.00554696,-0.00080494,-0.01481770,-0.2824,0.6451,-9.9566,-0.078511,0.049354,-0.009924,26.8987,17.5681,33.7145,-3.5512,0.3120,112,0,0,-0.009696,0.001760,-0.311086,0.007077,0.079094,0.018143,1.4185,-2.7643,5.5032
11935,11.0,-0.006455,-0.000050,-0.310485,-0.006786,0.005067,0.013013,-4.2797,-1.0723,0.0397,-0.00035185,0.00010047,-0.13171427,-0.00452052,-0.00007728,-0.01478530,-0.2413,0.7085,-9.8248,-0.089523,0.073369,-0.003764,26.8987,17.5681,33.7145,-3.5512,0.3140,112,0,0,-0.009800,0.001729,-0.310916,0.005790,0.076796,0.016812,1.3797,-2.7452,5.5522
11946,11.0,-0.006738,-0.000113,-0.310209,-0.009107,0.003903,0.016836,-4.3253,-1.0052,0.0234,-0.00032607,0.00005609,-0.13171932,-0.00386085,0.00038257,-0.01570541,-0.1646,0.7429,-9.5802,-0.054541,0.068834,0.002220,27.6863,17.2154,34.1052,-3.5512,0.3140,117,0,0,-0.010315,0.002031,-0.312478,0.001115,0.079105,-0.000867,1.3675,-2.6644,5.6942
11957,11.0,-0.006850,-0.000129,-0.311684,-0.008938,0.003421,-0.000766,-4.3395,-0.9797,-0.0039,-0.00031441,0.00004522,-0.13171950,-0.00373250,-0.00023415,-0.00313850,-0.1388,0.7451,-9.6036,-0.015437,0.024114,0.004341,27.6863,17.2154,34.1052,-3.5512,0.3140,113,0,0,-0.010566,0.001985,-0.312345,-0.000268,0.078444,0.003176,1.4056,-2.6402,5.7986
11968,11.0,-0.006816,-0.000089,-0.311595,-0.008149,0.002287,0.001341,-4.3255,-0.9920,-0.0132,-0.00031628,0.00007531,-0.13171653,-0.00418574,-0.00021048,-0.00384610,-0.2478,0.6227,-9.7020,0.023438,-0.013089,0.012529,27.6863,17.2154,34.1052,-3.5512,0.3120,113,0,0,-0.010733,0.002054,-0.311829,0.001083,0.078077,0.012122,1.4703,-2.6387,5.9300
11979,11.0,-0.006733,-0.000039,-0.311585,-0.006730,0.000855,0.000520,-4.2829,-1.0227,0.0096,-0.00038579,0.00014024,-0.13171393,-0.00439831,0.00062471,-0.00378545,-0.2492,0.5496,-9.8720,0.033887,-0.025877,0.008694,27.6863,17.2154,34.1052,-3.5512,0.3120,112,0,0,-0.010689,0.002150,-0.311606,0.002378,0.077345,0.014454,1.4967,-2.6584,5.9751
11990,11.0,-0.006678,0.000013,-0.311242,-0.006178,-0.000601,0.002790,-4.2596,-1.0387,-0.0130,-0.00039786,0.00017117,-0.13171074,-0.00487404,0.00062408,-0.00633917,-0.2793,0.5554,-9.9617,0.032910,-0.018403,-0.004858,27.6863,17.2154,34.1052,-3.5512,0.3120,116,0,0,-0.010615,0.002250,-0.311463,0.004171,0.077144,0.014308,1.6059,-2.6839,5.7463
12001,11.0,-0.006644,0.000007,-0.311219,-0.005321,-0.002001,0.001432,-4.2487,-1.0505,0.0096,-0.00045060,0.00021169,-0.13170947,-0.00498780,0.00135432,-0.00628707,-0.2259,0.5802,-9.9216,-0.006501,-0.008392,-0.008856,27.6863,17.2154,34.1052,-3.5512,0.3140,114,0,0,-0.010500,0.002438,-0.312514,0.006377,0.076165,-0.002470,1.7238,-2.7449,5.8773
12012,11.0,-0.006521,-0.000043,-0.311081,-0.003443,-0.002779,0.003247,-4.2758,-1.0728,-0.0141,-0.00044438,0.00025580,-0.13170573,-0.00558075,0.00150465,-0.00717104,-0.2121,0.6821,-9.7583,-0.038335,-0.023364,-0.004863,27.6863,17.2154,34.1052,-3.5512,0.3140,112,0,0,-0.010448,0.002487,-0.312544,0.007495,0.075477,-0.003128,1.7266,-2.7563,5.9134
12023,11.0,-0.006275,-0.000067,-0.312152,0.000787,-0.002298,-0.009139,-4.2883,-1.1125,-0.0476,-0.00043467,0.00029214,-0.13169789,-0.00673594,0.00078533,0.00083181,-0.0928,0.7702,-9.7243,-0.014201,-0.054436,0.002907,27.6863,17.2154,34.1052,-3.5512,0.3140,116,0,0,-0.010159,0.002542,-0.312461,0.011807,0.076291,0.000088,1.7659,-2.8254,6.0273
12034,11.0,-0.006015,-0.000078,-0.312156,0.004387,-0.000973,-0.007241,-4.2908,-1.1601,-0.0248,-0.00043637,0.00035401,-0.13169172,-0.00750510,0.00082272,0.00015819,-0.1356,0.8414,-9.7027,-0.002359,-0.058197,0.014231,25.7079,16.5023,33.2548,-3.5512,0.3130,120,0,0,-0.009921,0.002596,-0.312369,0.015676,0.078334,0.002368,1.8362,-2.8907,6.1107
12045,11.0,-0.005761,-0.000097,-0.312233,0.006711,-0.000463,-0.006884,-4.3072,-1.2025,-0.0227,-0.00041089,0.00041170,-0.13168636,-0.00805481,0.00054816,0.00014735,-0.2182,0.7988,-9.7428,-0.012333,-0.053638,0.027906,25.7079,16.5023,33.2548,-3.5512,0.3130,116,0,0,-0.009670,0.002673,-0.312342,0.018772,0.080033,0.003826,1.8261,-2.9239,6.1331
12057,12.0,-0.006532,-0.000113,-0.312104,-0.003411,0.000127,-0.004027,-4.3182,-1.1624,0.0966,-0.00040610,0.00019012,-0.13170981,-0.00555151,0.00064642,-0.00136481,-0.2193,0.8003,-9.7416,-0.010127,-0.039287,0.020847,25.7079,16.5023,33.2548,-3.4931,0.3130,127,-2,0,-0.009199,0.002796,-0.312121,0.022842,0.082891,0.007627,1.8779,-3.0152,6.2716
12068,11.0,-0.006350,-0.000154,-0.312154,-0.001379,0.000340,-0.005137,-4.3498,-1.1995,-0.0172,-0.00036336,0.00027300,-0.13170426,-0.00588777,0.00037644,-0.00137883,-0.2681,0.8256,-9.8748,-0.030185,-0.036471,0.020758,25.7079,16.5023,33.2548,-3.4931,0.3140,125,0,0,-0.009896,0.002750,-0.312042,0.013637,0.083350,0.008766,1.9410,-3.0267,6.4229
12080,12.0,-0.006216,-0.000222,-0.312129,-0.000368,-0.000147,-0.006427,-4.3920,-1.2170,-0.0164,-0.00034319,0.00031499,-0.13170031,-0.00635587,0.00067202,-0.00207903,-0.2835,0.7918,-9.9866,-0.051832,-0.021803,0.022894,25.7079,16.5023,33.2548,-3.4931,0.3140,124,0,0,-0.009553,0.002796,-0.312822,0.016864,0.084973,-0.000904,1.9581,-3.0761,6.2829
12091,11.0,-0.006123,-0.000242,-0.312651,-0.000016,-0.000188,-0.014137,-4.4077,-1.2370,0.0046,-0.00032401,0.00037977,-0.13169838,-0.00611819,0.00031571,0.00090176,-0.3071,0.7905,-10.0138,-0.014638,-0.017823,0.009659,25.7079,16.5023,33.2548,-3.4931,0.3140,129,0,0,-0.009417,0.002814,-0.312843,0.017524,0.085046,-0.002260,1.9183,-3.0936,6.3397
12102,11.0,-0.006089,-0.000249,-0.312744,0.000336,0.000432,-0.015822,-4.4118,-1.2374,-0.0041,-0.00032142,0.00038949,-0.13169737,-0.00622779,0.00038748,0.00036404,-0.2280,0.8383,-10.0095,-0.003149,-0.007086,0.003794,25.7079,16.5023,33.2548,-3.4931,0.3120,127,0,0,-0.009310,0.002853,-0.312741,0.017765,0.086254,-0.002277,1.9782,-3.1300,6.4443
12113,11.0,-0.006176,-0.000257,-0.312922,-0.000653,0.000831,-0.016481,-4.4239,-1.2129,0.0099,-0.00029189,0.00036527,-0.13170032,-0.00594554,0.00009870,0.00033896,-0.2129,0.8202,-9.8335,-0.005376,0.020105,0.004231,25.7079,16.5023,33.2548,-3.4772,0.3120,127,0,0,-0.009256,0.002958,-0.311782,0.017647,0.088679,0.005320,2.0334,-3.1525,6.5994
12125,12.0,-0.006196,-0.000249,-0.311887,-0.000928,0.001776,-0.002072,-4.4207,-1.2027,0.0023,-0.00029030,0.00036089,-0.13170089,-0.00609256,0.00076079,-0.00792454,-0.2251,0.8428,-9.7676,0.007605,0.003091,0.007260,25.7079,16.5023,33.2548,-3.4772,0.3120,130,0,0,-0.009321,0.003004,-0.311734,0.016508,0.089122,0.005392,2.0136,-3.1305,6.6548
12136,11.0,-0.006123,-0.000212,-0.311909,-0.000045,0.002433,-0.002031,-4.4084,-1.2157,-0.0125,-0.00027411,0.00039105,-0.13169785,-0.00624467,0.00045405,-0.00794409,-0.2217,0.8058,-9.7788,0.028219,-0.020215,0.005014,25.7079,16.5023,33.2548,-3.4772,0.3140,130,0,0,-0.009352,0.003047,-0.311678,0.015832,0.090540,0.006314,2.0788,-3.1438,6.7678
12147,11.0,-0.006017,-0.000194,-0.311840,0.000835,0.002963,-0.001309,-4.4023,-1.2314,-0.0148,-0.00027041,0.00042331,-0.13169415,-0.00655208,0.00055381,-0.00857621,-0.2496,0.8185,-9.8181,0.013399,-0.024798,0.012808,25.7105,15.0541,34.1052,-3.4772,0.3140,120,0,0,-0.009206,0.003242,-0.312614,0.017004,0.092857,-0.002794,2.1555,-3.1863,6.9206
12158,11.0,-0.005957,-0.000202,-0.312485,0.000904,0.002464,-0.009051,-4.4123,-1.2402,0.0063,-0.00025772,0.00046568,-0.13169350,-0.00630901,0.00034220,-0.00442220,-0.2750,0.7531,-9.8221,-0.009003,-0.011231,0.014594,25.7105,15.0541,34.1052,-3.4772,0.3140,117,0,0,-0.009017,0.003400,-0.312563,0.017952,0.094284,-0.000719,2.2092,-3.2332,7.0826
12169,11.0,-0.005862,-0.000252,-0.312516,0.001557,0.001898,-0.008780,-4.4432,-1.2478,-0.0090,-0.00023401,0.00049229,-0.13169120,-0.00655770,0.00061855,-0.00488474,-0.2518,0.7886,-9.8341,-0.039322,-0.014745,0.016604,25.7105,15.0541,34.1052,-3.4772,0.3110,118,0,0,-0.008938,0.003454,-0.311200,0.017934,0.093839,0.014806,2.1899,-3.2412,7.1387
12180,11.0,-0.005804,-0.000339,-0.312612,0.001627,0.001261,-0.008592,-4.4989,-1.2489,0.0052,-0.00017684,0.00052656,-0.13169131,-0.00643789,0.00066450,-0.00488108,-0.2637,0.8230,-9.7600,-0.067791,-0.002296,0.018930,25.7105,15.0541,34.1052,-3.4772,0.3110,113,0,0,-0.008841,0.003469,-0.310976,0.018502,0.094250,0.016127,2.2264,-3.2726,7.2531
12191,11.0,-0.005719,-0.000411,-0.311165,0.001610,0.000362,0.010080,-4.5405,-1.2510,-0.0058,-0.00015263,0.00054732,-0.13168974,-0.00686134,0.00174530,-0.01485371,-0.2942,0.7722,-9.7231,-0.056752,-0.009191,0.023530,25.7105,15.0541,34.1052,-3.3610,0.3110,117,0,0,-0.008682,0.003448,-0.310580,0.018597,0.093764,0.019251,2.2056,-3.2670,7.0166
12203,12.0,-0.005531,-0.000419,-0.311042,0.003026,-0.000170,0.010307,-4.5453,-1.2843,-0.0106,-0.00016577,0.00062507,-0.13168441,-0.00706537,0.00198267,-0.01483286,-0.2725,0.7385,-9.7748,-0.008158,-0.038731,0.017764,25.7105,15.0541,34.1052,-3.3610,0.3140,116,0,0,-0.008567,0.003469,-0.312113,0.018826,0.092845,0.001444,2.1481,-3.2749,7.0946
12214,11.0,-0.005352,-0.000376,-0.310882,0.004256,-0.000001,0.010348,-4.5241,-1.3133,-0.0222,-0.00018127,0.00067283,-0.13167831,-0.00745203,0.00188786,-0.01516646,-0.2708,0.7490,-9.8443,0.032215,-0.042439,0.007207,25.7105,15.0541,34.1052,-3.3610,0.3140,116,0,0,-0.008391,0.003531,-0.312095,0.020016,0.093308,0.002421,2.2027,-3.3224,7.2058
12225,11.0,-0.005322,-0.000357,-0.310869,0.003687,-0.000270,0.009389,-4.5122,-1.3146,0.0129,-0.00020981,0.00068906,-0.13167949,-0.00717955,0.00201602,-0.01451303,-0.2732,0.7219,-9.7744,0.013404,-0.007233,-0.000250,25.7105,15.0541,34.1052,-3.3610,0.3120,114,0,0,-0.008092,0.003745,-0.311992,0.021479,0.094513,0.003568,2.2780,-3.3886,7.3699
12236,11.0,-0.005294,-0.000328,-0.310719,0.003156,-0.001278,0.011379,-4.5007,-1.3127,-0.0005,-0.00022307,0.00068528,-0.13167939,-0.00715208,0.00192158,-0.01477065,-0.2658,0.6300,-9.6623,0.017702,-0.007178,-0.005209,27.2911,16.4949,33.6915,-3.3610,0.3120,109,0,0,-0.008056,0.003830,-0.311480,0.020762,0.094251,0.009844,2.2732,-3.3866,7.4294
12247,11.0,-0.005629,-0.000321,-0.310589,-0.001614,-0.002173,0.012244,-4.4894,-1.3117,0.0613,-0.00028593,0.00059109,-0.13169374,-0.00592148,0.00242440,-0.01476165,-0.2905,0.6452,-9.7218,0.003068,-0.033155,-0.004925,27.2911,16.4949,33.6915,-3.3610,0.3120,108,-1,0,-0.008396,0.003946,-0.311250,0.015096,0.092884,0.013959,2.3404,-3.3954,7.6149
12258,11.0,-0.005428,-0.000355,-0.311245,0.001008,-0.003073,0.003689,-4.5080,-1.3434,-0.0253,-0.00028401,0.00066581,-0.13168585,-0.00635770,0.00205022,-0.00978378,-0.2158,0.6879,-9.7316,-0.026291,-0.040726,0.002930,27.2911,16.4949,33.6915,-3.3610,0.3130,109,0,0,-0.008676,0.003964,-0.311043,0.011509,0.092459,0.016135,2.3999,-3.4254,7.7363
12270,12.0,-0.005255,-0.000424,-0.311199,0.002417,-0.003153,0.003932,-4.5462,-1.3694,-0.0105,-0.00026229,0.00074160,-0.13168085,-0.00657635,0.00204627,-0.00977838,-0.2773,0.7991,-9.7634,-0.047509,-0.030040,0.005933,27.2911,16.4949,33.6915,-3.4191,0.3130,112,0,0,-0.008481,0.004025,-0.311652,0.014173,0.092091,0.008916,2.3663,-3.4473,7.7837
12282,12.0,-0.005106,-0.000511,-0.311088,0.003140,-0.003271,0.003139,-4.5913,-1.3837,-0.0125,-0.00024455,0.00078483,-0.13167681,-0.00690927,0.00223736,-0.01022840,-0.3019,0.8281,-9.9215,-0.058894,-0.022068,0.016295,27.2911,16.4949,33.6915,-3.4191,0.3130,108,0,0,-0.008155,0.004067,-0.311394,0.017241,0.093459,0.011584,2.3619,-3.4783,7.5500
12294,12.0,-0.004941,-0.000591,-0.310964,0.003948,-0.003711,0.002129,-4.6351,-1.4057,-0.0011,-0.00022426,0.00086297,-0.13167340,-0.00693221,0.00233937,-0.01082282,-0.3101,0.8047,-9.9630,-0.055838,-0.025531,0.019643,27.2911,16.4949,33.6915,-3.4191,0.3120,105,0,0,-0.008006,0.004066,-0.311282,0.018184,0.094446,0.011212,2.3825,-3.5157,7.6642
12305,11.0,-0.004790,-0.000609,-0.310894,0.003865,-0.003303,0.001076,-4.6426,-1.4232,-0.0156,-0.00023196,0.00090407,-0.13166846,-0.00722232,0.00231931,-0.01116772,-0.3779,0.8219,-9.9372,-0.010433,-0.028963,0.017565,27.2911,16.4949,33.6915,-3.4191,0.3120,114,0,0,-0.007698,0.004105,-0.311013,0.019465,0.095598,0.010556,2.3522,-3.5699,7.8541
12316,11.0,-0.004652,-0.000567,-0.310894,0.003770,-0.002820,-0.001035,-4.6182,-1.4527,0.0087,-0.00027018,0.00100226,-0.13166536,-0.00685497,0.00218564,-0.01118815,-0.3805,0.7708,-9.9772,0.033522,-0.032811,0.009091,27.2911,16.4949,33.6915,-3.4191,0.3120,113,0,0,-0.007561,0.004176,-0.310845,0.019333,0.096013,0.010710,2.3200,-3.5896,7.9296
12327,11.0,-0.004565,-0.000496,-0.311415,0.003440,-0.001905,-0.008137,-4.5802,-1.4652,-0.0134,-0.00030834,0.00102155,-0.13166143,-0.00687457,0.00167253,-0.00820712,-0.3406,0.7784,-9.9014,0.055413,-0.025103,0.009410,27.2911,16.4949,33.6915,-3.4191,0.3130,112,0,0,-0.007438,0.004277,-0.310744,0.019050,0.097230,0.009907,2.3897,-3.6302,8.0480
12338,11.0,-0.004537,-0.000437,-0.311506,0.002978,-0.001353,-0.008447,-4.5476,-1.4693,0.0058,-0.00035115,0.00104027,-0.13166125,-0.00664093,0.00157795,-0.00822210,-0.2970,0.7513,-9.8136,0.045414,-0.011679,0.006536,27.6808,16.5098,34.4727,-3.3821,0.3130,115,0,0,-0.007276,0.004537,-0.311474,0.018511,0.099565,0.000597,2.4717,-3.6784,8.2439
12349,11.0,-0.005037,-0.000414,-0.311543,-0.003272,-0.001653,-0.008110,-4.5386,-1.4351,0.0609,-0.00036661,0.00084255,-0.13168222,-0.00537047,0.00144306,-0.00861785,-0.2839,0.7135,-9.8210,0.015753,-0.000267,0.007810,27.6808,16.5098,34.4727,-3.3821,0.3130,115,-1,0,-0.007246,0.004660,-0.311471,0.018032,0.099908,0.001221,2.4704,-3.6775,8.3162
12360,11.0,-0.005074,-0.000427,-0.311247,-0.004123,-0.002765,-0.004573,-4.5388,-1.4294,0.0245,-0.00042516,0.00088971,-0.13168439,-0.00502452,0.00214776,-0.01090521,-0.3425,0.6624,-9.8859,-0.012235,0.009767,0.006083,27.6808,16.5098,34.4727,-3.3821,0.3120,117,0,0,-0.007693,0.004757,-0.311368,0.012099,0.099022,0.002680,2.5121,-3.6724,8.5443
12371,11.0,-0.005662,-0.000487,-0.311257,-0.010907,-0.004159,-0.004752,-4.5724,-1.3776,0.0607,-0.00041630,0.00068492,-0.13170634,-0.00374604,0.00218055,-0.01120183,-0.3178,0.6819,-9.8579,-0.047321,0.027540,0.008020,27.6808,16.5098,34.4727,-3.3821,0.3120,122,-1,0,-0.008161,0.004723,-0.311156,0.006327,0.097807,0.004647,2.5495,-3.6669,8.6930
12382,11.0,-0.005815,-0.000534,-0.311313,-0.011622,-0.004648,-0.005437,-4.5919,-1.3503,0.0148,-0.00043904,0.00069564,-0.13170870,-0.00346901,0.00239267,-0.01119292,-0.2781,0.7395,-9.8522,-0.033930,0.035946,0.002407,27.6808,16.5098,34.4727,-3.3821,0.3120,125,0,0,-0.008671,0.004656,-0.311065,0.000767,0.095620,0.005345,2.4941,-3.6292,8.7961
12393,11.0,-0.005899,-0.000063,-0.311086,-0.011568,0.001017,-0.001993,-4.5767,-1.3364,-0.0374,-0.00064120,0.00071262,-0.13169761,-0.00354311,0.00115774,-0.01298070,-0.2783,0.7703,-9.7791,-0.012396,0.017596,0.005663,27.6808,16.5098,34.4727,-3.3821,0.3120,123,0,1,-0.008909,0.004655,-0.310882,0.000857,0.095132,0.007220,2.4946,-3.5661,8.5544
12404,11.0,-0.005946,-0.000055,-0.311107,-0.010832,0.000450,-0.001756,-4.5710,-1.3312,-0.0015,-0.00066952,0.00075462,-0.13169500,-0.00364885,0.00144017,-0.01295742,-0.2488,0.7247,-9.7717,0.004271,0.006923,0.002356,27.6808,16.5098,34.4727,-3.3821,0.3120,122,0,0,-0.009051,0.005123,-0.310975,0.000511,0.100947,0.006530,2.5544,-3.5740,8.6595
12415,11.0,-0.005971,-0.000031,-0.311027,-0.009971,-0.000262,-0.000342,-4.5619,-1.3295,-0.0113,-0.00067898,0.00079195,-0.13169071,-0.00388964,0.00143060,-0.01354012,-0.2500,0.6918,-9.7750,0.014846,0.000693,-0.001669,27.6808,16.5098,34.4727,-3.4931,0.3120,122,0,0,-0.009117,0.005247,-0.310729,0.002388,0.100562,0.009872,2.5729,-3.5804,8.8336
12426,11.0,-0.005948,0.000018,-0.309890,-0.009260,-0.000599,0.012877,-4.5318,-1.3436,0.0053,-0.00074325,0.00088490,-0.13168675,-0.00405937,0.00222578,-0.02007449,-0.3126,0.6869,-9.8092,0.035296,-0.012104,-0.011817,27.6808,16.5098,34.4727,-3.4931,0.3100,123,0,0,-0.009125,0.005335,-0.310633,0.003426,0.100007,0.010914,2.5548,-3.5748,8.8909
12437,11.0,-0.005862,0.000057,-0.309674,-0.007483,-0.001070,0.013688,-4.5134,-1.3637,-0.0217,-0.00076349,0.00096101,-0.13167812,-0.00451494,0.00214476,-0.02051597,-0.2664,0.6831,-9.8120,0.027068,-0.025138,-0.014574,28.0787,16.5023,34.4958,-3.4931,0.3100,125,0,0,-0.009103,0.005439,-0.309585,0.004439,0.100536,0.022013,2.6278,-3.6047,8.9862
12448,11.0,-0.005753,0.000065,-0.309527,-0.005698,-0.001337,0.013157,-4.5066,-1.3875,-0.0104,-0.00079485,0.00105968,-0.13167082,-0.00479665,0.00231230,-0.02049770,-0.2769,0.7267,-9.8485,0.005627,-0.026621,-0.013247,28.0787,16.5023,34.4958,-3.4931,0.3100,118,0,0,-0.008948,0.005649,-0.309138,0.007965,0.101123,0.023212,2.6750,-3.6500,9.1285
12459,11.0,-0.005653,0.000042,-0.309630,-0.004001,-0.002127,0.010367,-4.5199,-1.4037,-0.0162,-0.00079375,0.00112725,-0.13166401,-0.00513908,0.00223000,-0.01908139,-0.2547,0.7043,-9.7911,-0.019062,-0.020801,-0.015878,28.0787,16.5023,34.4958,-3.4931,0.3110,116,0,0,-0.008845,0.005735,-0.308787,0.009599,0.100955,0.025047,2.6438,-3.6585,9.1740
12470,11.0,-0.005547,0.000025,-0.309515,-0.002465,-0.001898,0.010613,-4.5287,-1.4217,-0.0131,-0.00078821,0.00119843,-0.13165776,-0.00541045,0.00215328,-0.01908074,-0.2603,0.7896,-9.7716,-0.010703,-0.022819,-0.015551,28.0787,16.5023,34.4958,-3.4931,0.3110,119,0,0,-0.008740,0.005793,-0.309420,0.011290,0.101126,0.016256,2.6748,-3.6920,9.2749
12481,11.0,-0.005364,0.000020,-0.309309,-0.000582,-0.001150,0.010356,-4.5288,-1.4528,-0.0231,-0.00079340,0.00128701,-0.13164818,-0.00591717,0.00218306,-0.01963043,-0.2983,0.8405,-9.9196,0.000529,-0.040810,-0.015275,28.0787,16.5023,34.4958,-3.4931,0.3110,114,0,0,-0.008490,0.005930,-0.308992,0.014284,0.102650,0.019091,2.6960,-3.7005,8.9591
12492,11.0,-0.005723,-0.000483,-0.309052,-0.004944,-0.005455,0.009854,-4.5709,-1.4488,0.0682,-0.00051081,0.00116637,-0.13167341,-0.00497924,0.00279161,-0.02046353,-0.3019,0.9200,-9.9954,-0.010078,-0.026091,-0.001698,28.0787,16.5023,34.4958,-3.4350,0.3100,112,-1,-1,-0.008682,0.005510,-0.308813,0.011646,0.097630,0.018648,2.6305,-3.7014,9.0331
12503,11.0,-0.005736,-0.000523,-0.308894,-0.004850,-0.003794,0.009005,-4.5852,-1.4418,-0.0058,-0.00051561,0.00118459,-0.13167112,-0.00508321,0.00279277,-0.02079456,-0.2919,0.9341,-9.9245,-0.020762,0.004984,0.002591,28.0787,16.5023,34.4958,-3.4350,0.3100,112,0,0,-0.008841,0.005104,-0.308666,0.009591,0.096259,0.014880,2.5878,-3.7242,9.2179
12514,11.0,-0.006330,-0.000560,-0.308793,-0.011299,-0.002263,0.009400,-4.6129,-1.3957,0.0701,-0.00043476,0.00098069,-0.13169843,-0.00366060,0.00199161,-0.02088798,-0.2915,0.9408,-9.7470,-0.020837,0.026413,0.005989,28.0787,16.5023,34.4958,-3.4350,0.3100,110,-1,0,-0.008861,0.005116,-0.308442,0.009308,0.098586,0.015987,2.6137,-3.7343,9.3336
12525,11.0,-0.006437,-0.000580,-0.309305,-0.011649,-0.000852,0.002750,-4.6205,-1.3755,-0.0032,-0.00043404,0.00099051,-0.13169725,-0.00360573,0.00173193,-0.01750121,-0.2941,0.9172,-9.7305,-0.008614,0.022388,0.026003,28.0787,16.5023,34.4958,-3.4350,0.3110,112,0,0,-0.009379,0.005057,-0.308285,0.003186,0.098831,0.017242,2.5446,-3.6887,9.4309
12537,12.0,-0.006500,-0.000567,-0.309275,-0.011368,-0.000774,0.002351,-4.6136,-1.3706,-0.0000,-0.00045047,0.00105885,-0.13169397,-0.00350969,0.00172511,-0.01750485,-0.2970,0.7776,-9.8259,0.010690,0.007034,0.033577,27.2911,17.2154,33.2778,-3.4350,0.3110,114,0,0,-0.009537,0.005121,-0.309142,0.002528,0.101255,0.008149,2.5157,-3.6706,9.6467
12548,11.0,-0.006573,-0.000540,-0.309175,-0.011491,-0.001492,0.002641,-4.6024,-1.3590,-0.0093,-0.00046904,0.00108287,-0.13169034,-0.00363545,0.00166133,-0.01794034,-0.3073,0.6868,-9.8580,0.017872,0.011373,0.025080,27.2911,17.2154,33.2778,-3.4350,0.3110,106,0,0,-0.009577,0.005183,-0.309059,0.002863,0.102022,0.008888,2.5584,-3.6848,9.7784
12559,11.0,-0.006718,-0.000500,-0.307925,-0.012169,-0.002474,0.016744,-4.5721,-1.3385,0.0188,-0.00058416,0.00110353,-0.13169260,-0.00357193,0.00280137,-0.02444409,-0.2854,0.6216,-9.8166,0.026916,0.025751,0.013592,27.2911,17.2154,33.2778,-3.4350,0.3080,105,0,0,-0.009723,0.005334,-0.308780,0.002816,0.100999,0.010734,2.5800,-3.6759,9.9864
12570,11.0,-0.006828,-0.000468,-0.307694,-0.012240,-0.003269,0.017930,-4.5568,-1.3225,-0.0064,-0.00061403,0.00111489,-0.13169008,-0.00362517,0.00265520,-0.02469361,-0.2645,0.6392,-9.7505,0.021938,0.018349,-0.002460,27.2911,17.2154,33.2778,-3.3821,0.3080,107,0,0,-0.009855,0.005410,-0.307636,0.002428,0.099874,0.022672,2.5681,-3.6466,10.0562
12581,11.0,-0.006836,-0.000473,-0.307497,-0.011298,-0.004491,0.017925,-4.5479,-1.3262,0.0038,-0.00071850,0.00120079,-0.13168570,-0.00371078,0.00332240,-0.02464389,-0.2796,0.6170,-9.8134,-0.005445,-0.000268,0.001271,27.2911,17.2154,33.2778,-3.3821,0.3080,106,0,0,-0.009956,0.005479,-0.307356,0.002476,0.099634,0.024651,2.6190,-3.6495,10.1667
12592,11.0,-0.006776,-0.000485,-0.307074,-0.009461,-0.004997,0.019897,-4.5522,-1.3391,-0.0201,-0.00073765,0.00128277,-0.13167633,-0.00414892,0.00333448,-0.02585345,-0.2528,0.6962,-9.8713,-0.008169,-0.014805,-0.011267,27.2911,17.2154,33.2778,-3.3821,0.3080,105,0,0,-0.009940,0.005595,-0.306782,0.004924,0.098353,0.026688,2.6373,-3.6309,9.9293
12603,11.0,-0.006738,-0.000511,-0.306861,-0.008000,-0.004355,0.018876,-4.5649,-1.3480,-0.0148,-0.00072588,0.00135831,-0.13166907,-0.00436566,0.00307620,-0.02586850,-0.2504,0.8240,-9.8916,-0.015117,-0.008782,-0.015059,27.2911,17.2154,33.2778,-3.3821,0.3110,112,0,0,-0.009878,0.005658,-0.308679,0.006440,0.098044,0.003631,2.5800,-3.6259,9.9855
12613,10.0,-0.006763,-0.000558,-0.306617,-0.007556,-0.003147,0.019876,-4.5840,-1.3398,-0.0055,-0.00072159,0.00138300,-0.13166651,-0.00449428,0.00312904,-0.02615404,-0.2513,0.9113,-9.7561,-0.030304,0.009821,-0.000959,27.2911,17.2154,33.2778,-3.3821,0.3110,112,0,0,-0.009829,0.005700,-0.308645,0.007586,0.099428,0.003689,2.6073,-3.6481,10.0793
12624,11.0,-0.006826,-0.000570,-0.308296,-0.007470,-0.001227,-0.000439,-4.5975,-1.3293,-0.0108,-0.00064284,0.00140562,-0.13166375,-0.00414349,0.00153621,-0.01622840,-0.2454,0.9456,-9.6021,-0.001114,0.012107,0.008564,27.6890,16.8477,32.8869,-3.3610,0.3110,111,0,0,-0.009860,0.005740,-0.308494,0.007424,0.102096,0.007438,2.5567,-3.6377,10.2445
12636,12.0,-0.006328,-0.000550,-0.308256,-0.001405,0.000969,0.001393,-4.5812,-1.3579,-0.0757,-0.00065288,0.00167494,-0.13163075,-0.00538999,0.00157588,-0.01639964,-0.2757,0.9379,-9.6633,0.023795,-0.010205,0.016183,27.6890,16.8477,32.8869,-3.3610,0.3080,105,1,0,-0.009894,0.005792,-0.307594,0.007146,0.103277,0.019310,2.5022,-3.6167,10.3025
12647,11.0,-0.006236,-0.000517,-0.308242,-0.000955,0.001708,0.001207,-4.5698,-1.3770,-0.0038,-0.00063092,0.00177100,-0.13162567,-0.00526791,0.00126378,-0.01642695,-0.3170,0.8377,-9.8031,0.026463,-0.024004,0.028343,27.6890,16.8477,32.8869,-3.3610,0.3080,109,0,0,-0.009395,0.006054,-0.307168,0.012147,0.106975,0.023539,2.5075,-3.6515,10.4642
12658,11.0,-0.006187,-0.000497,-0.309133,-0.001376,0.001722,-0.009483,-4.5635,-1.3811,-0.0089,-0.00063106,0.00180287,-0.13162179,-0.00527639,0.00088411,-0.01178450,-0.3471,0.7841,-9.8025,0.013434,-0.011987,0.028553,27.6890,16.8477,32.8869,-3.3610,0.3110,122,0,0,-0.009310,0.006157,-0.306871,0.012351,0.107971,0.025164,2.5514,-3.6815,10.5868
12669,11.0,-0.006183,-0.000470,-0.309240,-0.001867,0.001044,-0.009898,-4.5488,-1.3825,0.0150,-0.00067811,0.00185709,-0.13162288,-0.00500924,0.00118482,-0.01176934,-0.3156,0.7040,-9.8301,0.017132,-0.002976,0.024809,27.6890,16.8477,32.8869,-3.3610,0.3110,122,0,0,-0.009257,0.006251,-0.308678,0.011985,0.107333,0.003375,2.4949,-3.6786,10.6783
12680,11.0,-0.006206,-0.000439,-0.309304,-0.002753,0.000308,-0.009919,-4.5372,-1.3750,-0.0016,-0.00068974,0.00185836,-0.13162223,-0.00501826,0.00114628,-0.01202738,-0.3267,0.6914,-9.8479,0.019507,0.002525,0.013059,27.6890,16.8477,32.8869,-3.3610,0.3110,120,0,0,-0.009250,0.006425,-0.308562,0.010970,0.105937,0.004956,2.5218,-3.6512,10.4432
12691,11.0,-0.006226,-0.000409,-0.308070,-0.003431,-0.000222,0.004251,-4.5193,-1.3747,0.0179,-0.00074404,0.00191292,-0.13162406,-0.00487926,0.00195577,-0.01884524,-0.3261,0.7033,-9.9363,0.020267,0.001575,0.000069,27.6890,16.8477,32.8869,-3.3610,0.3080,127,0,0,-0.009278,0.006514,-0.308515,0.010202,0.105510,0.005109,2.5659,-3.6606,10.5601
12702,11.0,-0.006218,-0.000441,-0.307996,-0.003362,-0.000581,0.003095,-4.5377,-1.3706,-0.0037,-0.00073018,0.00193544,-0.13162212,-0.00498965,0.00204788,-0.01902694,-0.2859,0.7830,-9.9395,-0.024850,0.001415,0.002860,27.6890,16.8477,32.8869,-3.3610,0.3080,130,0,0,-0.009287,0.006653,-0.307472,0.009500,0.104831,0.013693,2.5592,-3.6606,10.7382
12713,11.0,-0.006244,-0.000502,-0.307960,-0.003148,-0.000988,0.003317,-4.5721,-1.3575,0.0003,-0.00069555,0.00193906,-0.13162248,-0.00502736,0.00211379,-0.01901989,-0.2300,0.7964,-9.7740,-0.046292,0.011526,0.013321,27.6890,16.8477,32.8869,-3.3081,0.3080,120,0,0,-0.009269,0.006682,-0.307315,0.009646,0.104289,0.013776,2.4848,-3.6440,10.8064
12724,11.0,-0.006249,-0.000509,-0.308451,-0.002490,-0.001019,-0.001638,-4.5768,-1.3528,-0.0038,-0.00069745,0.00195395,-0.13162068,-0.00500717,0.00188605,-0.01635573,-0.2042,0.7679,-9.6805,-0.005011,0.000467,0.013365,28.8717,17.2154,33.6915,-3.3081,0.3100,126,0,0,-0.009275,0.006687,-0.307174,0.009835,0.104190,0.015189,2.4835,-3.6491,10.9259
12735,11.0,-0.006221,-0.000467,-0.308469,-0.001942,-0.001265,-0.001532,-4.5505,-1.3575,-0.0015,-0.00077105,0.00198651,-0.13161768,-0.00508524,0.00212708,-0.01633739,-0.2433,0.6968,-9.7896,0.030834,-0.011211,0.002699,28.8717,17.2154,33.6915,-3.3081,0.3100,126,0,0,-0.009268,0.006807,-0.308202,0.010424,0.103510,0.005552,2.4477,-3.6395,11.1114
12746,11.0,-0.006231,-0.000453,-0.308458,-0.001975,-0.001455,-0.001277,-4.5438,-1.3525,-0.0026,-0.00078621,0.00199244,-0.13161643,-0.00511095,0.00206464,-0.01648638,-0.2535,0.7316,-9.8037,0.010907,0.000202,0.005216,28.8717,17.2154,33.6915,-3.3081,0.3100,120,0,0,-0.009683,0.006824,-0.308149,0.005739,0.101831,0.006469,2.4173,-3.6100,11.1915
12757,11.0,-0.006263,-0.000459,-0.307095,-0.002193,-0.001840,0.014967,-4.5440,-1.3423,0.0075,-0.00082048,0.00199427,-0.13161807,-0.00522594,0.00281911,-0.02323707,-0.2464,0.7259,-9.7793,-0.004941,0.007527,0.003390,28.8717,17.2154,33.6915,-3.3081,0.3070,116,0,0,-0.009692,0.006895,-0.308048,0.006165,0.102041,0.007739,2.4510,-3.6220,11.2960
12768,11.0,-0.006207,-0.000461,-0.306911,-0.001658,-0.002316,0.014868,-4.5463,-1.3484,-0.0088,-0.00083066,0.00203395,-0.13161331,-0.00539701,0.00278673,-0.02334409,-0.2707,0.7176,-9.8361,-0.002865,-0.012433,0.005079,28.8717,17.2154,33.6915,-3.3081,0.3070,116,0,0,-0.009720,0.006998,-0.306660,0.006921,0.101137,0.021678,2.4258,-3.6110,11.4569
12779,11.0,-0.006097,-0.000431,-0.306755,-0.000130,-0.002222,0.013473,-4.5272,-1.3667,-0.0128,-0.00088041,0.00209320,-0.13160577,-0.00567739,0.00283540,-0.02333549,-0.2292,0.7367,-9.9306,0.024091,-0.028667,0.001580,28.8717,17.2154,33.6915,-3.3081,0.3070,112,0,0,-0.009662,0.007073,-0.306419,0.007809,0.100590,0.022421,2.3774,-3.6054,11.5141
12790,11.0,-0.005986,-0.000382,-0.307313,0.001062,-0.001853,0.003171,-4.5006,-1.3862,-0.0138,-0.00091869,0.00214873,-0.13159828,-0.00580570,0.00239813,-0.01998032,-0.2501,0.7491,-10.0032,0.039034,-0.030258,-0.002134,28.8717,17.2154,33.6915,-3.3980,0.3090,118,0,0,-0.009569,0.007170,-0.306198,0.009510,0.101449,0.022366,2.4394,-3.6014,11.1364
12801,11.0,-0.005933,-0.000348,-0.307291,0.001358,-0.000906,0.000766,-4.4856,-1.3948,-0.0045,-0.00091056,0.00218609,-0.13159522,-0.00575860,0.00200445,-0.02001241,-0.2673,0.8266,-10.0114,0.029501,-0.015791,0.006922,28.8717,17.2154,33.6915,-3.3980,0.3090,111,0,0,-0.009395,0.007402,-0.307150,0.011665,0.103059,0.006635,2.4480,-3.6275,11.2872
12812,11.0,-0.005931,-0.000333,-0.307231,0.000898,-0.000179,-0.000197,-4.4773,-1.3895,0.0004,-0.00092153,0.00218041,-0.13159546,-0.00574087,0.00197462,-0.02031909,-0.2786,0.8242,-9.9465,0.014294,-0.001771,0.016266,28.8717,17.2154,33.6915,-3.3980,0.3090,113,0,0,-0.009355,0.007503,-0.307096,0.011789,0.103518,0.005467,2.4069,-3.6179,11.3456
12823,11.0,-0.005956,-0.000320,-0.307094,-0.000016,0.000207,0.000044,-4.4748,-1.3833,0.0119,-0.00090595,0.00220219,-0.13159853,-0.00542687,0.00181102,-0.02104988,-0.3025,0.8032,-9.9283,0.010440,0.004790,0.018407,28.8717,17.2154,33.6915,-3.3980,0.3080,109,0,0,-0.009341,0.007582,-0.306969,0.011605,0.104601,0.005823,2.4395,-3.6299,11.4533
12834,11.0,-0.006039,-0.000767,-0.307051,-0.001246,-0.005235,-0.000097,-4.4794,-1.3637,0.0245,-0.00068493,0.00216274,-0.13161153,-0.00533392,0.00284872,-0.02119794,-0.2731,0.7273,-9.8650,0.026063,0.015046,0.012013,26.8906,16.5098,32.4047,-3.3980,0.3080,109,0,-1,-0.009397,0.007713,-0.306954,0.009768,0.104348,0.004810,2.4093,-3.6112,11.6408
12845,11.0,-0.006159,-0.000740,-0.307053,-0.002958,-0.004341,-0.000254,-4.4616,-1.3429,0.0179,-0.00072555,0.00214878,-0.13161753,-0.00486238,0.00261380,-0.02122824,-0.2951,0.7662,-9.8117,0.025878,0.023179,0.013078,26.8906,16.5098,32.4047,-3.3980,0.3080,106,0,0,-0.009378,0.007358,-0.306912,0.009708,0.098600,0.005068,2.3495,-3.5836,11.7184
12856,11.0,-0.006316,-0.000724,-0.308057,-0.004441,-0.003633,-0.011303,-4.4501,-1.3115,0.0093,-0.00075904,0.00208826,-0.13162306,-0.00448457,0.00207525,-0.01650770,-0.2432,0.7608,-9.7383,0.016640,0.031661,0.016992,26.8906,16.5098,32.4047,-3.4561,0.3100,106,0,0,-0.009470,0.007426,-0.306861,0.008210,0.099248,0.005762,2.3882,-3.5779,11.8311
12867,11.0,-0.006433,-0.000700,-0.308178,-0.006084,-0.003030,-0.010719,-4.4349,-1.2949,0.0210,-0.00079719,0.00211275,-0.13162841,-0.00396953,0.00194426,-0.01653120,-0.3195,0.7484,-9.7401,0.021551,0.022627,0.016230,26.8906,16.5098,32.4047,-3.4561,0.3100,109,0,0,-0.009730,0.007531,-0.308223,0.004741,0.099375,-0.005903,2.3697,-3.5255,12.0241
12878,11.0,-0.006496,-0.001185,-0.308217,-0.006961,-0.008424,-0.010524,-4.4548,-1.2805,0.0174,-0.00057270,0.00211815,-0.13163716,-0.00406910,0.00300610,-0.01684397,-0.3162,0.7287,-9.8680,0.001597,0.012933,0.017879,26.8906,16.5098,32.4047,-3.4561,0.3100,105,0,-1,-0.009843,0.007592,-0.308196,0.003139,0.098893,-0.003436,2.3276,-3.4957,12.0999
12889,11.0,-0.006626,-0.001240,-0.307599,-0.008570,-0.008065,-0.002351,-4.4770,-1.2589,0.0230,-0.00059312,0.00215971,-0.13164273,-0.00361648,0.00317640,-0.02029282,-0.3303,0.7621,-9.8301,-0.035221,0.033211,0.014695,26.8906,16.5098,32.4047,-3.4561,0.3080,105,0,0,-0.009871,0.007234,-0.308269,0.002567,0.093833,-0.002680,2.2920,-3.4425,11.8405
12900,11.0,-0.006803,-0.001280,-0.307555,-0.010052,-0.007360,-0.000443,-4.4913,-1.2237,0.0056,-0.00061678,0.00211988,-0.13164623,-0.00346072,0.00308290,-0.02060937,-0.2713,0.7770,-9.6919,-0.023401,0.041143,0.011689,26.8906,16.5098,32.4047,-3.4561,0.3080,107,0,0,-0.009984,0.007213,-0.307531,0.001025,0.093984,0.006303,2.2920,-3.4286,11.9538
12911,11.0,-0.006872,-0.001286,-0.307554,-0.010055,-0.005474,0.000669,-4.4935,-1.2164,-0.0044,-0.00059129,0.00217184,-0.13164265,-0.00331224,0.00245822,-0.02066164,-0.2598,0.8725,-9.6878,0.006101,0.012209,0.006973,26.8906,16.5098,32.4047,-3.4561,0.3080,107,0,0,-0.010230,0.007214,-0.307285,-0.001178,0.094136,0.011245,2.2307,-3.3800,12.1386
12922,11.0,-0.006394,-0.001270,-0.308277,-0.003956,-0.003765,-0.006458,-4.4783,-1.2411,-0.0643,-0.00062686,0.00246846,-0.13160563,-0.00434871,0.00210604,-0.01725371,-0.2524,0.8424,-9.6562,0.020907,-0.003838,0.012667,26.8906,16.5098,32.4047,-3.4561,0.3100,116,1,0,-0.009845,0.007359,-0.307170,0.003562,0.096135,0.013298,2.1742,-3.3787,12.1864
12933,11.0,-0.006388,-0.000787,-0.308344,-0.003940,0.002369,-0.005713,-4.4583,-1.2441,-0.0176,-0.00087019,0.00252923,-0.13159311,-0.00413259,0.00076562,-0.01736739,-0.2727,0.7965,-9.7236,0.002767,-0.002439,0.018307,27.2884,17.2228,34.0821,-3.5089,0.3100,116,0,1,-0.009942,0.007866,-0.308365,0.002374,0.102595,0.001466,2.2169,-3.3882,12.2910
12945,12.0,-0.006347,-0.000776,-0.308302,-0.004033,0.001332,-0.003465,-4.4592,-1.2491,-0.0087,-0.00086383,0.00257646,-0.13158782,-0.00433222,0.00084566,-0.01785018,-0.3108,0.6817,-9.7166,0.001623,-0.010058,0.018805,27.2884,17.2228,34.0821,-3.5089,0.3100,118,0,0,-0.010011,0.008445,-0.308212,0.001609,0.106362,0.005813,2.1950,-3.3888,12.4693
12956,11.0,-0.006282,-0.000764,-0.308146,-0.003437,0.000370,0.000259,-4.4493,-1.2623,0.0065,-0.00092832,0.00266958,-0.13158466,-0.00435938,0.00137877,-0.01865435,-0.2791,0.6532,-9.6599,0.005564,-0.015591,0.015902,27.2884,17.2228,34.0821,-3.5089,0.3090,113,0,0,-0.009974,0.008526,-0.308143,0.001993,0.104449,0.007524,2.1417,-3.3855,12.5468
12967,11.0,-0.006203,-0.000738,-0.308056,-0.002598,-0.000133,0.002657,-4.4387,-1.2755,-0.0114,-0.00094130,0.00272879,-0.13157743,-0.00460001,0.00136293,-0.01902189,-0.2611,0.6800,-9.6703,0.017050,-0.020217,0.003649,27.2884,17.2228,34.0821,-3.5089,0.3090,122,0,0,-0.009855,0.008709,-0.307955,0.003937,0.101959,0.012002,2.1152,-3.4026,12.7223
12978,11.0,-0.006110,-0.000709,-0.308025,-0.001970,-0.000776,0.002932,-4.4193,-1.2955,0.0066,-0.00101724,0.00283587,-0.13157344,-0.00457935,0.00171341,-0.01899819,-0.2970,0.6566,-9.7783,0.019166,-0.023278,0.008807,27.2884,17.2228,34.0821,-3.5089,0.3090,122,0,0,-0.009786,0.008807,-0.307705,0.004927,0.101509,0.015564,2.1417,-3.4256,12.8218
12990,12.0,-0.005955,-0.000716,-0.308486,-0.000359,-0.001683,-0.003489,-4.4255,-1.3210,-0.0151,-0.00102136,0.00292824,-0.13156322,-0.00487565,0.00154167,-0.01681192,-0.2608,0.6792,-9.8645,-0.007351,-0.033363,0.015314,27.2884,17.2228,34.0821,-3.5089,0.3100,120,0,0,-0.009706,0.008913,-0.307552,0.005841,0.100368,0.016690,2.1243,-3.3994,12.4467
13001,11.0,-0.005839,-0.000742,-0.308530,0.000469,-0.002858,-0.004450,-4.4332,-1.3383,0.0065,-0.00108364,0.00302287,-0.13155992,-0.00493264,0.00201039,-0.01677686,-0.2849,0.6508,-9.8895,-0.021904,-0.021760,0.015843,27.2884,17.2228,34.0821,-3.5089,0.3100,122,0,0,-0.009430,0.009073,-0.308437,0.008884,0.098638,0.005198,2.0689,-3.4357,12.6183
13012,11.0,-0.005733,-0.000740,-0.308453,0.001039,-0.003582,-0.005141,-4.4332,-1.3522,-0.0087,-0.00110305,0.00307485,-0.13155368,-0.00515009,0.00198260,-0.01740995,-0.2916,0.6718,-10.0144,-0.000531,-0.022451,0.009770,27.2884,17.2228,34.0821,-3.6041,0.3100,121,0,0,-0.009315,0.009133,-0.308388,0.009832,0.097842,0.005139,2.0711,-3.4590,12.7217
13023,11.0,-0.005707,-0.000767,-0.308773,0.000021,-0.004089,-0.009993,-4.4425,-1.3579,0.0226,-0.00114340,0.00316382,-0.13155730,-0.00467516,0.00206288,-0.01629956,-0.3647,0.7067,-9.9717,-0.019390,-0.001546,0.007105,27.2884,17.2228,34.0821,-3.6041,0.3100,120,0,0,-0.009135,0.009277,-0.308794,0.010226,0.096121,-0.002569,2.0259,-3.4753,12.8903
13034,11.0,-0.005760,-0.000786,-0.308780,-0.001594,-0.004393,-0.009321,-4.4509,-1.3418,0.0020,-0.00115812,0.00313980,-0.13155912,-0.00459189,0.00202992,-0.01678734,-0.3384,0.7089,-9.8506,-0.013185,0.014495,0.008669,28.4739,17.2228,34.4958,-3.6041,0.3100,114,0,0,-0.009115,0.009314,-0.308715,0.009195,0.094907,-0.002025,1.9607,-3.4626,12.9634
13045,11.0,-0.005806,-0.000308,-0.308884,-0.002947,0.000878,-0.009580,-4.4306,-1.3373,-0.0013,-0.00145593,0.00319486,-0.13155201,-0.00402766,0.00106197,-0.01687917,-0.3442,0.7102,-9.8194,-0.007141,0.011713,0.001401,28.4739,17.2228,34.4958,-3.6041,0.3100,116,0,1,-0.009149,0.009342,-0.308736,0.007766,0.094397,-0.001718,1.9659,-3.4584,13.0703
13056,11.0,-0.005819,-0.000293,-0.308910,-0.003249,0.000606,-0.008800,-4.4253,-1.3329,-0.0017,-0.00145926,0.00320551,-0.13155073,-0.00407876,0.00107431,-0.01722880,-0.2823,0.7279,-9.8101,0.009496,0.001438,0.001596,28.4739,17.2228,34.4958,-3.6041,0.3100,112,0,0,-0.009417,0.010297,-0.308973,0.003350,0.102395,-0.002421,1.9576,-3.4353,13.2287
13067,11.0,-0.005849,-0.000272,-0.309007,-0.003410,0.000644,-0.008837,-4.4156,-1.3284,0.0041,-0.00147211,0.00322599,-0.13155115,-0.00398509,0.00107534,-0.01723143,-0.2563,0.7461,-9.7990,0.015067,0.003774,-0.001301,28.4739,17.2228,34.4958,-3.6041,0.3100,118,0,0,-0.009432,0.010370,-0.308998,0.003150,0.101030,-0.001704,1.9062,-3.4179,13.2958
13078,11.0,-0.005946,-0.000257,-0.308968,-0.004804,0.000522,-0.007510,-4.4097,-1.3096,0.0037,-0.00147636,0.00319787,-0.13155396,-0.00389709,0.00109444,-0.01784841,-0.3041,0.7382,-9.8248,0.010319,0.019587,-0.006397,28.4739,17.2228,34.4958,-3.6041,0.3100,116,0,0,-0.009458,0.010439,-0.308873,0.003026,0.100694,0.000728,1.9255,-3.4212,13.3960
13089,11.0,-0.006055,-0.000267,-0.309025,-0.005680,-0.000017,-0.007415,-4.4147,-1.2894,0.0122,-0.00149033,0.00318988,-0.13155904,-0.00367931,0.00127291,-0.01795853,-0.2554,0.7190,-9.8188,-0.009474,0.024470,-0.000533,28.4739,17.2228,34.4958,-3.5089,0.3100,116,0,0,-0.009632,0.010535,-0.308855,0.001204,0.098883,0.001862,1.9104,-3.3534,13.0724
13100,11.0,-0.006081,-0.000284,-0.309027,-0.005781,0.000196,-0.006279,-4.4238,-1.2827,-0.0020,-0.00148016,0.00320937,-0.13155738,-0.00376739,0.00134419,-0.01830266,-0.2722,0.7935,-9.7752,-0.011828,0.006612,-0.002905,28.4739,17.2228,34.4958,-3.5089,0.3100,116,0,0,-0.009723,0.010564,-0.309079,0.000616,0.097362,-0.000010,1.8464,-3.3188,13.1386
13111,11.0,-0.006115,-0.000290,-0.309093,-0.005422,0.000406,-0.005719,-4.4297,-1.2754,-0.0033,-0.00145891,0.00322464,-0.13155559,-0.00381448,0.00125124,-0.01830879,-0.2190,0.7851,-9.7436,-0.003947,0.006587,0.005640,28.4739,17.2228,34.4958,-3.5089,0.3100,114,0,0,-0.009756,0.010595,-0.309076,0.000431,0.097120,0.000985,1.8483,-3.3177,13.2350
13122,11.0,-0.006007,-0.000269,-0.309558,-0.004156,0.001408,-0.012057,-4.4178,-1.2963,-0.0150,-0.00146617,0.00331293,-0.13154496,-0.00408026,0.00112254,-0.01663312,-0.2829,0.8491,-9.9491,0.019220,-0.027377,0.001832,28.4739,17.2228,34.4958,-3.5089,0.3110,108,0,0,-0.009763,0.010715,-0.308919,0.001454,0.096923,0.003885,1.8035,-3.3080,13.3928
13133,11.0,-0.005931,-0.000277,-0.309700,-0.003633,0.001966,-0.013775,-4.4305,-1.3132,-0.0005,-0.00139488,0.00343117,-0.13154003,-0.00395574,0.00076402,-0.01666530,-0.3166,0.8553,-9.9419,-0.005110,-0.016376,0.023223,26.4981,16.5023,34.4958,-3.5089,0.3110,112,0,0,-0.009672,0.010816,-0.309770,0.002524,0.097217,-0.006149,1.7489,-3.3105,13.4517
13144,11.0,-0.005908,-0.000272,-0.309758,-0.004057,0.001308,-0.014153,-4.4322,-1.3142,-0.0052,-0.00138740,0.00346617,-0.13153625,-0.00409736,0.00083610,-0.01710629,-0.3402,0.7239,-9.9417,0.000259,-0.004851,0.019954,26.4981,16.5023,34.4958,-3.5089,0.3110,105,0,0,-0.009536,0.010955,-0.309819,0.002898,0.097187,-0.006452,1.6950,-3.3283,13.6356
13156,12.0,-0.005972,-0.000235,-0.309416,-0.005226,0.001177,-0.007746,-4.4125,-1.3085,0.0184,-0.00141960,0.00351799,-0.13154079,-0.00378661,0.00106850,-0.01923888,-0.3238,0.7198,-9.7535,0.025746,0.009244,0.010734,26.4981,16.5023,34.4958,-3.4878,0.3100,107,0,0,-0.009522,0.011017,-0.309766,0.002453,0.096483,-0.005487,1.7037,-3.3359,13.7441
13167,11.0,-0.006054,-0.000181,-0.309420,-0.005841,0.001255,-0.005561,-4.3870,-1.2958,0.0002,-0.00144156,0.00350583,-0.13154119,-0.00374559,0.00099802,-0.01956378,-0.2576,0.7104,-9.6815,0.039165,0.011538,0.004719,26.4981,16.5023,34.4958,-3.4878,0.3100,103,0,0,-0.009646,0.011171,-0.309550,0.000474,0.094760,0.000200,1.6927,-3.3154,13.9261
13178,11.0,-0.006106,-0.000164,-0.309471,-0.005952,0.000547,-0.003728,-4.3758,-1.2880,0.0081,-0.00149591,0.00352893,-0.13154258,-0.00369380,0.00134733,-0.01953914,-0.2479,0.6606,-9.6376,0.009162,0.008793,0.007442,26.4981,16.5023,34.4958,-3.4878,0.3100,107,0,0,-0.009725,0.011249,-0.309447,-0.000108,0.093621,0.003205,1.6592,-3.2898,13.9952
13189,11.0,-0.006135,-0.000162,-0.309726,-0.005868,-0.000290,-0.004137,-4.3780,-1.2819,-0.0030,-0.00149627,0.00354873,-0.13154028,-0.00373719,0.00127892,-0.01860623,-0.2502,0.6580,-9.6039,-0.001933,0.005579,0.005648,26.4981,16.5023,34.4958,-3.4878,0.3110,107,0,0,-0.009776,0.011305,-0.309406,-0.000058,0.092852,0.005599,1.6958,-3.2616,13.6252
13200,11.0,-0.006132,-0.000123,-0.309768,-0.005717,-0.001115,-0.003601,-4.3511,-1.2886,0.0112,-0.00159773,0.00362170,-0.13153973,-0.00366835,0.00171937,-0.01857645,-0.2844,0.6119,-9.7577,0.025768,-0.005348,-0.005735,26.4981,16.5023,34.4958,-3.4878,0.3110,112,0,0,-0.009837,0.011416,-0.309867,0.000008,0.090412,0.004356,1.6565,-3.2417,13.7917
13211,11.0,-0.006129,-0.000085,-0.309721,-0.005509,-0.001665,-0.004017,-4.3326,-1.2916,-0.0063,-0.00162649,0.00365609,-0.13153473,-0.00380130,0.00163516,-0.01898541,-0.2775,0.6494,-9.9456,0.026594,-0.005389,-0.009967,26.4981,16.5023,34.4958,-3.4878,0.3110,103,0,0,-0.009842,0.011506,-0.309823,0.000203,0.089136,0.005403,1.6269,-3.2315,13.8532
13223,12.0,-0.006218,-0.000073,-0.309921,-0.006491,-0.001522,-0.007168,-4.3244,-1.2814,0.0127,-0.00164669,0.00369215,-0.13153823,-0.00346668,0.00152682,-0.01842009,-0.2978,0.7339,-9.9235,0.010447,0.016068,-0.014481,26.8933,16.1421,32.8412,-3.4878,0.3110,110,0,0,-0.009903,0.011647,-0.310029,-0.000158,0.088268,0.001423,1.6093,-3.2177,13.9963
13234,11.0,-0.006353,-0.000108,-0.309924,-0.006975,-0.001170,-0.005949,-4.3404,-1.2553,0.0051,-0.00163621,0.00365940,-0.13154237,-0.00335878,0.00158653,-0.01872858,-0.2015,0.7913,-9.7639,-0.022862,0.030901,-0.005858,26.8933,16.1421,32.8412,-3.4878,0.3110,109,0,0,-0.009992,0.011667,-0.309927,-0.001247,0.088549,0.002622,1.6162,-3.2060,14.0849
13245,11.0,-0.006448,-0.000121,-0.309977,-0.007242,-0.000663,-0.003698,-4.3486,-1.2381,0.0007,-0.00161373,0.00365559,-0.13154326,-0.00328553,0.00143717,-0.01874148,-0.2210,0.7802,-9.5902,-0.007211,0.020128,0.008105,26.8933,16.1421,32.8412,-3.4878,0.3110,119,0,0,-0.010101,0.011666,-0.309901,-0.001940,0.088003,0.003725,1.5464,-3.1667,14.1443
