timestamp_ms,dt_ms,pos_x,pos_y,pos_z,vel_x,vel_y,vel_z,roll_deg,pitch_deg,yaw_deg,gyro_bias_x,gyro_bias_y,gyro_bias_z,accel_bias_x,accel_bias_y,accel_bias_z,raw_accel_x,raw_accel_y,raw_accel_z,raw_gyro_x,raw_gyro_y,raw_gyro_z,raw_mag_x,raw_mag_y,raw_mag_z,raw_baro_alt,raw_tof,raw_flow_squal,raw_flow_dx,raw_flow_dy,dev_pos_x,dev_pos_y,dev_pos_z,dev_vel_x,dev_vel_y,dev_vel_z,dev_roll_deg,dev_pitch_deg,dev_yaw_deg
11327,10.0,-0.000612,-0.000050,-0.316938,-0.062870,-0.000558,-0.001187,-0.0058,0.0124,0.0636,0.00000000,0.00000000,-0.13171183,-0.00150739,0.00339972,0.00000000,-0.3293,0.8976,-9.8495,-0.006445,-0.001856,-0.022963,26.1084,16.4875,33.7145,-3.3768,0.3170,111,-1,0,-0.002872,-0.000981,-0.316721,-0.014061,0.003677,0.007945,-2.8117,-2.0271,1.4500
11338,11.0,-0.001365,-0.001308,-0.316951,-0.065967,-0.061133,-0.001358,-2.8610,-0.9200,0.1770,0.00000956,0.00000345,-0.13171186,-0.00149065,0.00416031,0.00000008,-0.3261,0.9189,-9.7298,-0.028913,0.006086,-0.009972,26.1084,16.4875,33.7145,-3.3768,0.3180,101,-1,-1,-0.003321,-0.000975,-0.317053,-0.018827,0.004629,0.002869,-2.8699,-1.9620,1.5617
11349,11.0,-0.001416,-0.002678,-0.315068,-0.045291,-0.080909,0.083237,-3.0957,-1.1205,0.2467,0.00001007,0.00000394,-0.13171180,-0.00222796,0.00493584,-0.00001822,-0.3580,0.8705,-9.6397,-0.023997,0.006939,-0.003052,26.1084,17.5681,34.5420,-3.3768,0.3180,112,0,-1,-0.003775,-0.001461,-0.317024,-0.023041,0.000321,0.003160,-2.9145,-1.9084,1.7345
11361,12.0,-0.001451,-0.002773,-0.317259,-0.032516,-0.058416,-0.009889,-3.1996,-1.7279,0.2923,0.00001389,0.00000930,-0.13171150,-0.00307792,0.00355675,0.00001355,-0.4203,0.7224,-9.8293,0.007949,-0.012069,-0.016042,26.1084,17.5681,34.5420,-3.3768,0.3180,110,0,0,-0.003834,-0.001941,-0.316882,-0.018181,-0.002028,0.005535,-2.9423,-2.0572,1.8337
11372,11.0,-0.001434,-0.002797,-0.317267,-0.025687,-0.043068,-0.009160,-2.9439,-1.8877,0.2981,0.00001249,0.00001020,-0.13171113,-0.00387971,0.00230160,-0.00007140,-0.4606,0.7286,-9.9777,0.019696,-0.009696,-0.032908,26.1084,17.5681,34.5420,-3.3768,0.3170,108,0,0,-0.003822,-0.001921,-0.316562,-0.015564,-0.000619,0.008002,-2.8676,-2.1562,1.8559
11384,12.0,-0.001559,-0.002825,-0.317387,-0.022084,-0.033232,-0.010565,-3.2781,-2.0703,0.3270,0.00002366,0.00001352,-0.13171077,-0.00435385,0.00107379,-0.00011944,-0.4071,0.8599,-9.8787,0.005144,0.014278,-0.031572,26.1084,17.5681,34.5420,-3.3768,0.3170,110,0,0,-0.003848,-0.001880,-0.316387,-0.012438,0.003367,0.005307,-2.6953,-2.2943,1.9222
11395,11.0,-0.001683,-0.002777,-0.316443,-0.018320,-0.022754,0.008573,-3.0632,-2.1084,0.3409,0.00002182,0.00001404,-0.13171045,-0.00469442,-0.00006324,-0.00080342,-0.1990,0.8416,-9.7623,0.067762,0.010307,-0.052410,26.1084,17.5681,34.5420,-3.3768,0.3170,113,0,0,-0.003985,-0.001880,-0.316260,-0.012683,0.007283,0.006153,-2.5742,-2.3053,1.9845
11406,11.0,-0.001794,-0.002605,-0.316343,-0.016649,-0.015138,0.009726,-3.4938,-2.0136,0.3621,0.00004612,0.00000948,-0.13171005,-0.00502274,-0.00158325,-0.00087337,-0.2501,1.0900,-9.6450,0.097891,0.007603,-0.017675,26.1084,17.5681,34.5420,-3.3768,0.3180,113,0,0,-0.004094,-0.001791,-0.316199,-0.011671,0.009660,0.006465,-2.5186,-2.2934,1.9897
11417,11.0,-0.001819,-0.003763,-0.316126,-0.011834,-0.027275,0.012487,-3.8787,-2.0723,0.4904,0.00005387,0.00001054,-0.13171031,-0.00554159,0.00215778,-0.00083543,-0.1283,1.0616,-9.6446,0.081022,-0.010699,0.018109,26.1084,17.5681,34.5420,-3.3768,0.3180,123,0,-1,-0.004249,-0.001549,-0.316978,-0.008214,0.019488,-0.000150,-2.3468,-2.3150,2.0591
11428,11.0,-0.001781,-0.003729,-0.316705,-0.008910,-0.021614,0.003043,-3.9555,-2.0606,0.5279,0.00006491,0.00000660,-0.13170959,-0.00622036,0.00063144,0.00051045,-0.2646,0.8983,-9.7309,0.030584,-0.013888,0.024484,26.1084,17.5681,34.5420,-3.3768,0.3180,120,0,0,-0.004259,-0.001889,-0.316976,-0.005112,0.017877,0.001077,-2.2820,-2.3574,2.1721
11439,11.0,-0.002341,-0.004936,-0.316622,-0.016285,-0.037238,0.002526,-4.3490,-1.8653,0.7777,0.00007601,0.00000122,-0.13171193,-0.00425098,0.00472977,0.00050808,-0.3313,0.7135,-9.8829,0.015947,-0.020037,0.025388,26.1084,17.5681,34.5420,-3.3768,0.3160,117,-1,-1,-0.004602,-0.002214,-0.316016,-0.007234,0.014770,0.011452,-2.2316,-2.3509,2.4002
11450,11.0,-0.002334,-0.004989,-0.316605,-0.013160,-0.031846,0.000286,-4.1659,-1.9386,0.8061,0.00006755,0.00000350,-0.13171090,-0.00508521,0.00318944,0.00044007,-0.3212,0.6785,-9.9918,0.002366,-0.007032,0.007410,26.8960,17.5756,32.8640,-3.4878,0.3160,121,0,0,-0.004531,-0.002179,-0.315912,-0.004901,0.014572,0.009720,-2.1735,-2.4040,2.4494
11462,12.0,-0.002478,-0.005034,-0.315526,-0.011637,-0.026201,0.011024,-4.0087,-1.9250,0.8582,0.00006193,0.00000380,-0.13171043,-0.00526359,0.00190775,-0.00408773,-0.2268,0.7358,-9.9758,0.026876,0.019610,-0.013498,26.8960,17.5756,32.8640,-3.4878,0.3160,122,0,0,-0.004499,-0.002164,-0.315722,-0.002951,0.015386,0.008905,-2.0715,-2.4507,2.5275
11473,11.0,-0.002630,-0.004995,-0.315411,-0.011584,-0.020763,0.009981,-3.9793,-1.8166,0.8974,0.00007133,-0.00000692,-0.13170996,-0.00532742,0.00008160,-0.00420539,-0.1964,0.8645,-9.8712,0.048422,0.024773,-0.008574,26.8960,17.5756,32.8640,-3.4878,0.3170,124,0,0,-0.004710,-0.002074,-0.316102,-0.002069,0.018910,-0.000283,-1.9018,-2.4295,2.6675
11484,11.0,-0.002699,-0.006137,-0.315190,-0.009135,-0.033532,0.011618,-4.2795,-1.8182,1.0347,0.00009136,-0.00000612,-0.13171099,-0.00554864,0.00465142,-0.00459864,-0.1567,0.8452,-9.7455,0.055094,0.006439,0.006099,26.8960,17.5756,32.8640,-3.4878,0.3170,116,0,-1,-0.004837,-0.001994,-0.316111,-0.002052,0.021039,-0.001096,-1.8579,-2.3922,2.5969
11495,11.0,-0.002664,-0.007262,-0.315593,-0.006483,-0.045107,0.006272,-4.5301,-1.7573,1.1204,0.00011452,-0.00002122,-0.13171111,-0.00640296,0.00810582,-0.00089335,-0.1195,0.8000,-9.6983,0.070976,-0.013174,0.013037,26.8960,17.5756,32.8640,-3.4878,0.3170,116,0,-1,-0.004903,-0.002361,-0.316123,-0.000508,0.018327,-0.001002,-1.7857,-2.4056,2.7100
11506,11.0,-0.002675,-0.007242,-0.315439,-0.004177,-0.037315,0.007996,-4.3159,-1.7801,1.1678,0.00010043,-0.00001952,-0.13171008,-0.00671154,0.00553755,-0.00166416,-0.1744,0.7488,-9.7163,0.072719,-0.012378,0.008139,26.8960,17.5756,32.8640,-3.4878,0.3160,120,0,0,-0.004879,-0.002599,-0.315988,0.003748,0.018352,0.002617,-1.6171,-2.4314,2.8334
11517,11.0,-0.002779,-0.007278,-0.315348,-0.004900,-0.031949,0.008472,-4.1502,-1.7383,1.2481,0.00008124,-0.00002267,-0.13170980,-0.00646734,0.00378205,-0.00178575,-0.2848,0.6499,-9.7458,0.025033,0.018407,0.015268,26.8960,17.5756,32.8640,-3.4878,0.3160,116,0,0,-0.004867,-0.002486,-0.315657,0.004998,0.020717,0.006810,-1.5316,-2.4279,2.8620
11528,11.0,-0.002883,-0.007340,-0.315076,-0.006120,-0.028788,0.010238,-4.0688,-1.7059,1.3146,0.00007126,-0.00002400,-0.13170944,-0.00629098,0.00237058,-0.00341003,-0.3547,0.5896,-9.8208,-0.010014,0.023688,-0.004310,26.8960,17.5756,32.8640,-3.4508,0.3160,119,0,0,-0.005032,-0.002408,-0.315513,0.003445,0.022382,0.007564,-1.3613,-2.4175,3.0425
11539,11.0,-0.002976,-0.007433,-0.314973,-0.006819,-0.025459,0.008491,-4.0362,-1.7241,1.3913,0.00006505,-0.00001205,-0.13170922,-0.00590050,0.00116753,-0.00349878,-0.3993,0.7132,-9.9403,-0.035106,0.022544,-0.012760,27.6863,16.1347,33.6915,-3.4508,0.3160,112,0,0,-0.005122,-0.002411,-0.315502,0.002158,0.022868,0.006519,-1.2730,-2.4186,3.1397
11550,11.0,-0.003153,-0.007520,-0.314802,-0.009117,-0.020817,0.007876,-4.0043,-1.6662,1.4699,0.00005752,-0.00001585,-0.13170937,-0.00544481,0.00028604,-0.00441903,-0.3767,0.8741,-9.9221,-0.026031,0.042488,-0.008533,27.6863,16.1347,33.6915,-3.4508,0.3160,108,0,0,-0.005193,-0.002424,-0.315446,0.000968,0.023223,0.005148,-1.2641,-2.4211,3.2021
11561,11.0,-0.003372,-0.007512,-0.314913,-0.010886,-0.016027,0.005611,-4.0265,-1.6098,1.5435,0.00008249,-0.00001879,-0.13170946,-0.00475169,-0.00185666,-0.00267046,-0.2941,0.9591,-9.7586,0.027199,0.042008,-0.005185,27.6863,16.1347,33.6915,-3.4508,0.3160,115,0,0,-0.005488,-0.002452,-0.315280,-0.002524,0.027465,0.004137,-1.1944,-2.3924,3.3587
11572,11.0,-0.003524,-0.007430,-0.314787,-0.011517,-0.009253,0.006201,-3.9049,-1.5883,1.6112,0.00007085,-0.00002004,-0.13170892,-0.00462661,-0.00303011,-0.00342961,-0.2888,0.9781,-9.7846,0.100915,0.015383,-0.000815,27.6863,16.1347,33.6915,-3.4508,0.3150,112,0,0,-0.005678,-0.002420,-0.315237,-0.003996,0.031422,0.004595,-1.0819,-2.3823,3.4668
11583,11.0,-0.003679,-0.007303,-0.314729,-0.012006,-0.005202,0.004325,-3.8386,-1.5803,1.6847,0.00008366,-0.00001609,-0.13170829,-0.00438348,-0.00473917,-0.00355649,-0.3061,0.8317,-9.9457,0.110843,0.013349,0.011162,27.6863,16.1347,33.6915,-3.4508,0.3150,117,0,0,-0.005984,-0.002158,-0.314720,-0.005397,0.038817,0.008083,-0.8580,-2.3752,3.2576
11594,11.0,-0.003979,-0.007253,-0.314363,-0.014747,-0.003240,0.008796,-3.7804,-1.5012,1.8031,0.00007742,-0.00002525,-0.13170949,-0.00367418,-0.00505242,-0.00681503,-0.2998,0.6856,-9.7203,0.056419,0.055769,0.021600,27.6863,16.1347,33.6915,-3.4297,0.3150,110,0,0,-0.006150,-0.002025,-0.314564,-0.006144,0.040393,0.007969,-0.7906,-2.3645,3.3249
11605,11.0,-0.004270,-0.008339,-0.314254,-0.016421,-0.018557,0.011270,-3.9477,-1.4105,1.9952,0.00012785,-0.00004005,-0.13171473,-0.00309841,0.00041609,-0.00650247,-0.2110,0.5782,-9.5699,0.063140,0.060607,0.005595,27.6863,16.1347,33.6915,-3.4297,0.3160,114,0,-1,-0.006419,-0.001942,-0.314482,-0.008112,0.041501,0.008698,-0.6670,-2.3446,3.4531
11616,11.0,-0.004436,-0.008295,-0.314039,-0.015565,-0.015297,0.014634,-3.8584,-1.3961,2.0525,0.00011198,-0.00003891,-0.13171370,-0.00319173,-0.00074811,-0.00738944,-0.1783,0.6302,-9.5759,0.063067,0.021094,-0.006185,27.6863,16.1347,33.6915,-3.4297,0.3160,104,0,0,-0.006904,-0.002631,-0.315121,-0.009307,0.031622,0.004526,-0.5396,-2.2918,3.6637
11627,11.0,-0.004488,-0.009418,-0.314605,-0.012833,-0.028151,0.008479,-4.0379,-1.3557,2.1388,0.00018613,-0.00006213,-0.13171495,-0.00408451,0.00319304,0.00043439,-0.0556,0.7284,-9.5432,0.041561,0.010442,-0.000543,27.6863,16.1347,33.6915,-3.4297,0.3160,107,0,-1,-0.007041,-0.002535,-0.315066,-0.008414,0.033060,0.006936,-0.4632,-2.2791,3.6940
11638,11.0,-0.004534,-0.009430,-0.314443,-0.009712,-0.023687,0.010851,-3.9654,-1.3688,2.1917,0.00016505,-0.00005539,-0.13171321,-0.00452704,0.00181910,-0.00025397,-0.0582,0.7042,-9.6369,0.030221,-0.000872,0.000348,27.6863,16.1347,33.6915,-3.4297,0.3130,101,0,0,-0.007108,-0.002915,-0.314886,-0.005667,0.030248,0.010758,-0.3768,-2.3014,3.7889
11649,11.0,-0.004443,-0.009514,-0.314327,-0.006453,-0.021537,0.010160,-3.9509,-1.3969,2.2348,0.00014450,-0.00005128,-0.13171040,-0.00570308,0.00117742,-0.00025341,-0.1719,0.6360,-9.8520,-0.039017,-0.018494,0.016888,26.5089,15.7521,34.1743,-3.4297,0.3130,107,0,0,-0.007113,-0.002834,-0.313278,0.000019,0.034754,0.027579,-0.2281,-2.3330,3.8694
11660,11.0,-0.004145,-0.009636,-0.313031,-0.001503,-0.021565,0.020224,-3.9840,-1.4951,2.2673,0.00013464,-0.00002027,-0.13170601,-0.00773950,0.00152591,-0.01219476,-0.2845,0.5414,-10.1905,-0.084250,-0.058212,0.019193,26.5089,15.7521,34.1743,-3.4297,0.3130,107,0,0,-0.006996,-0.002842,-0.312930,0.002827,0.034987,0.027942,-0.2209,-2.3599,3.8969
11671,11.0,-0.003843,-0.009752,-0.312845,0.002335,-0.021108,0.013505,-4.0148,-1.5820,2.3067,0.00012414,0.00000899,-0.13170217,-0.00918327,0.00099644,-0.01218228,-0.3433,0.6071,-10.4110,-0.078276,-0.056978,0.010751,26.5089,15.7521,34.1743,-3.5037,0.3150,107,0,0,-0.006732,-0.002890,-0.312666,0.006827,0.034761,0.025010,-0.1765,-2.4362,3.9734
11682,11.0,-0.004413,-0.009830,-0.312631,-0.005887,-0.017805,0.007771,-3.9971,-1.4799,2.4624,0.00010757,-0.00004861,-0.13170828,-0.00665855,0.00031235,-0.01334359,-0.2878,0.8478,-10.4224,-0.010794,-0.007860,-0.007839,26.5089,15.7521,34.1743,-3.5037,0.3150,105,-1,0,-0.006665,-0.003006,-0.313712,0.007144,0.035838,-0.000737,-0.0728,-2.5294,3.8284
11693,11.0,-0.004564,-0.009838,-0.313441,-0.006779,-0.012713,-0.008310,-3.9512,-1.4427,2.5444,0.00008919,-0.00005766,-0.13170870,-0.00609851,-0.00102943,-0.00516821,-0.2317,0.9655,-10.3060,0.030891,0.027354,-0.007083,26.5089,15.7521,34.1743,-3.5037,0.3150,105,0,0,-0.006610,-0.003006,-0.313750,0.008040,0.039038,-0.006729,0.0104,-2.5638,3.9112
11704,11.0,-0.004804,-0.009812,-0.313465,-0.008556,-0.008119,-0.009620,-3.8946,-1.3824,2.6535,0.00007141,-0.00007578,-0.13171032,-0.00545327,-0.00163916,-0.00600400,-0.1993,0.9152,-9.9827,0.053878,0.043497,0.014915,26.5089,15.7521,34.1743,-3.5037,0.3140,113,0,0,-0.006880,-0.002926,-0.313744,0.005881,0.047599,-0.012957,0.2275,-2.5602,4.1113
11715,11.0,-0.005031,-0.009717,-0.313573,-0.009576,-0.004523,-0.010068,-3.8411,-1.3160,2.7349,0.00008575,-0.00011183,-0.13171060,-0.00534810,-0.00316305,-0.00611563,-0.1312,0.8215,-9.8231,0.093539,0.034039,0.027550,26.5089,15.7521,34.1743,-3.5037,0.3140,120,0,0,-0.007090,-0.002852,-0.313798,0.004324,0.051617,-0.013452,0.3493,-2.5474,4.2297
11726,11.0,-0.005943,-0.009636,-0.313377,-0.020421,-0.002825,-0.006232,-3.7535,-1.1584,2.9515,0.00006586,-0.00020714,-0.13172153,-0.00223771,-0.00366144,-0.00904510,-0.2213,0.6473,-9.7729,0.106405,0.047483,0.028785,26.5089,15.7521,34.1743,-3.5037,0.3140,116,-1,0,-0.007988,-0.002607,-0.314071,-0.003935,0.055821,-0.012828,0.5541,-2.4643,4.4339
11737,11.0,-0.006884,-0.009562,-0.313450,-0.030289,-0.001889,-0.006882,-3.6660,-1.0277,3.1646,0.00003950,-0.00028078,-0.13173154,0.00082164,-0.00405085,-0.00914730,-0.2451,0.5879,-9.8574,0.101518,0.050116,0.031039,26.5089,15.7521,34.1743,-3.5037,0.3140,116,-1,0,-0.008704,-0.002486,-0.313837,-0.011145,0.056257,-0.008702,0.6356,-2.4028,4.5296
11747,10.0,-0.007218,-0.009576,-0.313436,-0.030648,-0.003432,-0.007708,-3.6667,-0.9758,3.2589,0.00003753,-0.00028468,-0.13173188,0.00092412,-0.00405052,-0.01000304,-0.1818,0.4638,-10.0035,-0.001950,0.072444,0.031821,26.1084,16.8477,34.1282,-3.4772,0.3140,117,0,0,-0.009001,-0.002375,-0.313931,-0.012165,0.056012,-0.009882,0.7661,-2.3891,4.6470
11758,11.0,-0.007789,-0.009768,-0.313399,-0.033571,-0.006658,-0.004969,-3.7322,-0.8498,3.4023,0.00001015,-0.00031451,-0.13173604,0.00184936,-0.00251380,-0.01093884,-0.1559,0.4465,-9.6849,-0.123372,0.139491,0.031497,26.1084,16.8477,34.1282,-3.4772,0.3140,119,0,0,-0.009755,-0.002426,-0.314052,-0.015460,0.052107,-0.010417,0.8303,-2.2865,4.8308
11770,12.0,-0.008356,-0.009984,-0.313360,-0.034976,-0.009739,0.000140,-3.8442,-0.7298,3.5201,0.00002620,-0.00033822,-0.13173869,0.00250974,-0.00199675,-0.01158837,-0.0767,0.4918,-9.4580,-0.139072,0.131912,0.017776,26.1084,16.8477,34.1282,-3.4772,0.3130,116,0,0,-0.010282,-0.002581,-0.313305,-0.018401,0.048739,0.001043,0.7794,-2.1845,4.8904
11781,11.0,-0.008640,-0.010123,-0.313338,-0.032941,-0.011098,0.003835,-3.9062,-0.6937,3.5987,0.00003063,-0.00032477,-0.13173759,0.00214540,-0.00187256,-0.01157379,-0.0537,0.5370,-9.4709,-0.090680,0.066252,0.011287,26.1084,16.8477,34.1282,-3.4772,0.3130,120,0,0,-0.010763,-0.002751,-0.313201,-0.019929,0.046587,0.005586,0.7773,-2.1182,4.9940
11792,11.0,-0.008125,-0.009009,-0.312650,-0.021501,0.004448,0.012963,-3.7959,-0.8008,3.5820,-0.00014527,-0.00018588,-0.13172200,-0.00142890,-0.00606215,-0.01718111,-0.1137,0.6153,-9.6556,-0.049320,0.002560,0.004714,26.1084,16.8477,34.1282,-3.4772,0.3130,115,1,1,-0.010792,-0.002448,-0.312897,-0.011499,0.052167,0.013811,0.8839,-2.1187,4.9043
11803,11.0,-0.008211,-0.006784,-0.312501,-0.019011,0.031961,0.014073,-3.5878,-0.8216,3.6219,-0.00048851,-0.00016254,-0.13171263,-0.00265849,-0.01401730,-0.01760009,-0.0745,0.5801,-9.7062,-0.077382,-0.009531,0.014763,26.1084,16.8477,34.1282,-3.4772,0.3140,119,0,2,-0.010807,-0.002023,-0.312753,-0.008936,0.057313,0.015636,0.8961,-2.1303,4.9213
11814,11.0,-0.008350,-0.004472,-0.312225,-0.017409,0.056007,0.017838,-3.3988,-0.8374,3.6807,-0.00079343,-0.00013526,-0.13170579,-0.00327827,-0.02136649,-0.01893154,-0.0813,0.4898,-9.5895,-0.044176,-0.003150,-0.001486,26.1084,16.8477,34.1282,-3.5142,0.3140,119,0,2,-0.010811,-0.001179,-0.313332,-0.005940,0.067421,0.009236,0.9838,-2.1723,5.0040
11825,11.0,-0.008181,-0.004387,-0.312789,-0.013085,0.049454,0.009904,-3.4617,-0.8982,3.7410,-0.00071056,-0.00007730,-0.13170305,-0.00429326,-0.01959759,-0.01247985,-0.1712,0.5687,-9.7099,-0.010086,-0.042354,-0.011565,26.1084,16.8477,34.1282,-3.5142,0.3140,116,0,0,-0.010761,-0.000248,-0.312999,-0.000762,0.073761,0.014930,1.0880,-2.2241,5.0847
11836,11.0,-0.007819,-0.004300,-0.312607,-0.007486,0.042753,0.009103,-3.5210,-0.9979,3.7922,-0.00063137,0.00000264,-0.13169812,-0.00606600,-0.01777175,-0.01305279,-0.2443,0.4958,-9.9721,-0.013745,-0.084112,-0.007429,26.8987,17.5681,33.7145,-3.5142,0.3120,117,0,0,-0.010592,-0.000180,-0.312140,0.002477,0.072009,0.024232,1.0982,-2.2640,5.0916
11847,11.0,-0.007447,-0.004278,-0.312513,-0.002044,0.036911,0.007869,-3.5979,-1.0902,3.8603,-0.00056442,0.00008356,-0.13169432,-0.00747327,-0.01578407,-0.01291971,-0.2118,0.5632,-9.9167,-0.054915,-0.078069,-0.004774,26.8987,17.5681,33.7145,-3.5142,0.3120,117,0,0,-0.009876,-0.000044,-0.311677,0.011746,0.069108,0.022048,1.1727,-2.4316,5.1676
11858,11.0,-0.007131,-0.004283,-0.311748,0.002433,0.032081,0.016303,-3.6833,-1.1556,3.9308,-0.00048841,0.00013818,-0.13169141,-0.00866637,-0.01387983,-0.01824724,-0.1677,0.6265,-9.7597,-0.065083,-0.062071,0.004040,26.8987,17.5681,33.7145,-3.5142,0.3120,115,0,0,-0.009511,-0.000028,-0.311331,0.016031,0.068284,0.023022,1.2188,-2.5182,5.2359
11869,11.0,-0.006971,-0.003155,-0.311559,0.004706,0.042209,0.018163,-3.6617,-1.1839,3.9819,-0.00061892,0.00014815,-0.13168533,-0.00962594,-0.01673156,-0.01838665,-0.1268,0.6529,-9.6352,-0.075516,-0.041460,0.008206,26.8987,17.5681,33.7145,-3.5142,0.3140,119,0,1,-0.009196,-0.000019,-0.311101,0.019394,0.067169,0.023772,1.1921,-2.5647,5.2504
11880,11.0,-0.006824,-0.001977,-0.311235,0.006485,0.052216,0.022556,-3.6271,-1.2184,4.0559,-0.00074657,0.00017291,-0.13168068,-0.01009238,-0.01919274,-0.01938754,-0.1415,0.7034,-9.5197,-0.045674,-0.043462,0.011490,26.8987,17.5681,33.7145,-3.5142,0.3140,117,0,1,-0.008801,0.000861,-0.312448,0.023181,0.076631,0.010429,1.2506,-2.6278,5.1165
11891,11.0,-0.007260,-0.000803,-0.311151,-0.000272,0.060480,0.021946,-3.5973,-1.2116,4.1883,-0.00084067,0.00010336,-0.13168634,-0.00815511,-0.02191768,-0.01822897,-0.2699,0.6966,-9.6713,-0.023831,-0.055099,0.013518,26.8987,17.5681,33.7145,-3.5512,0.3120,113,-1,1,-0.009012,0.001296,-0.312329,0.019467,0.081280,0.013503,1.3293,-2.6672,5.2098
11902,11.0,-0.007661,-0.000785,-0.310827,-0.006588,0.052679,0.021400,-3.6737,-1.1945,4.3287,-0.00072106,0.00002047,-0.13169727,-0.00672905,-0.01969624,-0.01887923,-0.3544,0.6257,-9.9543,-0.031143,-0.043453,0.004387,26.8987,17.5681,33.7145,-3.5512,0.3120,112,-1,0,-0.009427,0.001767,-0.311575,0.011826,0.083226,0.019725,1.3952,-2.7292,5.3513
11913,11.0,-0.007666,-0.000777,-0.310603,-0.006872,0.045639,0.019299,-3.7575,-1.2025,4.4579,-0.00061229,0.00007035,-0.13170165,-0.00620134,-0.01762040,-0.01877577,-0.3452,0.6219,-9.9945,-0.054968,0.008727,0.001048,26.8987,17.5681,33.7145,-3.5512,0.3120,112,0,0,-0.009694,0.001770,-0.311273,0.007543,0.080735,0.019610,1.3785,-2.7462,5.4101
11924,11.0,-0.007832,-0.000822,-0.310795,-0.008686,0.039015,0.012953,-3.8538,-1.1552,4.5630,-0.00050225,0.00004536,-0.13170765,-0.00578205,-0.01594298,-0.01565028,-0.2824,0.6451,-9.9566,-0.078511,0.049354,-0.009924,26.8987,17.5681,33.7145,-3.5512,0.3120,112,0,0,-0.009696,0.001760,-0.311086,0.007077,0.079094,0.018143,1.4185,-2.7643,5.5032
11935,11.0,-0.008102,-0.000902,-0.310654,-0.011174,0.033390,0.012641,-3.9570,-1.0914,4.6870,-0.00038712,0.00001874,-0.13171570,-0.00487174,-0.01443217,-0.01558598,-0.2413,0.7085,-9.8248,-0.089523,0.073369,-0.003764,26.8987,17.5681,33.7145,-3.5512,0.3140,112,0,0,-0.009800,0.001729,-0.310916,0.005790,0.076796,0.016812,1.3797,-2.7452,5.5522
11946,11.0,-0.008384,-0.000950,-0.310381,-0.012952,0.029365,0.016464,-4.0257,-1.0262,4.8008,-0.00030054,-0.00002136,-0.13172242,-0.00430034,-0.01299150,-0.01645497,-0.1646,0.7429,-9.5802,-0.054541,0.068834,0.002220,27.6863,17.2154,34.1052,-3.5512,0.3140,117,0,0,-0.010315,0.002031,-0.312478,0.001115,0.079105,-0.000867,1.3675,-2.6644,5.6942
11957,11.0,-0.008498,-0.000938,-0.311827,-0.012348,0.026418,-0.000745,-4.0668,-1.0019,4.8846,-0.00021392,-0.00003013,-0.13172388,-0.00425814,-0.01294098,-0.00410514,-0.1388,0.7451,-9.6036,-0.015437,0.024114,0.004341,27.6863,17.2154,34.1052,-3.5512,0.3140,113,0,0,-0.010566,0.001985,-0.312345,-0.000268,0.078444,0.003176,1.4056,-2.6402,5.7986
11968,11.0,-0.008472,-0.000864,-0.311738,-0.011113,0.023202,0.001357,-4.0706,-1.0153,4.9683,-0.00016441,0.00000283,-0.13172217,-0.00476662,-0.01213340,-0.00476391,-0.2478,0.6227,-9.7020,0.023438,-0.013089,0.012529,27.6863,17.2154,34.1052,-3.5512,0.3120,113,0,0,-0.010733,0.002054,-0.311829,0.001083,0.078077,0.012122,1.4703,-2.6387,5.9300
11979,11.0,-0.008398,-0.000777,-0.311727,-0.009256,0.019914,0.000531,-4.0484,-1.0468,5.0694,-0.00017241,0.00006871,-0.13172060,-0.00504071,-0.01081151,-0.00467145,-0.2492,0.5496,-9.8720,0.033887,-0.025877,0.008694,27.6863,17.2154,34.1052,-3.5512,0.3120,112,0,0,-0.010689,0.002150,-0.311606,0.002378,0.077345,0.014454,1.4967,-2.6584,5.9751
11990,11.0,-0.008351,-0.000695,-0.311356,-0.008295,0.016780,0.003137,-4.0392,-1.0634,5.1428,-0.00014048,0.00010155,-0.13171867,-0.00555935,-0.01016681,-0.00739539,-0.2793,0.5554,-9.9617,0.032910,-0.018403,-0.004858,27.6863,17.2154,34.1052,-3.5512,0.3120,116,0,0,-0.010615,0.002250,-0.311463,0.004171,0.077144,0.014308,1.6059,-2.6839,5.7463
12001,11.0,-0.008320,-0.000674,-0.311329,-0.007059,0.013852,0.001777,-4.0450,-1.0755,5.2326,-0.00013929,0.00014225,-0.13171844,-0.00572498,-0.00904878,-0.00731795,-0.2259,0.5802,-9.9216,-0.006501,-0.008392,-0.008856,27.6863,17.2154,34.1052,-3.5512,0.3140,114,0,0,-0.010500,0.002438,-0.312514,0.006377,0.076165,-0.002470,1.7238,-2.7449,5.8773
12012,11.0,-0.008195,-0.000691,-0.311187,-0.004889,0.011834,0.003596,-4.0835,-1.0983,5.3038,-0.00009470,0.00018781,-0.13171573,-0.00634736,-0.00838122,-0.00816900,-0.2121,0.6821,-9.7583,-0.038335,-0.023364,-0.004863,27.6863,17.2154,34.1052,-3.5512,0.3140,112,0,0,-0.010448,0.002487,-0.312544,0.007495,0.075477,-0.003128,1.7266,-2.7563,5.9134
12023,11.0,-0.007951,-0.000671,-0.312238,-0.000518,0.011389,-0.008596,-4.1101,-1.1379,5.3436,-0.00003626,0.00022356,-0.13170861,-0.00754169,-0.00877587,-0.00025970,-0.0928,0.7702,-9.7243,-0.014201,-0.054436,0.002907,27.6863,17.2154,34.1052,-3.5512,0.3140,116,0,0,-0.010159,0.002542,-0.312461,0.011807,0.076291,0.000088,1.7659,-2.8254,6.0273
12034,11.0,-0.007693,-0.000640,-0.312236,0.003126,0.011898,-0.006688,-4.1218,-1.1858,5.4151,-0.00000496,0.00028622,-0.13170314,-0.00832562,-0.00831447,-0.00090424,-0.1356,0.8414,-9.7027,-0.002359,-0.058197,0.014231,25.7079,16.5023,33.2548,-3.5512,0.3130,120,0,0,-0.009921,0.002596,-0.312369,0.015676,0.078334,0.002368,1.8362,-2.8907,6.1107
12045,11.0,-0.007440,-0.000618,-0.312307,0.005555,0.011564,-0.006325,-4.1493,-1.2282,5.4950,0.00006137,0.00034300,-0.13169831,-0.00890645,-0.00834620,-0.00089906,-0.2182,0.7988,-9.7428,-0.012333,-0.053638,0.027906,25.7079,16.5023,33.2548,-3.5512,0.3130,116,0,0,-0.009670,0.002673,-0.312342,0.018772,0.080033,0.003826,1.8261,-2.9239,6.1331
12057,12.0,-0.008509,-0.000716,-0.312167,-0.007991,0.009900,-0.003417,-4.1696,-1.1675,5.7400,0.00009930,0.00004306,-0.13173151,-0.00552389,-0.00785096,-0.00243087,-0.2193,0.8003,-9.7416,-0.010127,-0.039287,0.020847,25.7079,16.5023,33.2548,-3.4931,0.3130,127,-2,0,-0.009199,0.002796,-0.312121,0.022842,0.082891,0.007627,1.8779,-3.0152,6.2716
12068,11.0,-0.008330,-0.000725,-0.312211,-0.005492,0.009477,-0.004520,-4.2104,-1.2071,5.8168,0.00017791,0.00013522,-0.13172552,-0.00597472,-0.00792718,-0.00243125,-0.2681,0.8256,-9.8748,-0.030185,-0.036471,0.020758,25.7079,16.5023,33.2548,-3.4931,0.3140,125,0,0,-0.009896,0.002750,-0.312042,0.013637,0.083350,0.008766,1.9410,-3.0267,6.4229
12080,12.0,-0.008199,-0.000760,-0.312178,-0.003989,0.008384,-0.005805,-4.2589,-1.2269,5.9063,0.00022377,0.00018605,-0.13172133,-0.00654356,-0.00733440,-0.00311107,-0.2835,0.7918,-9.9866,-0.051832,-0.021803,0.022894,25.7079,16.5023,33.2548,-3.4931,0.3140,124,0,0,-0.009553,0.002796,-0.312822,0.016864,0.084973,-0.000904,1.9581,-3.0761,6.2829
12091,11.0,-0.008108,-0.000760,-0.312699,-0.003232,0.007685,-0.013578,-4.2826,-1.2486,5.9989,0.00027616,0.00025782,-0.13171926,-0.00639798,-0.00753123,-0.00007771,-0.3071,0.7905,-10.0138,-0.014638,-0.017823,0.009659,25.7079,16.5023,33.2548,-3.4931,0.3140,129,0,0,-0.009417,0.002814,-0.312843,0.017524,0.085046,-0.002260,1.9183,-3.0936,6.3397
12102,11.0,-0.008077,-0.000755,-0.312786,-0.002587,0.007738,-0.015257,-4.2922,-1.2507,6.0802,0.00030166,0.00027435,-0.13171823,-0.00658230,-0.00720893,-0.00059666,-0.2280,0.8383,-10.0095,-0.003149,-0.007086,0.003794,25.7079,16.5023,33.2548,-3.4931,0.3120,127,0,0,-0.009310,0.002853,-0.312741,0.017765,0.086254,-0.002277,1.9782,-3.1300,6.4443
12113,11.0,-0.008167,-0.000764,-0.312958,-0.003292,0.007462,-0.015911,-4.3112,-1.2274,6.1733,0.00036075,0.00025535,-0.13172112,-0.00637529,-0.00736386,-0.00061190,-0.2129,0.8202,-9.8335,-0.005376,0.020105,0.004231,25.7079,16.5023,33.2548,-3.4772,0.3120,127,0,0,-0.009256,0.002958,-0.311782,0.017647,0.088679,0.005320,2.0334,-3.1525,6.5994
12125,12.0,-0.008193,-0.000745,-0.311924,-0.003376,0.007899,-0.001598,-4.3124,-1.2185,6.2706,0.00038134,0.00025650,-0.13172166,-0.00657832,-0.00649844,-0.00880080,-0.2251,0.8428,-9.7676,0.007605,0.003091,0.007260,25.7079,16.5023,33.2548,-3.4772,0.3120,130,0,0,-0.009321,0.003004,-0.311734,0.016508,0.089122,0.005392,2.0136,-3.1305,6.6548
12136,11.0,-0.008127,-0.000693,-0.311942,-0.002313,0.008180,-0.001553,-4.3059,-1.2323,6.3435,0.00042350,0.00029020,-0.13171856,-0.00678852,-0.00670380,-0.00881146,-0.2217,0.8058,-9.7788,0.028219,-0.020215,0.005014,25.7079,16.5023,33.2548,-3.4772,0.3140,130,0,0,-0.009352,0.003047,-0.311678,0.015832,0.090540,0.006314,2.0788,-3.1438,6.7678
12147,11.0,-0.008026,-0.000658,-0.311867,-0.001266,0.008400,-0.000826,-4.3036,-1.2488,6.4208,0.00044474,0.00032655,-0.13171493,-0.00713733,-0.00642782,-0.00942994,-0.2496,0.8185,-9.8181,0.013399,-0.024798,0.012808,25.7105,15.0541,34.1052,-3.4772,0.3140,120,0,0,-0.009206,0.003242,-0.312614,0.017004,0.092857,-0.002794,2.1555,-3.1863,6.9206
12158,11.0,-0.007967,-0.000654,-0.312516,-0.000935,0.007528,-0.008669,-4.3189,-1.2582,6.5187,0.00048150,0.00037130,-0.13171433,-0.00694303,-0.00655970,-0.00521037,-0.2750,0.7531,-9.8221,-0.009003,-0.011231,0.014594,25.7105,15.0541,34.1052,-3.4772,0.3140,117,0,0,-0.009017,0.003400,-0.312563,0.017952,0.094284,-0.000719,2.2092,-3.2332,7.0826
12169,11.0,-0.007869,-0.000687,-0.312543,-0.000037,0.006711,-0.008396,-4.3532,-1.2665,6.6041,0.00052082,0.00040122,-0.13171215,-0.00722534,-0.00613287,-0.00566261,-0.2518,0.7886,-9.8341,-0.039322,-0.014745,0.016604,25.7105,15.0541,34.1052,-3.4772,0.3110,118,0,0,-0.008938,0.003454,-0.311200,0.017934,0.093839,0.014806,2.1899,-3.2412,7.1387
12180,11.0,-0.007803,-0.000761,-0.312634,0.000270,0.005772,-0.008204,-4.4133,-1.2679,6.7033,0.00059901,0.00043723,-0.13171232,-0.00715016,-0.00602155,-0.00565542,-0.2637,0.8230,-9.7600,-0.067791,-0.002296,0.018930,25.7105,15.0541,34.1052,-3.4772,0.3110,113,0,0,-0.008841,0.003469,-0.310976,0.018502,0.094250,0.016127,2.2264,-3.2726,7.2531
12191,11.0,-0.007712,-0.000818,-0.311192,0.000507,0.004609,0.010370,-4.4576,-1.2707,6.7960,0.00063562,0.00046069,-0.13171087,-0.00759871,-0.00482104,-0.01556372,-0.2942,0.7722,-9.7231,-0.056752,-0.009191,0.023530,25.7105,15.0541,34.1052,-3.3610,0.3110,117,0,0,-0.008682,0.003448,-0.310580,0.018597,0.093764,0.019251,2.2056,-3.2670,7.0166
12203,12.0,-0.007526,-0.000796,-0.311066,0.002110,0.004008,0.010598,-4.4664,-1.3040,6.8894,0.00064120,0.00053885,-0.13170566,-0.00783567,-0.00453598,-0.01553783,-0.2725,0.7385,-9.7748,-0.008158,-0.038731,0.017764,25.7105,15.0541,34.1052,-3.3610,0.3140,116,0,0,-0.008567,0.003469,-0.312113,0.018826,0.092845,0.001444,2.1481,-3.2749,7.0946
12214,11.0,-0.007355,-0.000728,-0.310902,0.003429,0.004098,0.010642,-4.4477,-1.3332,6.9577,0.00063805,0.00058784,-0.13169985,-0.00823539,-0.00452130,-0.01586157,-0.2708,0.7490,-9.8443,0.032215,-0.042439,0.007207,25.7105,15.0541,34.1052,-3.3610,0.3140,116,0,0,-0.008391,0.003531,-0.312095,0.020016,0.093308,0.002421,2.2027,-3.3224,7.2058
12225,11.0,-0.007328,-0.000702,-0.310892,0.003002,0.003545,0.009603,-4.4395,-1.3345,7.0537,0.00062741,0.00060368,-0.13170129,-0.00798921,-0.00435154,-0.01515948,-0.2732,0.7219,-9.7744,0.013404,-0.007233,-0.000250,25.7105,15.0541,34.1052,-3.3610,0.3120,114,0,0,-0.008092,0.003745,-0.311992,0.021479,0.094513,0.003568,2.2780,-3.3886,7.3699
12236,11.0,-0.007305,-0.000666,-0.310741,0.002692,0.002291,0.011594,-4.4304,-1.3327,7.1345,0.00062590,0.00060063,-0.13170157,-0.00797140,-0.00434425,-0.01540848,-0.2658,0.6300,-9.6623,0.017702,-0.007178,-0.005209,27.2911,16.4949,33.6915,-3.3610,0.3120,109,0,0,-0.008056,0.003830,-0.311480,0.020762,0.094251,0.009844,2.2732,-3.3866,7.4294
12247,11.0,-0.007790,-0.000719,-0.310608,-0.003571,0.000402,0.012459,-4.4230,-1.3231,7.2964,0.00058156,0.00045477,-0.13172193,-0.00636876,-0.00379619,-0.01540393,-0.2905,0.6452,-9.7218,0.003068,-0.033155,-0.004925,27.2911,16.4949,33.6915,-3.3610,0.3120,108,-1,0,-0.008396,0.003946,-0.311250,0.015096,0.092884,0.013959,2.3404,-3.3954,7.6149
12258,11.0,-0.007590,-0.000723,-0.311267,-0.000606,-0.000288,0.003841,-4.4436,-1.3557,7.3567,0.00059369,0.00053566,-0.13171373,-0.00685421,-0.00409124,-0.01038390,-0.2158,0.6879,-9.7316,-0.026291,-0.040726,0.002930,27.2911,16.4949,33.6915,-3.3610,0.3130,109,0,0,-0.008676,0.003964,-0.311043,0.011509,0.092459,0.016135,2.3999,-3.4254,7.7363
12270,12.0,-0.007413,-0.000765,-0.311219,0.001029,-0.000302,0.004086,-4.4847,-1.3824,7.4405,0.00062962,0.00061628,-0.13170834,-0.00712758,-0.00407003,-0.01037524,-0.2773,0.7991,-9.7634,-0.047509,-0.030040,0.005933,27.2911,16.4949,33.6915,-3.4191,0.3130,112,0,0,-0.008481,0.004025,-0.311652,0.014173,0.092091,0.008916,2.3663,-3.4473,7.7837
12282,12.0,-0.007258,-0.000826,-0.311106,0.001969,-0.000423,0.003295,-4.5318,-1.3975,7.5301,0.00065673,0.00066475,-0.13170406,-0.00750165,-0.00380270,-0.01081877,-0.3019,0.8281,-9.9215,-0.058894,-0.022068,0.016295,27.2911,16.4949,33.6915,-3.4191,0.3130,108,0,0,-0.008155,0.004067,-0.311394,0.017241,0.093459,0.011584,2.3619,-3.4783,7.5500
12294,12.0,-0.007087,-0.000879,-0.310984,0.003015,-0.000854,0.002241,-4.5783,-1.4201,7.6329,0.00069048,0.00074644,-0.13170040,-0.00756988,-0.00368018,-0.01138635,-0.3101,0.8047,-9.9630,-0.055838,-0.025531,0.019643,27.2911,16.4949,33.6915,-3.4191,0.3120,105,0,0,-0.008006,0.004066,-0.311282,0.018184,0.094446,0.011212,2.3825,-3.5157,7.6642
12305,11.0,-0.006936,-0.000876,-0.310914,0.003044,-0.000557,0.001189,-4.5876,-1.4381,7.7126,0.00069149,0.00079128,-0.13169540,-0.00788867,-0.00363290,-0.01172470,-0.3779,0.8219,-9.9372,-0.010433,-0.028963,0.017565,27.2911,16.4949,33.6915,-3.4191,0.3120,114,0,0,-0.007698,0.004105,-0.311013,0.019465,0.095598,0.010556,2.3522,-3.5699,7.8541
12316,11.0,-0.006807,-0.000813,-0.310912,0.003032,-0.000189,-0.000922,-4.5657,-1.4678,7.8110,0.00066584,0.00089122,-0.13169226,-0.00755556,-0.00374850,-0.01174122,-0.3805,0.7708,-9.9772,0.033522,-0.032811,0.009091,27.2911,16.4949,33.6915,-3.4191,0.3120,113,0,0,-0.007561,0.004176,-0.310845,0.019333,0.096013,0.010710,2.3200,-3.5896,7.9296
12327,11.0,-0.006738,-0.000734,-0.311434,0.003041,0.000789,-0.008050,-4.5180,-1.5135,7.1042,0.00063686,0.00091324,-0.13154282,-0.00544983,-0.00353533,-0.00873906,-0.3406,0.7784,-9.9014,0.055413,-0.025103,0.009410,27.2911,16.4949,33.6915,-3.4191,0.3130,112,0,0,-0.007438,0.004277,-0.310744,0.019050,0.097230,0.009907,2.3897,-3.6302,8.0480
12338,11.0,-0.006718,-0.000670,-0.311524,0.002623,0.001183,-0.008360,-4.4881,-1.5171,7.1962,0.00060789,0.00092905,-0.13154270,-0.00526082,-0.00361399,-0.00875031,-0.2970,0.7513,-9.8136,0.045414,-0.011679,0.006536,27.6808,16.5098,34.4727,-3.3821,0.3130,115,0,0,-0.007276,0.004537,-0.311474,0.018511,0.099565,0.000597,2.4717,-3.6784,8.2439
12349,11.0,-0.007371,-0.000730,-0.311560,-0.005160,-0.000209,-0.008022,-4.4812,-1.4752,7.3573,0.00060196,0.00067443,-0.13156909,-0.00360840,-0.00368696,-0.00915188,-0.2839,0.7135,-9.8210,0.015753,-0.000267,0.007810,27.6808,16.5098,34.4727,-3.3821,0.3130,115,-1,0,-0.007246,0.004660,-0.311471,0.018032,0.099908,0.001221,2.4704,-3.6775,8.3162
12360,11.0,-0.007409,-0.000746,-0.311264,-0.005600,-0.001479,-0.004502,-4.4839,-1.4701,7.4634,0.00055599,0.00072518,-0.13157038,-0.00333475,-0.00296708,-0.01142678,-0.3425,0.6624,-9.8859,-0.012235,0.009767,0.006083,27.6808,16.5098,34.4727,-3.3821,0.3120,117,0,0,-0.007693,0.004757,-0.311368,0.012099,0.099022,0.002680,2.5121,-3.6724,8.5443
12371,11.0,-0.008139,-0.000902,-0.311274,-0.013613,-0.004030,-0.004682,-4.5195,-1.4114,7.6202,0.00057490,0.00046806,-0.13159712,-0.00171217,-0.00286929,-0.01172891,-0.3178,0.6819,-9.8579,-0.047321,0.027540,0.008020,27.6808,16.5098,34.4727,-3.3821,0.3120,122,-1,0,-0.008161,0.004723,-0.311156,0.006327,0.097807,0.004647,2.5495,-3.6669,8.6930
12382,11.0,-0.008288,-0.000968,-0.311329,-0.013871,-0.004645,-0.005366,-4.5414,-1.3852,7.7129,0.00056445,0.00048772,-0.13159828,-0.00153429,-0.00264035,-0.01171568,-0.2781,0.7395,-9.8522,-0.033930,0.035946,0.002407,27.6808,16.5098,34.4727,-3.3821,0.3120,125,0,0,-0.008671,0.004656,-0.311065,0.000767,0.095620,0.005345,2.4941,-3.6292,8.7961
12393,11.0,-0.008536,0.000187,-0.311102,-0.015295,0.008772,-0.001938,-4.4944,-1.3734,7.7232,0.00009591,0.00050983,-0.13157567,-0.00154021,-0.00568358,-0.01364083,-0.2783,0.7703,-9.7791,-0.012396,0.017596,0.005663,27.6808,16.5098,34.4727,-3.3821,0.3120,123,0,1,-0.008909,0.004655,-0.310882,0.000857,0.095132,0.007220,2.4946,-3.5661,8.5544
12404,11.0,-0.008588,0.000199,-0.311122,-0.014072,0.007482,-0.001700,-4.4947,-1.3688,7.8069,0.00011214,0.00055815,-0.13157359,-0.00174582,-0.00521000,-0.01359839,-0.2488,0.7247,-9.7717,0.004271,0.006923,0.002356,27.6808,16.5098,34.4727,-3.3821,0.3120,122,0,0,-0.009051,0.005123,-0.310975,0.000511,0.100947,0.006530,2.5544,-3.5740,8.6595
12415,11.0,-0.008620,0.000229,-0.311042,-0.012746,0.006157,-0.000287,-4.4903,-1.3679,7.8809,0.00013749,0.00060367,-0.13157007,-0.00205210,-0.00498737,-0.01415993,-0.2500,0.6918,-9.7750,0.014846,0.000693,-0.001669,27.6808,16.5098,34.4727,-3.4931,0.3120,122,0,0,-0.009117,0.005247,-0.310729,0.002388,0.100562,0.009872,2.5729,-3.5804,8.8336
12426,11.0,-0.008608,0.000289,-0.309910,-0.011661,0.005247,0.012864,-4.4652,-1.3822,7.9626,0.00011010,0.00070062,-0.13156642,-0.00230367,-0.00404187,-0.02064457,-0.3126,0.6869,-9.8092,0.035296,-0.012104,-0.011817,27.6808,16.5098,34.4727,-3.4931,0.3100,123,0,0,-0.009125,0.005335,-0.310633,0.003426,0.100007,0.010914,2.5548,-3.5748,8.8909
12437,11.0,-0.008538,0.000342,-0.309695,-0.009275,0.004597,0.013671,-4.4408,-1.4349,7.2382,0.00012286,0.00078204,-0.13139567,-0.00046365,-0.00318441,-0.02106645,-0.2664,0.6831,-9.8120,0.027068,-0.025138,-0.014574,28.0787,16.5023,34.4958,-3.4931,0.3100,125,0,0,-0.009103,0.005439,-0.309585,0.004439,0.100536,0.022013,2.6278,-3.6047,8.9862
12448,11.0,-0.008433,0.000371,-0.309547,-0.007205,0.004010,0.013140,-4.4387,-1.4581,7.3052,0.00012544,0.00087883,-0.13138917,-0.00083768,-0.00289518,-0.02103446,-0.2769,0.7267,-9.8485,0.005627,-0.026621,-0.013247,28.0787,16.5023,34.4958,-3.4931,0.3100,118,0,0,-0.008948,0.005649,-0.309138,0.007965,0.101123,0.023212,2.6750,-3.6500,9.1285
12459,11.0,-0.008333,0.000368,-0.309650,-0.005176,0.002954,0.010360,-4.4555,-1.4744,7.3677,0.00015249,0.00094974,-0.13138354,-0.00121590,-0.00281514,-0.01960897,-0.2547,0.7043,-9.7911,-0.019062,-0.020801,-0.015878,28.0787,16.5023,34.4958,-3.4931,0.3110,116,0,0,-0.008845,0.005735,-0.308787,0.009599,0.100955,0.025047,2.6438,-3.6585,9.1740
12470,11.0,-0.008228,0.000371,-0.309535,-0.003469,0.002927,0.010607,-4.4684,-1.4917,7.4305,0.00018712,0.00101762,-0.13137810,-0.00156941,-0.00279406,-0.01959733,-0.2603,0.7896,-9.7716,-0.010703,-0.022819,-0.015551,28.0787,16.5023,34.4958,-3.4931,0.3110,119,0,0,-0.008740,0.005793,-0.309420,0.011290,0.101126,0.016256,2.6748,-3.6920,9.2749
12481,11.0,-0.008047,0.000396,-0.309328,-0.001502,0.003514,0.010351,-4.4717,-1.5227,7.4883,0.00020375,0.00110834,-0.13136986,-0.00210669,-0.00263211,-0.02013446,-0.2983,0.8405,-9.9196,0.000529,-0.040810,-0.015275,28.0787,16.5023,34.4958,-3.4931,0.3110,114,0,0,-0.008490,0.005930,-0.308992,0.014284,0.102650,0.019091,2.6960,-3.7005,8.9591
12492,11.0,-0.008396,-0.000856,-0.309068,-0.005750,-0.009644,0.009887,-4.5491,-1.5100,7.6745,0.00080437,0.00092222,-0.13141111,-0.00095554,-0.00014257,-0.02084335,-0.3019,0.9200,-9.9954,-0.010078,-0.026091,-0.001698,28.0787,16.5023,34.4958,-3.4350,0.3100,112,-1,-1,-0.008682,0.005510,-0.308813,0.011646,0.097630,0.018648,2.6305,-3.7014,9.0331
12503,11.0,-0.008406,-0.000902,-0.308910,-0.005648,-0.007519,0.009040,-4.5628,-1.5038,7.7503,0.00078587,0.00094850,-0.13140762,-0.00110168,-0.00022238,-0.02117968,-0.2919,0.9341,-9.9245,-0.020762,0.004984,0.002591,28.0787,16.5023,34.4958,-3.4350,0.3100,112,0,0,-0.008841,0.005104,-0.308666,0.009591,0.096259,0.014880,2.5878,-3.7242,9.2179
12514,11.0,-0.009141,-0.001045,-0.308808,-0.013723,-0.006702,0.009435,-4.5907,-1.4509,7.9054,0.00085885,0.00068196,-0.13143845,0.00062056,-0.00110125,-0.02129040,-0.2915,0.9408,-9.7470,-0.020837,0.026413,0.005989,28.0787,16.5023,34.4958,-3.4350,0.3100,110,-1,0,-0.008861,0.005116,-0.308442,0.009308,0.098586,0.015987,2.6137,-3.7343,9.3336
12525,11.0,-0.009248,-0.001084,-0.309313,-0.013910,-0.004962,0.002872,-4.5981,-1.4321,7.9961,0.00084985,0.00070472,-0.13143553,0.00060969,-0.00141407,-0.01794679,-0.2941,0.9172,-9.7305,-0.008614,0.022388,0.026003,28.0787,16.5023,34.4958,-3.4350,0.3110,112,0,0,-0.009379,0.005057,-0.308285,0.003186,0.098831,0.017242,2.5446,-3.6887,9.4309
12537,12.0,-0.009317,-0.001086,-0.309281,-0.013325,-0.004492,0.002474,-4.5916,-1.4277,8.1034,0.00082628,0.00077955,-0.13143043,0.00060656,-0.00148722,-0.01795269,-0.2970,0.7776,-9.8259,0.010690,0.007034,0.033577,27.2911,17.2154,33.2778,-3.4350,0.3110,114,0,0,-0.009537,0.005121,-0.309142,0.002528,0.101255,0.008149,2.5157,-3.6706,9.6467
12548,11.0,-0.009402,-0.001074,-0.309180,-0.012814,-0.004757,0.002762,-4.5727,-1.4432,7.5960,0.00080440,0.00081111,-0.13128681,0.00236728,-0.00096811,-0.01838916,-0.3073,0.6868,-9.8580,0.017872,0.011373,0.025080,27.2911,17.2154,33.2778,-3.4350,0.3110,106,0,0,-0.009577,0.005183,-0.309059,0.002863,0.102022,0.008888,2.5584,-3.6848,9.7784
12559,11.0,-0.009554,-0.001057,-0.307928,-0.013114,-0.005545,0.016882,-4.5429,-1.4226,7.6959,0.00068494,0.00083208,-0.13128692,0.00233879,0.00011976,-0.02490178,-0.2854,0.6216,-9.8166,0.026916,0.025751,0.013592,27.2911,17.2154,33.2778,-3.4350,0.3080,105,0,0,-0.009723,0.005334,-0.308780,0.002816,0.100999,0.010734,2.5800,-3.6759,9.9864
12570,11.0,-0.009669,-0.001042,-0.307696,-0.012855,-0.006099,0.018067,-4.5280,-1.4072,7.7693,0.00064996,0.00084976,-0.13128385,0.00224960,-0.00005567,-0.02515227,-0.2645,0.6392,-9.7505,0.021938,0.018349,-0.002460,27.2911,17.2154,33.2778,-3.3821,0.3080,107,0,0,-0.009855,0.005410,-0.307636,0.002428,0.099874,0.022672,2.5681,-3.6466,10.0562
12581,11.0,-0.009678,-0.001050,-0.307497,-0.011564,-0.006969,0.018062,-4.5199,-1.4104,7.8522,0.00054369,0.00093322,-0.13127840,0.00207723,0.00056827,-0.02510230,-0.2796,0.6170,-9.8134,-0.005445,-0.000268,0.001271,27.2911,17.2154,33.2778,-3.3821,0.3080,106,0,0,-0.009956,0.005479,-0.307356,0.002476,0.099634,0.024651,2.6190,-3.6495,10.1667
12592,11.0,-0.009619,-0.001054,-0.307074,-0.009494,-0.007026,0.020017,-4.5248,-1.4235,7.9119,0.00052070,0.00101964,-0.13126940,0.00160146,0.00055479,-0.02630377,-0.2528,0.6962,-9.8713,-0.008169,-0.014805,-0.011267,27.2911,17.2154,33.2778,-3.3821,0.3080,105,0,0,-0.009940,0.005595,-0.306782,0.004924,0.098353,0.026688,2.6373,-3.6309,9.9293
12603,11.0,-0.009578,-0.001076,-0.306859,-0.007982,-0.006023,0.018997,-4.5385,-1.4315,7.9711,0.00053201,0.00109107,-0.13126214,0.00129435,0.00025822,-0.02631878,-0.2504,0.8240,-9.8916,-0.015117,-0.008782,-0.015059,27.2911,17.2154,33.2778,-3.3821,0.3110,112,0,0,-0.009878,0.005658,-0.308679,0.006440,0.098044,0.003631,2.5800,-3.6259,9.9855
12613,10.0,-0.009597,-0.001126,-0.306614,-0.007571,-0.004626,0.019999,-4.5581,-1.4234,8.0402,0.00053426,0.00111868,-0.13125947,0.00114715,0.00029912,-0.02660457,-0.2513,0.9113,-9.7561,-0.030304,0.009821,-0.000959,27.2911,17.2154,33.2778,-3.3821,0.3110,112,0,0,-0.009829,0.005700,-0.308645,0.007586,0.099428,0.003689,2.6073,-3.6481,10.0793
12624,11.0,-0.009659,-0.001148,-0.308294,-0.007636,-0.002588,-0.000342,-4.5728,-1.4120,8.1166,0.00061491,0.00113509,-0.13125679,0.00143039,-0.00131930,-0.01666698,-0.2454,0.9456,-9.6021,-0.001114,0.012107,0.008564,27.6890,16.8477,32.8869,-3.3610,0.3110,111,0,0,-0.009860,0.005740,-0.308494,0.007424,0.102096,0.007438,2.5567,-3.6377,10.2445
12636,12.0,-0.009020,-0.001036,-0.308253,-0.000159,0.000814,0.001490,-4.5571,-1.4469,8.1453,0.00060141,0.00147467,-0.13121957,-0.00021436,-0.00130108,-0.01682646,-0.2757,0.9379,-9.6633,0.023795,-0.010205,0.016183,27.6890,16.8477,32.8869,-3.3610,0.3080,105,1,0,-0.009894,0.005792,-0.307594,0.007146,0.103277,0.019310,2.5022,-3.6167,10.3025
12647,11.0,-0.008932,-0.000990,-0.308238,0.000108,0.001682,0.001304,-4.5469,-1.4642,8.2432,0.00062485,0.00155592,-0.13121510,-0.00012830,-0.00163551,-0.01685403,-0.3170,0.8377,-9.8031,0.026463,-0.024004,0.028343,27.6890,16.8477,32.8869,-3.3610,0.3080,109,0,0,-0.009395,0.006054,-0.307168,0.012147,0.106975,0.023539,2.5075,-3.6515,10.4642
12658,11.0,-0.008891,-0.000968,-0.309130,-0.000109,0.001843,-0.009407,-4.5330,-1.4946,7.7147,0.00063207,0.00157628,-0.13104968,0.00208635,-0.00129883,-0.01220244,-0.3471,0.7841,-9.8025,0.013434,-0.011987,0.028553,27.6890,16.8477,32.8869,-3.3610,0.3110,122,0,0,-0.009310,0.006157,-0.306871,0.012351,0.107971,0.025164,2.5514,-3.6815,10.5868
12669,11.0,-0.008890,-0.000940,-0.309236,-0.000570,0.001154,-0.009824,-4.5197,-1.4940,7.8226,0.00058870,0.00161249,-0.13105039,0.00232026,-0.00101099,-0.01218693,-0.3156,0.7040,-9.8301,0.017132,-0.002976,0.024809,27.6890,16.8477,32.8869,-3.3610,0.3110,122,0,0,-0.009257,0.006251,-0.308678,0.011985,0.107333,0.003375,2.4949,-3.6786,10.6783
12680,11.0,-0.008916,-0.000913,-0.309299,-0.001398,0.000349,-0.009846,-4.5091,-1.4857,7.9133,0.00057822,0.00160653,-0.13105059,0.00234353,-0.00104528,-0.01244528,-0.3267,0.6914,-9.8479,0.019507,0.002525,0.013059,27.6890,16.8477,32.8869,-3.3610,0.3110,120,0,0,-0.009250,0.006425,-0.308562,0.010970,0.105937,0.004956,2.5218,-3.6512,10.4432
12691,11.0,-0.008939,-0.000886,-0.308066,-0.002050,-0.000235,0.004306,-4.4926,-1.4837,8.0074,0.00052736,0.00164429,-0.13105173,0.00244361,-0.00024549,-0.01925504,-0.3261,0.7033,-9.9363,0.020267,0.001575,0.000069,27.6890,16.8477,32.8869,-3.3610,0.3080,127,0,0,-0.009278,0.006514,-0.308515,0.010202,0.105510,0.005109,2.5659,-3.6606,10.5601
12702,11.0,-0.008925,-0.000916,-0.307990,-0.001972,-0.000548,0.003149,-4.5121,-1.4787,8.0903,0.00054275,0.00166003,-0.13105077,0.00236023,-0.00014797,-0.01943676,-0.2859,0.7830,-9.9395,-0.024850,0.001415,0.002860,27.6890,16.8477,32.8869,-3.3610,0.3080,130,0,0,-0.009287,0.006653,-0.307472,0.009500,0.104831,0.013693,2.5592,-3.6606,10.7382
12713,11.0,-0.008941,-0.000980,-0.307955,-0.001753,-0.000901,0.003373,-4.5479,-1.4637,8.1795,0.00058154,0.00164697,-0.13105154,0.00227502,-0.00009088,-0.01942933,-0.2300,0.7964,-9.7740,-0.046292,0.011526,0.013321,27.6890,16.8477,32.8869,-3.3081,0.3080,120,0,0,-0.009269,0.006682,-0.307315,0.009646,0.104289,0.013776,2.4848,-3.6440,10.8064
12724,11.0,-0.008943,-0.000987,-0.308446,-0.001137,-0.000820,-0.001596,-4.5538,-1.4581,8.2688,0.00058172,0.00165508,-0.13105072,0.00232475,-0.00031122,-0.01675851,-0.2042,0.7679,-9.6805,-0.005011,0.000467,0.013365,28.8717,17.2154,33.6915,-3.3081,0.3100,126,0,0,-0.009275,0.006687,-0.307174,0.009835,0.104190,0.015189,2.4835,-3.6491,10.9259
12735,11.0,-0.008921,-0.000942,-0.308463,-0.000605,-0.000972,-0.001490,-4.5289,-1.4609,8.3511,0.00051213,0.00167117,-0.13104819,0.00219949,-0.00007695,-0.01673853,-0.2433,0.6968,-9.7896,0.030834,-0.011211,0.002699,28.8717,17.2154,33.6915,-3.3081,0.3100,126,0,0,-0.009268,0.006807,-0.308202,0.010424,0.103510,0.005552,2.4477,-3.6395,11.1114
12746,11.0,-0.008932,-0.000928,-0.308452,-0.000641,-0.001155,-0.001235,-4.5233,-1.4550,8.4360,0.00049909,0.00167088,-0.13104776,0.00219911,-0.00013061,-0.01688720,-0.2535,0.7316,-9.8037,0.010907,0.000202,0.005216,28.8717,17.2154,33.6915,-3.3081,0.3100,120,0,0,-0.009683,0.006824,-0.308149,0.005739,0.101831,0.006469,2.4173,-3.6100,11.1915
12757,11.0,-0.008962,-0.000938,-0.307089,-0.000838,-0.001563,0.014999,-4.5249,-1.4431,8.5243,0.00046847,0.00165778,-0.13104920,0.00203533,0.00062157,-0.02363245,-0.2464,0.7259,-9.7793,-0.004941,0.007527,0.003390,28.8717,17.2154,33.6915,-3.3081,0.3070,116,0,0,-0.009692,0.006895,-0.308048,0.006165,0.102041,0.007739,2.4510,-3.6220,11.2960
12768,11.0,-0.008911,-0.000936,-0.306905,-0.000063,-0.001835,0.014899,-4.5200,-1.4761,7.9737,0.00046945,0.00168474,-0.13086274,0.00424930,0.00138110,-0.02373772,-0.2707,0.7176,-9.8361,-0.002865,-0.012433,0.005079,28.8717,17.2154,33.6915,-3.3081,0.3070,116,0,0,-0.009720,0.006998,-0.306660,0.006921,0.101137,0.021678,2.4258,-3.6110,11.4569
12779,11.0,-0.008805,-0.000890,-0.306749,0.001397,-0.001534,0.013505,-4.5024,-1.4920,8.0481,0.00042483,0.00172490,-0.13085650,0.00389345,0.00142007,-0.02372657,-0.2292,0.7367,-9.9306,0.024091,-0.028667,0.001580,28.8717,17.2154,33.6915,-3.3081,0.3070,112,0,0,-0.009662,0.007073,-0.306419,0.007809,0.100590,0.022421,2.3774,-3.6054,11.5141
12790,11.0,-0.008701,-0.000825,-0.307306,0.002503,-0.001002,0.003205,-4.4771,-1.5104,8.1223,0.00038940,0.00177317,-0.13085076,0.00378404,0.00099030,-0.02037062,-0.2501,0.7491,-10.0032,0.039034,-0.030258,-0.002134,28.8717,17.2154,33.6915,-3.3980,0.3090,118,0,0,-0.009569,0.007170,-0.306198,0.009510,0.101449,0.022366,2.4394,-3.6014,11.1364
12801,11.0,-0.008652,-0.000783,-0.307284,0.002628,-0.000030,0.000800,-4.4636,-1.5167,8.2051,0.00040237,0.00179192,-0.13084838,0.00376726,0.00059202,-0.02040102,-0.2673,0.8266,-10.0114,0.029501,-0.015791,0.006922,28.8717,17.2154,33.6915,-3.3980,0.3090,111,0,0,-0.009395,0.007402,-0.307150,0.011665,0.103059,0.006635,2.4480,-3.6275,11.2872
12812,11.0,-0.008652,-0.000767,-0.307224,0.002049,0.000618,-0.000162,-4.4566,-1.5106,8.2990,0.00039408,0.00177969,-0.13084929,0.00381313,0.00057411,-0.02070743,-0.2786,0.8242,-9.9465,0.014294,-0.001771,0.016266,28.8717,17.2154,33.6915,-3.3980,0.3090,113,0,0,-0.009355,0.007503,-0.307096,0.011789,0.103518,0.005467,2.4069,-3.6179,11.3456
12823,11.0,-0.008677,-0.000758,-0.307086,0.001057,0.000857,0.000078,-4.4555,-1.5025,8.3992,0.00041433,0.00178345,-0.13085185,0.00408248,0.00041468,-0.02143735,-0.3025,0.8032,-9.9283,0.010440,0.004790,0.018407,28.8717,17.2154,33.6915,-3.3980,0.3080,109,0,0,-0.009341,0.007582,-0.306969,0.011605,0.104601,0.005823,2.4395,-3.6299,11.4533
12834,11.0,-0.008590,-0.001896,-0.307043,0.001754,-0.012320,-0.000063,-4.4912,-1.4819,8.5254,0.00098180,0.00174231,-0.13087545,0.00414437,0.00308274,-0.02145485,-0.2731,0.7273,-9.8650,0.026063,0.015046,0.012013,26.8906,16.5098,32.4047,-3.3980,0.3080,109,0,-1,-0.009397,0.007713,-0.306954,0.009768,0.104348,0.004810,2.4093,-3.6112,11.6408
12845,11.0,-0.008710,-0.001896,-0.307044,-0.000215,-0.010942,-0.000221,-4.4714,-1.4592,8.6233,0.00090548,0.00171015,-0.13087921,0.00459108,0.00270416,-0.02149678,-0.2951,0.7662,-9.8117,0.025878,0.023179,0.013078,26.8906,16.5098,32.4047,-3.3980,0.3080,106,0,0,-0.009378,0.007358,-0.306912,0.009708,0.098600,0.005068,2.3495,-3.5836,11.7184
12856,11.0,-0.008866,-0.001912,-0.308042,-0.001907,-0.009795,-0.011202,-4.4585,-1.4272,8.7199,0.00084156,0.00164241,-0.13088365,0.00502345,0.00202900,-0.01681691,-0.2432,0.7608,-9.7383,0.016640,0.031661,0.016992,26.8906,16.5098,32.4047,-3.4561,0.3100,106,0,0,-0.009470,0.007426,-0.306861,0.008210,0.099248,0.005762,2.3882,-3.5779,11.8311
12867,11.0,-0.008984,-0.001913,-0.308162,-0.003742,-0.008848,-0.010619,-4.4419,-1.4088,8.8224,0.00077497,0.00164935,-0.13088675,0.00551616,0.00178608,-0.01684927,-0.3195,0.7484,-9.7401,0.021551,0.022627,0.016230,26.8906,16.5098,32.4047,-3.4561,0.3100,109,0,0,-0.009730,0.007531,-0.308223,0.004741,0.099375,-0.005903,2.3697,-3.5255,12.0241
12878,11.0,-0.008877,-0.003101,-0.308200,-0.002629,-0.021313,-0.010426,-4.4837,-1.4173,8.3813,0.00133133,0.00164290,-0.13072520,0.00763333,0.00509264,-0.01704130,-0.3162,0.7287,-9.8680,0.001597,0.012933,0.017879,26.8906,16.5098,32.4047,-3.4561,0.3100,105,0,-1,-0.009843,0.007592,-0.308196,0.003139,0.098893,-0.003436,2.3276,-3.4957,12.0999
12889,11.0,-0.008994,-0.003189,-0.307575,-0.004488,-0.019944,-0.002183,-4.5017,-1.3938,8.4807,0.00124783,0.00166468,-0.13072686,0.00805639,0.00502081,-0.02053803,-0.3303,0.7621,-9.8301,-0.035221,0.033211,0.014695,26.8906,16.5098,32.4047,-3.4561,0.3080,105,0,0,-0.009871,0.007234,-0.308269,0.002567,0.093833,-0.002680,2.2920,-3.4425,11.8405
12900,11.0,-0.009160,-0.003268,-0.307529,-0.006242,-0.018350,-0.000275,-4.5127,-1.3580,8.5691,0.00117025,0.00161811,-0.13072848,0.00826025,0.00468143,-0.02087603,-0.2713,0.7770,-9.6919,-0.023401,0.041143,0.011689,26.8906,16.5098,32.4047,-3.4561,0.3080,107,0,0,-0.009984,0.007213,-0.307531,0.001025,0.093984,0.006303,2.2920,-3.4286,11.9538
12911,11.0,-0.009225,-0.003295,-0.307526,-0.006709,-0.015482,0.000837,-4.5118,-1.3482,8.6479,0.00114517,0.00165048,-0.13072373,0.00834645,0.00384927,-0.02094322,-0.2598,0.8725,-9.6878,0.006101,0.012209,0.006973,26.8906,16.5098,32.4047,-3.4561,0.3080,107,0,0,-0.010230,0.007214,-0.307285,-0.001178,0.094136,0.011245,2.2307,-3.3800,12.1386
12922,11.0,-0.008603,-0.003194,-0.308251,0.000565,-0.011715,-0.006326,-4.4940,-1.3779,8.6871,0.00106375,0.00201618,-0.13068362,0.00694012,0.00326696,-0.01752573,-0.2524,0.8424,-9.6562,0.020907,-0.003838,0.012667,26.8906,16.5098,32.4047,-3.4561,0.3100,116,1,0,-0.009845,0.007359,-0.307170,0.003562,0.096135,0.013298,2.1742,-3.3787,12.1864
12933,11.0,-0.008773,-0.002036,-0.308316,-0.001846,0.002764,-0.005580,-4.4423,-1.3782,8.7470,0.00043141,0.00204447,-0.13065945,0.00719719,0.00013809,-0.01778286,-0.2727,0.7965,-9.7236,0.002767,-0.002439,0.018307,27.2884,17.2228,34.0821,-3.5089,0.3100,116,0,1,-0.009942,0.007866,-0.308365,0.002374,0.102595,0.001466,2.2169,-3.3882,12.2910
12945,12.0,-0.008730,-0.002017,-0.308273,-0.001930,0.001667,-0.003333,-4.4447,-1.3816,8.8466,0.00044087,0.00207868,-0.13065636,0.00703711,0.00022587,-0.01826508,-0.3108,0.6817,-9.7166,0.001623,-0.010058,0.018805,27.2884,17.2228,34.0821,-3.5089,0.3100,118,0,0,-0.010011,0.008445,-0.308212,0.001609,0.106362,0.005813,2.1950,-3.3888,12.4693
12956,11.0,-0.008665,-0.001993,-0.308126,-0.001352,0.000746,0.000260,-4.4362,-1.3920,8.9432,0.00038060,0.00214669,-0.13065359,0.00697785,0.00076158,-0.01901572,-0.2791,0.6532,-9.6599,0.005564,-0.015591,0.015902,27.2884,17.2228,34.0821,-3.5089,0.3090,113,0,0,-0.009974,0.008526,-0.308143,0.001993,0.104449,0.007524,2.1417,-3.3855,12.5468
12967,11.0,-0.008590,-0.001954,-0.308036,-0.000578,0.000324,0.002657,-4.4268,-1.4038,9.0230,0.00037015,0.00219443,-0.13064855,0.00676713,0.00075008,-0.01938249,-0.2611,0.6800,-9.6703,0.017050,-0.020217,0.003649,27.2884,17.2228,34.0821,-3.5089,0.3090,122,0,0,-0.009855,0.008709,-0.307955,0.003937,0.101959,0.012002,2.1152,-3.4026,12.7223
12978,11.0,-0.008500,-0.001910,-0.308005,0.000013,-0.000266,0.002931,-4.4088,-1.4212,9.1153,0.00029767,0.00227803,-0.13064475,0.00675411,0.00110764,-0.01935595,-0.2970,0.6566,-9.7783,0.019166,-0.023278,0.008807,27.2884,17.2228,34.0821,-3.5089,0.3090,122,0,0,-0.009786,0.008807,-0.307705,0.004927,0.101509,0.015564,2.1417,-3.4256,12.8218
12990,12.0,-0.008347,-0.001895,-0.308470,0.001782,-0.000868,-0.003540,-4.4097,-1.4670,8.7011,0.00030556,0.00235231,-0.13045719,0.00859946,0.00165112,-0.01714933,-0.2608,0.6792,-9.8645,-0.007351,-0.033363,0.015314,27.2884,17.2228,34.0821,-3.5089,0.3100,120,0,0,-0.009706,0.008913,-0.307552,0.005841,0.100368,0.016690,2.1243,-3.3994,12.4467
13001,11.0,-0.008226,-0.001901,-0.308515,0.002667,-0.001957,-0.004501,-4.4188,-1.4816,8.7970,0.00024757,0.00242212,-0.13045394,0.00849537,0.00212641,-0.01711114,-0.2849,0.6508,-9.8895,-0.021904,-0.021760,0.015843,27.2884,17.2228,34.0821,-3.5089,0.3100,122,0,0,-0.009430,0.009073,-0.308437,0.008884,0.098638,0.005198,2.0689,-3.4357,12.6183
13012,11.0,-0.008121,-0.001883,-0.308438,0.003256,-0.002630,-0.005194,-4.4201,-1.4941,8.8821,0.00023063,0.00246424,-0.13044953,0.00830265,0.00210359,-0.01774343,-0.2916,0.6718,-10.0144,-0.000531,-0.022451,0.009770,27.2884,17.2228,34.0821,-3.6041,0.3100,121,0,0,-0.009315,0.009133,-0.308388,0.009832,0.097842,0.005139,2.0711,-3.4590,12.7217
13023,11.0,-0.008089,-0.001904,-0.308759,0.002237,-0.003333,-0.010050,-4.4307,-1.4974,8.9811,0.00019410,0.00252961,-0.13045153,0.00875854,0.00220073,-0.01663047,-0.3647,0.7067,-9.9717,-0.019390,-0.001546,0.007105,27.2884,17.2228,34.0821,-3.6041,0.3100,120,0,0,-0.009135,0.009277,-0.308794,0.010226,0.096121,-0.002569,2.0259,-3.4753,12.8903
13034,11.0,-0.008137,-0.001931,-0.308767,0.000617,-0.003928,-0.009381,-4.4404,-1.4803,9.0699,0.00018193,0.00249668,-0.13045402,0.00888101,0.00217902,-0.01711861,-0.3384,0.7089,-9.8506,-0.013185,0.014495,0.008669,28.4739,17.2228,34.4958,-3.6041,0.3100,114,0,0,-0.009115,0.009314,-0.308715,0.009195,0.094907,-0.002025,1.9607,-3.4626,12.9634
13045,11.0,-0.008369,-0.000770,-0.308872,-0.002869,0.008680,-0.009646,-4.3913,-1.4737,9.1272,-0.00046861,0.00252421,-0.13043258,0.00949415,-0.00034422,-0.01733323,-0.3442,0.7102,-9.8194,-0.007141,0.011713,0.001401,28.4739,17.2228,34.4958,-3.6041,0.3100,116,0,1,-0.009149,0.009342,-0.308736,0.007766,0.094397,-0.001718,1.9659,-3.4584,13.0703
13056,11.0,-0.008385,-0.000749,-0.308904,-0.003062,0.007556,-0.008929,-4.3904,-1.4682,9.2123,-0.00043070,0.00252729,-0.13043387,0.00946181,-0.00015708,-0.01764581,-0.2823,0.7279,-9.8101,0.009496,0.001438,0.001596,28.4739,17.2228,34.4958,-3.6041,0.3100,112,0,0,-0.009417,0.010297,-0.308973,0.003350,0.102395,-0.002421,1.9576,-3.4353,13.2287
13067,11.0,-0.008418,-0.000725,-0.309002,-0.003186,0.006834,-0.008966,-4.3850,-1.4612,9.2962,-0.00040306,0.00252719,-0.13043557,0.00949395,-0.00001481,-0.01763551,-0.2563,0.7461,-9.7990,0.015067,0.003774,-0.001301,28.4739,17.2228,34.4958,-3.6041,0.3100,118,0,0,-0.009432,0.010370,-0.308998,0.003150,0.101030,-0.001704,1.9062,-3.4179,13.2958
13078,11.0,-0.008516,-0.000719,-0.308965,-0.004493,0.005831,-0.007641,-4.3827,-1.4413,9.3779,-0.00037349,0.00249210,-0.13044006,0.00960808,0.00015092,-0.01824205,-0.3041,0.7382,-9.8248,0.010319,0.019587,-0.006397,28.4739,17.2228,34.4958,-3.6041,0.3100,116,0,0,-0.009458,0.010439,-0.308873,0.003026,0.100694,0.000728,1.9255,-3.4212,13.3960
13089,11.0,-0.008622,-0.000740,-0.309021,-0.005240,0.004557,-0.007522,-4.3914,-1.4189,9.4658,-0.00035440,0.00246455,-0.13044535,0.00977864,0.00045196,-0.01835051,-0.2554,0.7190,-9.8188,-0.009474,0.024470,-0.000533,28.4739,17.2228,34.4958,-3.5089,0.3100,116,0,0,-0.009632,0.010535,-0.308855,0.001204,0.098883,0.001862,1.9104,-3.3534,13.0724
13100,11.0,-0.008649,-0.000757,-0.309024,-0.005206,0.004327,-0.006389,-4.3967,-1.4355,8.9891,-0.00030491,0.00247030,-0.13022895,0.01212616,0.00146522,-0.01868503,-0.2722,0.7935,-9.7752,-0.011828,0.006612,-0.002905,28.4739,17.2228,34.4958,-3.5089,0.3100,116,0,0,-0.009723,0.010564,-0.309079,0.000616,0.097362,-0.000010,1.8464,-3.3188,13.1386
13111,11.0,-0.008682,-0.000763,-0.309091,-0.004869,0.004097,-0.005829,-4.4059,-1.4253,9.0716,-0.00025642,0.00246374,-0.13022858,0.01199472,0.00146041,-0.01868172,-0.2190,0.7851,-9.7436,-0.003947,0.006587,0.005640,28.4739,17.2228,34.4958,-3.5089,0.3100,114,0,0,-0.009756,0.010595,-0.309076,0.000431,0.097120,0.000985,1.8483,-3.3177,13.2350
13122,11.0,-0.008578,-0.000720,-0.309553,-0.003746,0.004847,-0.012109,-4.3968,-1.4448,9.1493,-0.00024158,0.00254504,-0.13022116,0.01172673,0.00141775,-0.01701922,-0.2829,0.8491,-9.9491,0.019220,-0.027377,0.001832,28.4739,17.2228,34.4958,-3.5089,0.3110,108,0,0,-0.009763,0.010715,-0.308919,0.001454,0.096923,0.003885,1.8035,-3.3080,13.3928
13133,11.0,-0.008501,-0.000711,-0.309695,-0.003308,0.005079,-0.013829,-4.4125,-1.4591,9.2460,-0.00014850,0.00264238,-0.13021725,0.01177151,0.00113111,-0.01704287,-0.3166,0.8553,-9.9419,-0.005110,-0.016376,0.023223,26.4981,16.5023,34.4958,-3.5089,0.3110,112,0,0,-0.009672,0.010816,-0.309770,0.002524,0.097217,-0.006149,1.7489,-3.3105,13.4517
13144,11.0,-0.008479,-0.000698,-0.309754,-0.003597,0.004000,-0.014209,-4.4168,-1.4590,9.3395,-0.00012311,0.00267118,-0.13021541,0.01163925,0.00127430,-0.01747793,-0.3402,0.7239,-9.9417,0.000259,-0.004851,0.019954,26.4981,16.5023,34.4958,-3.5089,0.3110,105,0,0,-0.009536,0.010955,-0.309819,0.002898,0.097187,-0.006452,1.6950,-3.3283,13.6356
13156,12.0,-0.008547,-0.000665,-0.309407,-0.004721,0.003347,-0.007746,-4.3996,-1.4509,9.4456,-0.00013743,0.00270290,-0.13021873,0.01190230,0.00158051,-0.01962442,-0.3238,0.7198,-9.7535,0.025746,0.009244,0.010734,26.4981,16.5023,34.4958,-3.4878,0.3100,107,0,0,-0.009522,0.011017,-0.309766,0.002453,0.096483,-0.005487,1.7037,-3.3359,13.7441
13167,11.0,-0.008637,-0.000622,-0.309412,-0.005332,0.003020,-0.005562,-4.3764,-1.4373,9.5312,-0.00014455,0.00268465,-0.13022026,0.01196449,0.00157216,-0.01994504,-0.2576,0.7104,-9.6815,0.039165,0.011538,0.004719,26.4981,16.5023,34.4958,-3.4878,0.3100,103,0,0,-0.009646,0.011171,-0.309550,0.000474,0.094760,0.000200,1.6927,-3.3154,13.9261
13178,11.0,-0.008690,-0.000611,-0.309463,-0.005332,0.002024,-0.003729,-4.3674,-1.4270,9.6211,-0.00018473,0.00268827,-0.13022134,0.01195793,0.00197807,-0.01991406,-0.2479,0.6606,-9.6376,0.009162,0.008793,0.007442,26.4981,16.5023,34.4958,-3.4878,0.3100,107,0,0,-0.009725,0.011249,-0.309447,-0.000108,0.093621,0.003205,1.6592,-3.2898,13.9952
13189,11.0,-0.008719,-0.000612,-0.309714,-0.005106,0.000963,-0.004100,-4.3715,-1.4199,9.7056,-0.00017339,0.00270247,-0.13022040,0.01193045,0.00195825,-0.01899115,-0.2502,0.6580,-9.6039,-0.001933,0.005579,0.005648,26.4981,16.5023,34.4958,-3.4878,0.3110,107,0,0,-0.009776,0.011305,-0.309406,-0.000058,0.092852,0.005599,1.6958,-3.2616,13.6252
13200,11.0,-0.008722,-0.000570,-0.309756,-0.004826,-0.000053,-0.003565,-4.3465,-1.4243,9.7896,-0.00026398,0.00275656,-0.13021906,0.01194893,0.00244813,-0.01895528,-0.2844,0.6119,-9.7577,0.025768,-0.005348,-0.005735,26.4981,16.5023,34.4958,-3.4878,0.3110,112,0,0,-0.009837,0.011416,-0.309867,0.000008,0.090412,0.004356,1.6565,-3.2417,13.7917
13211,11.0,-0.008728,-0.000532,-0.309709,-0.004412,-0.000674,-0.003984,-4.3234,-1.4481,9.3556,-0.00027095,0.00277896,-0.12999997,0.01410894,0.00319009,-0.01936039,-0.2775,0.6494,-9.9456,0.026594,-0.005389,-0.009967,26.4981,16.5023,34.4958,-3.4878,0.3110,103,0,0,-0.009842,0.011506,-0.309823,0.000203,0.089136,0.005403,1.6269,-3.2315,13.8532
13223,12.0,-0.008817,-0.000532,-0.309906,-0.005406,-0.000884,-0.007113,-4.3171,-1.4353,9.4395,-0.00028148,0.00279401,-0.13000225,0.01438957,0.00312528,-0.01879835,-0.2978,0.7339,-9.9235,0.010447,0.016068,-0.014481,26.8933,16.1421,32.8412,-3.4878,0.3110,110,0,0,-0.009903,0.011647,-0.310029,-0.000158,0.088268,0.001423,1.6093,-3.2177,13.9963
13234,11.0,-0.008944,-0.000586,-0.309909,-0.005940,-0.000791,-0.005892,-4.3348,-1.4084,9.5196,-0.00026311,0.00275581,-0.13000660,0.01452771,0.00322093,-0.01910529,-0.2015,0.7913,-9.7639,-0.022862,0.030901,-0.005858,26.8933,16.1421,32.8412,-3.4878,0.3110,109,0,0,-0.009992,0.011667,-0.309927,-0.001247,0.088549,0.002622,1.6162,-3.2060,14.0849
13245,11.0,-0.009035,-0.000613,-0.309961,-0.006309,-0.000499,-0.003641,-4.3447,-1.3885,9.6042,-0.00023319,0.00273207,-0.13000755,0.01452249,0.00310096,-0.01911388,-0.2210,0.7802,-9.5902,-0.007211,0.020128,0.008105,26.8933,16.1421,32.8412,-3.4878,0.3110,119,0,0,-0.010101,0.011666,-0.309901,-0.001940,0.088003,0.003725,1.5464,-3.1667,14.1443
13256,11.0,-0.009029,-0.000602,-0.310491,-0.005652,0.000064,-0.006680,-4.3412,-1.3898,9.6892,-0.00023474,0.00277191,-0.13000353,0.01442958,0.00295209,-0.01707025,-0.2274,0.7658,-9.5393,0.008288,-0.004279,0.009728,26.8933,16.1421,32.8412,-3.4878,0.3120,119,0,0,-0.010199,0.011674,-0.309854,-0.002505,0.088156,0.006343,1.5469,-3.1532,14.2410
