timestamp_ms,dt_ms,pos_x,pos_y,pos_z,vel_x,vel_y,vel_z,roll_deg,pitch_deg,yaw_deg,gyro_bias_x,gyro_bias_y,gyro_bias_z,accel_bias_x,accel_bias_y,accel_bias_z,raw_accel_x,raw_accel_y,raw_accel_z,raw_gyro_x,raw_gyro_y,raw_gyro_z,raw_mag_x,raw_mag_y,raw_mag_z,raw_baro_alt,raw_tof,raw_flow_squal,raw_flow_dx,raw_flow_dy,dev_pos_x,dev_pos_y,dev_pos_z,dev_vel_x,dev_vel_y,dev_vel_z,dev_roll_deg,dev_pitch_deg,dev_yaw_deg
11327,10.0,-0.000460,-0.000050,-0.316938,-0.047631,-0.000489,-0.001187,-0.0058,0.0089,0.0010,0.00000000,0.00000000,0.00000000,-0.00151348,0.00339969,0.00000000,-0.3293,0.8976,-9.8495,-0.006445,-0.001856,-0.022963,26.1084,16.4875,33.7145,-3.3768,0.3170,111,-1,0,-0.002872,-0.000981,-0.316721,-0.014061,0.003677,0.007945,-2.8117,-2.0271,1.4500
11338,11.0,-0.001010,-0.000649,-0.316946,-0.051476,-0.022410,-0.000393,-0.2804,-0.0043,0.0070,0.00000053,0.00000007,-0.00000001,-0.00151007,0.00376802,0.00000004,-0.3261,0.9189,-9.7298,-0.028913,0.006086,-0.009972,26.1084,16.4875,33.7145,-3.3768,0.3180,101,-1,-1,-0.003321,-0.000975,-0.317053,-0.018827,0.004629,0.002869,-2.8699,-1.9620,1.5617
11349,11.0,-0.001055,-0.001257,-0.315051,-0.036763,-0.027499,0.084484,-0.5363,-0.3203,-0.0185,0.00000126,0.00000102,0.00000005,-0.00209532,0.00421160,-0.00005009,-0.3580,0.8705,-9.6397,-0.023997,0.006939,-0.003052,26.1084,17.5681,34.5420,-3.3768,0.3180,112,0,-1,-0.003775,-0.001461,-0.317024,-0.023041,0.000321,0.003160,-2.9145,-1.9084,1.7345
11361,12.0,-0.001060,-0.001326,-0.317924,-0.027890,-0.014151,-0.028605,-0.3949,-0.7663,-0.0378,0.00000082,0.00000301,0.00000023,-0.00284121,0.00386501,0.00004627,-0.4203,0.7224,-9.8293,0.007949,-0.012069,-0.016042,26.1084,17.5681,34.5420,-3.3768,0.3180,110,0,0,-0.003834,-0.001941,-0.316882,-0.018181,-0.002028,0.005535,-2.9423,-2.0572,1.8337
11372,11.0,-0.001052,-0.001350,-0.318137,-0.022641,-0.004491,-0.027651,-0.2757,-1.1503,-0.0324,0.00000021,0.00000520,0.00000042,-0.00352755,0.00367584,0.00000904,-0.4606,0.7286,-9.9777,0.019696,-0.009696,-0.032908,26.1084,17.5681,34.5420,-3.3768,0.3170,108,0,0,-0.003822,-0.001921,-0.316562,-0.015564,-0.000619,0.008002,-2.8676,-2.1562,1.8559
11384,12.0,-0.001170,-0.001384,-0.318476,-0.020643,0.003920,-0.028715,-0.3686,-1.3781,-0.0153,0.00000116,0.00000700,0.00000055,-0.00393865,0.00376484,0.00001467,-0.4071,0.8599,-9.8787,0.005144,0.014278,-0.031572,26.1084,17.5681,34.5420,-3.3768,0.3170,110,0,0,-0.003848,-0.001880,-0.316387,-0.012438,0.003367,0.005307,-2.6953,-2.2943,1.9222
11395,11.0,-0.001297,-0.001328,-0.317171,-0.017726,0.011816,0.000650,-0.3402,-1.5012,-0.0100,0.00000141,0.00000821,0.00000064,-0.00421537,0.00387037,-0.00094997,-0.1990,0.8416,-9.7623,0.067762,0.010307,-0.052410,26.1084,17.5681,34.5420,-3.3768,0.3170,113,0,0,-0.003985,-0.001880,-0.316260,-0.012683,0.007283,0.006153,-2.5742,-2.3053,1.9845
11406,11.0,-0.001429,-0.001217,-0.317156,-0.015926,0.020611,0.002240,-0.4429,-1.5953,-0.0051,0.00000345,0.00000927,0.00000071,-0.00439957,0.00409388,-0.00094647,-0.2501,1.0900,-9.6450,0.097891,0.007603,-0.017675,26.1084,17.5681,34.5420,-3.3768,0.3180,113,0,0,-0.004094,-0.001791,-0.316199,-0.011671,0.009660,0.006465,-2.5186,-2.2934,1.9897
11417,11.0,-0.001479,-0.001529,-0.317031,-0.011112,0.014826,0.004720,-1.3445,-1.7859,0.0079,0.00001561,0.00001162,0.00000068,-0.00475015,0.00588848,-0.00111686,-0.1283,1.0616,-9.6446,0.081022,-0.010699,0.018109,26.1084,17.5681,34.5420,-3.3768,0.3180,123,0,-1,-0.004249,-0.001549,-0.316978,-0.008214,0.019488,-0.000150,-2.3468,-2.3150,2.0591
11428,11.0,-0.001476,-0.001464,-0.317528,-0.007102,0.017607,-0.002390,-1.6056,-1.9932,-0.0094,0.00001998,0.00001452,0.00000090,-0.00509444,0.00624677,-0.00003834,-0.2646,0.8983,-9.7309,0.030584,-0.013888,0.024484,26.1084,17.5681,34.5420,-3.3768,0.3180,120,0,0,-0.004259,-0.001889,-0.316976,-0.005112,0.017877,0.001077,-2.2820,-2.3574,2.1721
11439,11.0,-0.001836,-0.001813,-0.317515,-0.015024,0.006133,-0.003374,-2.4702,-1.5671,0.0494,0.00003550,0.00000678,-0.00000024,-0.00428017,0.00790665,-0.00024360,-0.3313,0.7135,-9.8829,0.015947,-0.020037,0.025388,26.1084,17.5681,34.5420,-3.3768,0.3160,117,-1,-1,-0.004602,-0.002214,-0.316016,-0.007234,0.014770,0.011452,-2.2316,-2.3509,2.4002
11450,11.0,-0.001856,-0.001796,-0.317568,-0.011253,0.006762,-0.005752,-2.5775,-1.7906,-0.0065,0.00003796,0.00001137,0.00000008,-0.00468531,0.00806732,-0.00023196,-0.3212,0.6785,-9.9918,0.002366,-0.007032,0.007410,26.8960,17.5756,32.8640,-3.4878,0.3160,121,0,0,-0.004531,-0.002179,-0.315912,-0.004901,0.014572,0.009720,-2.1735,-2.4040,2.4494
11462,12.0,-0.001990,-0.001765,-0.316250,-0.010445,0.009462,0.008752,-2.5460,-1.7601,-0.0000,0.00003871,0.00001125,0.00000005,-0.00482172,0.00855013,-0.00593513,-0.2268,0.7358,-9.9758,0.026876,0.019610,-0.013498,26.8960,17.5756,32.8640,-3.4878,0.3160,122,0,0,-0.004499,-0.002164,-0.315722,-0.002951,0.015386,0.008905,-2.0715,-2.4507,2.5275
11473,11.0,-0.002144,-0.001694,-0.316161,-0.010513,0.012286,0.007752,-2.6015,-1.6834,0.0028,0.00004146,0.00000943,-0.00000013,-0.00471856,0.00866016,-0.00594298,-0.1964,0.8645,-9.8712,0.048422,0.024773,-0.008574,26.8960,17.5756,32.8640,-3.4878,0.3170,124,0,0,-0.004710,-0.002074,-0.316102,-0.002069,0.018910,-0.000283,-1.9018,-2.4295,2.6675
11484,11.0,-0.002234,-0.002018,-0.315976,-0.008553,0.003795,0.009109,-3.1259,-1.6994,0.0079,0.00006026,0.00001016,-0.00000044,-0.00477841,0.00978792,-0.00664625,-0.1567,0.8452,-9.7455,0.055094,0.006439,0.006099,26.8960,17.5756,32.8640,-3.4878,0.3170,116,0,-1,-0.004837,-0.001994,-0.316111,-0.002052,0.021039,-0.001096,-1.8579,-2.3922,2.5969
11495,11.0,-0.002252,-0.002341,-0.316186,-0.005005,-0.003582,0.006250,-3.5189,-1.7731,0.0005,0.00007698,0.00001249,-0.00000047,-0.00488081,0.01043525,-0.00471809,-0.1195,0.8000,-9.6983,0.070976,-0.013174,0.013037,26.8960,17.5756,32.8640,-3.4878,0.3170,116,0,-1,-0.004903,-0.002361,-0.316123,-0.000508,0.018327,-0.001002,-1.7857,-2.4056,2.7100
11506,11.0,-0.002264,-0.002278,-0.316031,-0.002655,0.000413,0.008061,-3.3745,-1.8162,-0.0013,0.00007267,0.00001411,-0.00000027,-0.00496553,0.01029238,-0.00531807,-0.1744,0.7488,-9.7163,0.072719,-0.012378,0.008139,26.8960,17.5756,32.8640,-3.4878,0.3160,120,0,0,-0.004879,-0.002599,-0.315988,0.003748,0.018352,0.002617,-1.6171,-2.4314,2.8334
11517,11.0,-0.002356,-0.002251,-0.315939,-0.003926,0.001551,0.008558,-3.3441,-1.7440,0.0002,0.00007198,0.00001097,-0.00000048,-0.00485022,0.01024782,-0.00532095,-0.2848,0.6499,-9.7458,0.025033,0.018407,0.015268,26.8960,17.5756,32.8640,-3.4878,0.3160,116,0,0,-0.004867,-0.002486,-0.315657,0.004998,0.020717,0.006810,-1.5316,-2.4279,2.8620
11528,11.0,-0.002452,-0.002261,-0.315499,-0.005622,0.001222,0.012321,-3.3562,-1.6891,-0.0001,0.00007302,0.00000866,-0.00000066,-0.00484144,0.01050501,-0.00826896,-0.3547,0.5896,-9.8208,-0.010014,0.023688,-0.004310,26.8960,17.5756,32.8640,-3.4508,0.3160,119,0,0,-0.005032,-0.002408,-0.315513,0.003445,0.022382,0.007564,-1.3613,-2.4175,3.0425
11539,11.0,-0.002532,-0.002300,-0.315374,-0.006992,0.001154,0.010611,-3.4264,-1.6674,0.0018,0.00007648,0.00000822,-0.00000081,-0.00480942,0.01058269,-0.00828188,-0.3993,0.7132,-9.9403,-0.035106,0.022544,-0.012760,27.6863,16.1347,33.6915,-3.4508,0.3160,112,0,0,-0.005122,-0.002411,-0.315502,0.002158,0.022868,0.006519,-1.2730,-2.4186,3.1397
11550,11.0,-0.002700,-0.002335,-0.315181,-0.009795,0.002751,0.010057,-3.4854,-1.5796,0.0017,0.00008006,0.00000338,-0.00000130,-0.00470907,0.01073590,-0.00914040,-0.3767,0.8741,-9.9221,-0.026031,0.042488,-0.008533,27.6863,16.1347,33.6915,-3.4508,0.3160,108,0,0,-0.005193,-0.002424,-0.315446,0.000968,0.023223,0.005148,-1.2641,-2.4211,3.2021
11561,11.0,-0.002906,-0.002306,-0.315200,-0.012101,0.006023,0.008676,-3.4910,-1.4885,0.0015,0.00008210,-0.00000246,-0.00000183,-0.00454466,0.01064703,-0.00788953,-0.2941,0.9591,-9.7586,0.027199,0.042008,-0.005185,27.6863,16.1347,33.6915,-3.4508,0.3160,115,0,0,-0.005488,-0.002452,-0.315280,-0.002524,0.027465,0.004137,-1.1944,-2.3924,3.3587
11572,11.0,-0.003055,-0.002190,-0.315040,-0.012711,0.010713,0.009367,-3.4082,-1.4703,-0.0005,0.00008025,-0.00000334,-0.00000185,-0.00454508,0.01066136,-0.00856258,-0.2888,0.9781,-9.7846,0.100915,0.015383,-0.000815,27.6863,16.1347,33.6915,-3.4508,0.3150,112,0,0,-0.005678,-0.002420,-0.315237,-0.003996,0.031422,0.004595,-1.0819,-2.3823,3.4668
11583,11.0,-0.003202,-0.002044,-0.314946,-0.013309,0.013475,0.007578,-3.3329,-1.4591,-0.0004,0.00007982,-0.00000357,-0.00000184,-0.00453316,0.01061732,-0.00856284,-0.3061,0.8317,-9.9457,0.110843,0.013349,0.011162,27.6863,16.1347,33.6915,-3.4508,0.3150,117,0,0,-0.005984,-0.002158,-0.314720,-0.005397,0.038817,0.008083,-0.8580,-2.3752,3.2576
11594,11.0,-0.003489,-0.001952,-0.314550,-0.016553,0.013549,0.012058,-3.3246,-1.3494,0.0032,0.00008392,-0.00001333,-0.00000280,-0.00446931,0.01092560,-0.01173288,-0.2998,0.6856,-9.7203,0.056419,0.055769,0.021600,27.6863,16.1347,33.6915,-3.4297,0.3150,110,0,0,-0.006150,-0.002025,-0.314564,-0.006144,0.040393,0.007969,-0.7906,-2.3645,3.3249
11605,11.0,-0.003811,-0.002281,-0.314407,-0.019067,0.004463,0.014551,-3.5251,-1.2400,0.0091,0.00011952,-0.00002378,-0.00000470,-0.00432509,0.01144410,-0.01184525,-0.2110,0.5782,-9.5699,0.063140,0.060607,0.005595,27.6863,16.1347,33.6915,-3.4297,0.3160,114,0,-1,-0.006419,-0.001942,-0.314482,-0.008112,0.041501,0.008698,-0.6670,-2.3446,3.4531
11616,11.0,-0.003980,-0.002199,-0.314155,-0.017974,0.005396,0.017980,-3.4694,-1.2451,-0.0001,0.00011697,-0.00002079,-0.00000441,-0.00438742,0.01147352,-0.01265350,-0.1783,0.6302,-9.5759,0.063067,0.021094,-0.006185,27.6863,16.1347,33.6915,-3.4297,0.3160,104,0,0,-0.006904,-0.002631,-0.315121,-0.009307,0.031622,0.004526,-0.5396,-2.2918,3.6637
11627,11.0,-0.004094,-0.002578,-0.314728,-0.014923,-0.001471,0.011372,-3.6525,-1.2694,-0.0010,0.00015490,-0.00001511,-0.00000466,-0.00426750,0.01130376,-0.00479480,-0.0556,0.7284,-9.5432,0.041561,0.010442,-0.000543,27.6863,16.1347,33.6915,-3.4297,0.3160,107,0,-1,-0.007041,-0.002535,-0.315066,-0.008414,0.033060,0.006936,-0.4632,-2.2791,3.6940
11638,11.0,-0.004148,-0.002550,-0.314534,-0.011363,0.000116,0.013808,-3.6162,-1.3117,0.0017,0.00015138,-0.00000654,-0.00000401,-0.00437985,0.01131105,-0.00540174,-0.0582,0.7042,-9.6369,0.030221,-0.000872,0.000348,27.6863,16.1347,33.6915,-3.4297,0.3130,101,0,0,-0.007108,-0.002915,-0.314886,-0.005667,0.030248,0.010758,-0.3768,-2.3014,3.7889
11649,11.0,-0.004077,-0.002595,-0.314386,-0.007348,-0.000677,0.013175,-3.6595,-1.3976,0.0024,0.00015563,0.00001051,-0.00000289,-0.00456525,0.01135112,-0.00540639,-0.1719,0.6360,-9.8520,-0.039017,-0.018494,0.016888,26.5089,15.7521,34.1743,-3.4297,0.3130,107,0,0,-0.007113,-0.002834,-0.313278,0.000019,0.034754,0.027579,-0.2281,-2.3330,3.8694
11660,11.0,-0.003804,-0.002693,-0.313101,-0.001517,-0.003284,0.022753,-3.7344,-1.5674,0.0106,0.00016196,0.00004451,-0.00000094,-0.00514194,0.01227390,-0.01692244,-0.2845,0.5414,-10.1905,-0.084250,-0.058212,0.019193,26.5089,15.7521,34.1743,-3.4297,0.3130,107,0,0,-0.006996,-0.002842,-0.312930,0.002827,0.034987,0.027942,-0.2209,-2.3599,3.8969
11671,11.0,-0.003522,-0.002789,-0.312888,0.003037,-0.005142,0.016089,-3.8039,-1.7104,0.0121,0.00016751,0.00007481,0.00000064,-0.00535688,0.01231367,-0.01692682,-0.3433,0.6071,-10.4110,-0.078276,-0.056978,0.010751,26.5089,15.7521,34.1743,-3.5037,0.3150,107,0,0,-0.006732,-0.002890,-0.312666,0.006827,0.034761,0.025010,-0.1765,-2.4362,3.9734
11682,11.0,-0.003924,-0.002818,-0.312645,-0.003994,-0.003243,0.010419,-3.8037,-1.5667,-0.0144,0.00016541,0.00002854,-0.00000216,-0.00511023,0.01237629,-0.01797360,-0.2878,0.8478,-10.4224,-0.010794,-0.007860,-0.007839,26.5089,15.7521,34.1743,-3.5037,0.3150,105,-1,0,-0.006665,-0.003006,-0.313712,0.007144,0.035838,-0.000737,-0.0728,-2.5294,3.8284
11693,11.0,-0.004067,-0.002798,-0.313467,-0.005090,0.000318,-0.006086,-3.7746,-1.5156,-0.0018,0.00016186,0.00001692,-0.00000290,-0.00485408,0.01174845,-0.00934428,-0.2317,0.9655,-10.3060,0.030891,0.027354,-0.007083,26.5089,15.7521,34.1743,-3.5037,0.3150,105,0,0,-0.006610,-0.003006,-0.313750,0.008040,0.039038,-0.006729,0.0104,-2.5638,3.9112
11704,11.0,-0.004294,-0.002742,-0.313466,-0.007175,0.003621,-0.007335,-3.7291,-1.4333,-0.0011,0.00015747,-0.00000328,-0.00000435,-0.00478083,0.01178337,-0.01011959,-0.1993,0.9152,-9.9827,0.053878,0.043497,0.014915,26.5089,15.7521,34.1743,-3.5037,0.3140,113,0,0,-0.006880,-0.002926,-0.313744,0.005881,0.047599,-0.012957,0.2275,-2.5602,4.1113
11715,11.0,-0.004512,-0.002630,-0.313549,-0.008217,0.006475,-0.007721,-3.6532,-1.3669,-0.0007,0.00015058,-0.00002111,-0.00000557,-0.00471971,0.01172526,-0.01011492,-0.1312,0.8215,-9.8231,0.093539,0.034039,0.027550,26.5089,15.7521,34.1743,-3.5037,0.3140,120,0,0,-0.007090,-0.002852,-0.313798,0.004324,0.051617,-0.013452,0.3493,-2.5474,4.2297
11726,11.0,-0.005245,-0.002490,-0.313388,-0.018179,0.007688,-0.004559,-3.5669,-1.1553,-0.0046,0.00014180,-0.00010038,-0.00001135,-0.00444215,0.01184990,-0.01235873,-0.2213,0.6473,-9.7729,0.106405,0.047483,0.028785,26.5089,15.7521,34.1743,-3.5037,0.3140,116,-1,0,-0.007988,-0.002607,-0.314071,-0.003935,0.055821,-0.012828,0.5541,-2.4643,4.4339
11737,11.0,-0.006007,-0.002351,-0.313442,-0.027306,0.008150,-0.005167,-3.4883,-0.9730,-0.0084,0.00013453,-0.00017128,-0.00001620,-0.00414860,0.01182410,-0.01236111,-0.2451,0.5879,-9.8574,0.101518,0.050116,0.031039,26.5089,15.7521,34.1743,-3.5037,0.3140,116,-1,0,-0.008704,-0.002486,-0.313837,-0.011145,0.056257,-0.008702,0.6356,-2.4028,4.5296
11747,10.0,-0.006337,-0.002339,-0.313411,-0.028252,0.005645,-0.005956,-3.5053,-0.9159,-0.0024,0.00014246,-0.00017870,-0.00001680,-0.00413969,0.01191467,-0.01321931,-0.1818,0.4638,-10.0035,-0.001950,0.072444,0.031821,26.1084,16.8477,34.1282,-3.4772,0.3140,117,0,0,-0.009001,-0.002375,-0.313931,-0.012165,0.056012,-0.009882,0.7661,-2.3891,4.6470
11758,11.0,-0.006904,-0.002470,-0.313406,-0.032104,0.001175,-0.003798,-3.6265,-0.7635,-0.0129,0.00016563,-0.00021341,-0.00001915,-0.00401659,0.01211390,-0.01379276,-0.1559,0.4465,-9.6849,-0.123372,0.139491,0.031497,26.1084,16.8477,34.1282,-3.4772,0.3140,119,0,0,-0.009755,-0.002426,-0.314052,-0.015460,0.052107,-0.010417,0.8303,-2.2865,4.8308
11770,12.0,-0.007473,-0.002630,-0.313353,-0.034262,-0.002725,0.001354,-3.7614,-0.6280,-0.0138,0.00018884,-0.00023966,-0.00002076,-0.00393026,0.01224895,-0.01447355,-0.0767,0.4918,-9.4580,-0.139072,0.131912,0.017776,26.1084,16.8477,34.1282,-3.4772,0.3130,116,0,0,-0.010282,-0.002581,-0.313305,-0.018401,0.048739,0.001043,0.7794,-2.1845,4.8904
11781,11.0,-0.007765,-0.002741,-0.313318,-0.032466,-0.004898,0.005092,-3.8356,-0.6041,0.0026,0.00019972,-0.00022786,-0.00002028,-0.00397556,0.01229110,-0.01448257,-0.0537,0.5370,-9.4709,-0.090680,0.066252,0.011287,26.1084,16.8477,34.1282,-3.4772,0.3130,120,0,0,-0.010763,-0.002751,-0.313201,-0.019929,0.046587,0.005586,0.7773,-2.1182,4.9940
11792,11.0,-0.007345,-0.002349,-0.312652,-0.021248,0.001141,0.013835,-3.7693,-0.7711,0.0592,0.00013249,-0.00011218,-0.00001407,-0.00449461,0.01237101,-0.01955499,-0.1137,0.6153,-9.6556,-0.049320,0.002560,0.004714,26.1084,16.8477,34.1282,-3.4772,0.3130,115,1,1,-0.010792,-0.002448,-0.312897,-0.011499,0.052167,0.013811,0.8839,-2.1187,4.9043
11803,11.0,-0.007296,-0.001515,-0.312494,-0.016583,0.012230,0.014991,-3.6458,-0.8343,0.0460,0.00000542,-0.00007007,-0.00001131,-0.00466189,0.01193291,-0.01948110,-0.0745,0.5801,-9.7062,-0.077382,-0.009531,0.014763,26.1084,16.8477,34.1282,-3.4772,0.3140,119,0,2,-0.010807,-0.002023,-0.312753,-0.008936,0.057313,0.015636,0.8961,-2.1303,4.9213
11814,11.0,-0.007287,-0.000615,-0.312207,-0.013217,0.021748,0.018801,-3.5187,-0.8745,0.0429,-0.00011648,-0.00004054,-0.00000951,-0.00477894,0.01155964,-0.02034557,-0.0813,0.4898,-9.5895,-0.044176,-0.003150,-0.001486,26.1084,16.8477,34.1282,-3.5142,0.3140,119,0,2,-0.010811,-0.001179,-0.313332,-0.005940,0.067421,0.009236,0.9838,-2.1723,5.0040
11825,11.0,-0.007120,-0.000588,-0.312752,-0.009026,0.018400,0.010998,-3.5641,-0.9615,0.0127,-0.00008261,0.00001003,-0.00000740,-0.00485750,0.01131487,-0.01411661,-0.1712,0.5687,-9.7099,-0.010086,-0.042354,-0.011565,26.1084,16.8477,34.1282,-3.5142,0.3140,116,0,0,-0.010761,-0.000248,-0.312999,-0.000762,0.073761,0.014930,1.0880,-2.2241,5.0847
11836,11.0,-0.006763,-0.000567,-0.312558,-0.003389,0.014494,0.010238,-3.6053,-1.1015,0.0270,-0.00005338,0.00008747,-0.00000430,-0.00510122,0.01144362,-0.01483649,-0.2443,0.4958,-9.9721,-0.013745,-0.084112,-0.007429,26.8987,17.5681,33.7145,-3.5142,0.3120,117,0,0,-0.010592,-0.000180,-0.312140,0.002477,0.072009,0.024232,1.0982,-2.2640,5.0916
11847,11.0,-0.006398,-0.000607,-0.312451,0.002020,0.011020,0.009048,-3.6748,-1.2245,0.0237,-0.00002004,0.00015746,-0.00000165,-0.00529456,0.01155420,-0.01485746,-0.2118,0.5632,-9.9167,-0.054915,-0.078069,-0.004774,26.8987,17.5681,33.7145,-3.5142,0.3120,117,0,0,-0.009876,-0.000044,-0.311677,0.011746,0.069108,0.022048,1.1727,-2.4316,5.1676
11858,11.0,-0.006088,-0.000667,-0.311691,0.006447,0.008397,0.017310,-3.7493,-1.3144,0.0142,0.00001271,0.00020845,0.00000033,-0.00549362,0.01192693,-0.02016105,-0.1677,0.6265,-9.7597,-0.065083,-0.062071,0.004040,26.8987,17.5681,33.7145,-3.5142,0.3120,115,0,0,-0.009511,-0.000028,-0.311331,0.016031,0.068284,0.023022,1.2188,-2.5182,5.2359
11869,11.0,-0.005854,-0.000279,-0.311490,0.009687,0.012526,0.019211,-3.7468,-1.3668,0.0175,-0.00004118,0.00023657,0.00000232,-0.00559105,0.01178292,-0.02014424,-0.1268,0.6529,-9.6352,-0.075516,-0.041460,0.008206,26.8987,17.5681,33.7145,-3.5142,0.3140,119,0,1,-0.009196,-0.000019,-0.311101,0.019394,0.067169,0.023772,1.1921,-2.5647,5.2504
11880,11.0,-0.005623,0.000151,-0.311155,0.012293,0.017169,0.023641,-3.7284,-1.4136,0.0149,-0.00009503,0.00025871,0.00000403,-0.00565971,0.01168542,-0.02100077,-0.1415,0.7034,-9.5197,-0.045674,-0.043462,0.011490,26.8987,17.5681,33.7145,-3.5142,0.3140,117,0,1,-0.008801,0.000861,-0.312448,0.023181,0.076631,0.010429,1.2506,-2.6278,5.1165
11891,11.0,-0.005814,0.000614,-0.311079,0.007667,0.021409,0.022832,-3.6999,-1.3957,-0.0090,-0.00014697,0.00019643,0.00000123,-0.00547907,0.01146398,-0.01948909,-0.2699,0.6966,-9.6713,-0.023831,-0.055099,0.013518,26.8987,17.5681,33.7145,-3.5512,0.3120,113,-1,1,-0.009012,0.001296,-0.312329,0.019467,0.081280,0.013503,1.3293,-2.6672,5.2098
11902,11.0,-0.006055,0.000612,-0.310744,0.002245,0.017957,0.022320,-3.7567,-1.3728,-0.0176,-0.00010023,0.00013339,-0.00000322,-0.00534279,0.01161193,-0.02024491,-0.3544,0.6257,-9.9543,-0.031143,-0.043453,0.004387,26.8987,17.5681,33.7145,-3.5512,0.3120,112,-1,0,-0.009427,0.001767,-0.311575,0.011826,0.083226,0.019725,1.3952,-2.7292,5.3513
11913,11.0,-0.006050,0.000575,-0.310510,0.000962,0.014402,0.020255,-3.8267,-1.3657,-0.0004,-0.00005312,0.00013127,-0.00000453,-0.00531692,0.01171590,-0.02025504,-0.3452,0.6219,-9.9945,-0.054968,0.008727,0.001048,26.8987,17.5681,33.7145,-3.5512,0.3120,112,0,0,-0.009694,0.001770,-0.311273,0.007543,0.080735,0.019610,1.3785,-2.7462,5.4101
11924,11.0,-0.006212,0.000502,-0.310723,-0.001719,0.011050,0.013564,-3.9095,-1.3094,-0.0073,-0.00000516,0.00009566,-0.00000778,-0.00520210,0.01162970,-0.01698552,-0.2824,0.6451,-9.9566,-0.078511,0.049354,-0.009924,26.8987,17.5681,33.7145,-3.5512,0.3120,112,0,0,-0.009696,0.001760,-0.311086,0.007077,0.079094,0.018143,1.4185,-2.7643,5.5032
11935,11.0,-0.006479,0.000407,-0.310575,-0.005084,0.008482,0.013289,-3.9978,-1.2274,-0.0089,0.00004189,0.00004283,-0.00001216,-0.00510246,0.01170991,-0.01699531,-0.2413,0.7085,-9.8248,-0.089523,0.073369,-0.003764,26.8987,17.5681,33.7145,-3.5512,0.3140,112,0,0,-0.009800,0.001729,-0.310916,0.005790,0.076796,0.016812,1.3797,-2.7452,5.5522
11946,11.0,-0.006757,0.000350,-0.310296,-0.007499,0.007160,0.017149,-4.0543,-1.1522,-0.0070,0.00007575,-0.00000625,-0.00001609,-0.00503038,0.01182438,-0.01793924,-0.1646,0.7429,-9.5802,-0.054541,0.068834,0.002220,27.6863,17.2154,34.1052,-3.5512,0.3140,117,0,0,-0.010315,0.002031,-0.312478,0.001115,0.079105,-0.000867,1.3675,-2.6644,5.6942
11957,11.0,-0.006867,0.000339,-0.311773,-0.007257,0.006578,-0.000483,-4.0751,-1.1321,-0.0015,0.00009684,-0.00001324,-0.00001698,-0.00478512,0.01113615,-0.00534143,-0.1388,0.7451,-9.6036,-0.015437,0.024114,0.004341,27.6863,17.2154,34.1052,-3.5512,0.3140,113,0,0,-0.010566,0.001985,-0.312345,-0.000268,0.078444,0.003176,1.4056,-2.6402,5.7986
11968,11.0,-0.006834,0.000382,-0.311680,-0.006325,0.005391,0.001651,-4.0640,-1.1555,0.0028,0.00010244,0.00001324,-0.00001536,-0.00484630,0.01118829,-0.00605435,-0.2478,0.6227,-9.7020,0.023438,-0.013089,0.012529,27.6863,17.2154,34.1052,-3.5512,0.3120,113,0,0,-0.010733,0.002054,-0.311829,0.001083,0.078077,0.012122,1.4703,-2.6387,5.9300
11979,11.0,-0.006751,0.000439,-0.311667,-0.004819,0.003721,0.000856,-4.0410,-1.1923,0.0057,0.00009925,0.00005015,-0.00001307,-0.00489467,0.01122097,-0.00605092,-0.2492,0.5496,-9.8720,0.033887,-0.025877,0.008694,27.6863,17.2154,34.1052,-3.5512,0.3120,112,0,0,-0.010689,0.002150,-0.311606,0.002378,0.077345,0.014454,1.4967,-2.6584,5.9751
11990,11.0,-0.006695,0.000493,-0.311320,-0.004123,0.002258,0.003157,-4.0176,-1.2186,0.0039,0.00009375,0.00007690,-0.00001133,-0.00498909,0.01136851,-0.00860330,-0.2793,0.5554,-9.9617,0.032910,-0.018403,-0.004858,27.6863,17.2154,34.1052,-3.5512,0.3120,116,0,0,-0.010615,0.002250,-0.311463,0.004171,0.077144,0.014308,1.6059,-2.6839,5.7463
12001,11.0,-0.006660,0.000494,-0.311292,-0.003197,0.000659,0.001827,-4.0233,-1.2348,0.0037,0.00009684,0.00009694,-0.00001029,-0.00501315,0.01139976,-0.00860116,-0.2259,0.5802,-9.9216,-0.006501,-0.008392,-0.008856,27.6863,17.2154,34.1052,-3.5512,0.3140,114,0,0,-0.010500,0.002438,-0.312514,0.006377,0.076165,-0.002470,1.7238,-2.7449,5.8773
12012,11.0,-0.006538,0.000447,-0.311150,-0.001162,-0.000178,0.003675,-4.0542,-1.2694,0.0056,0.00011015,0.00013632,-0.00000824,-0.00508717,0.01147246,-0.00950051,-0.2121,0.6821,-9.7583,-0.038335,-0.023364,-0.004863,27.6863,17.2154,34.1052,-3.5512,0.3140,112,0,0,-0.010448,0.002487,-0.312544,0.007495,0.075477,-0.003128,1.7266,-2.7563,5.9134
12023,11.0,-0.006295,0.000425,-0.312217,0.003365,0.000306,-0.008686,-4.0654,-1.3338,0.0051,0.00011616,0.00019926,-0.00000418,-0.00500640,0.01098040,-0.00149400,-0.0928,0.7702,-9.7243,-0.014201,-0.054436,0.002907,27.6863,17.2154,34.1052,-3.5512,0.3140,116,0,0,-0.010159,0.002542,-0.312461,0.011807,0.076291,0.000088,1.7659,-2.8254,6.0273
12034,11.0,-0.006036,0.000417,-0.312215,0.007137,0.001593,-0.006745,-4.0697,-1.3958,0.0026,0.00012156,0.00025543,-0.00000034,-0.00509518,0.01102962,-0.00217720,-0.1356,0.8414,-9.7027,-0.002359,-0.058197,0.014231,25.7079,16.5023,33.2548,-3.5512,0.3130,120,0,0,-0.009921,0.002596,-0.312369,0.015676,0.078334,0.002368,1.8362,-2.8907,6.1107
12045,11.0,-0.005781,0.000400,-0.312287,0.009592,0.002125,-0.006351,-4.0831,-1.4489,0.0002,0.00013284,0.00030150,0.00000287,-0.00515716,0.01102929,-0.00217614,-0.2182,0.7988,-9.7428,-0.012333,-0.053638,0.027906,25.7079,16.5023,33.2548,-3.5512,0.3130,116,0,0,-0.009670,0.002673,-0.312342,0.018772,0.080033,0.003826,1.8261,-2.9239,6.1331
12057,12.0,-0.006537,0.000388,-0.312157,-0.000886,0.002701,-0.003524,-4.0958,-1.3743,0.0026,0.00014473,0.00006557,-0.00001554,-0.00490202,0.01113659,-0.00361733,-0.2193,0.8003,-9.7416,-0.010127,-0.039287,0.020847,25.7079,16.5023,33.2548,-3.4931,0.3130,127,-2,0,-0.009199,0.002796,-0.312121,0.022842,0.082891,0.007627,1.8779,-3.0152,6.2716
12068,11.0,-0.006355,0.000349,-0.312202,0.001239,0.002940,-0.004597,-4.1241,-1.4184,-0.0022,0.00016622,0.00011916,-0.00001172,-0.00495874,0.01114499,-0.00361515,-0.2681,0.8256,-9.8748,-0.030185,-0.036471,0.020758,25.7079,16.5023,33.2548,-3.4931,0.3140,125,0,0,-0.009896,0.002750,-0.312042,0.013637,0.083350,0.008766,1.9410,-3.0267,6.4229
12080,12.0,-0.006218,0.000286,-0.312170,0.002405,0.002406,-0.005852,-4.1717,-1.4461,-0.0015,0.00019497,0.00015414,-0.00000956,-0.00500916,0.01122433,-0.00433936,-0.2835,0.7918,-9.9866,-0.051832,-0.021803,0.022894,25.7079,16.5023,33.2548,-3.4931,0.3140,124,0,0,-0.009553,0.002796,-0.312822,0.016864,0.084973,-0.000904,1.9581,-3.0761,6.2829
12091,11.0,-0.006122,0.000268,-0.312701,0.002758,0.002361,-0.013717,-4.1866,-1.4650,-0.0007,0.00020941,0.00017495,-0.00000825,-0.00495266,0.01100560,-0.00123244,-0.3071,0.7905,-10.0138,-0.014638,-0.017823,0.009659,25.7079,16.5023,33.2548,-3.4931,0.3140,129,0,0,-0.009417,0.002814,-0.312843,0.017524,0.085046,-0.002260,1.9183,-3.0936,6.3397
12102,11.0,-0.006086,0.000263,-0.312790,0.003173,0.002948,-0.015367,-4.1927,-1.4698,0.0002,0.00022008,0.00017604,-0.00000843,-0.00496569,0.01105406,-0.00177396,-0.2280,0.8383,-10.0095,-0.003149,-0.007086,0.003794,25.7079,16.5023,33.2548,-3.4931,0.3120,127,0,0,-0.009310,0.002853,-0.312741,0.017765,0.086254,-0.002277,1.9782,-3.1300,6.4443
12113,11.0,-0.006171,0.000256,-0.312962,0.002178,0.003370,-0.015990,-4.2013,-1.4439,0.0034,0.00023391,0.00013971,-0.00001187,-0.00494296,0.01105084,-0.00177619,-0.2129,0.8202,-9.8335,-0.005376,0.020105,0.004231,25.7079,16.5023,33.2548,-3.4772,0.3120,127,0,0,-0.009256,0.002958,-0.311782,0.017647,0.088679,0.005320,2.0334,-3.1525,6.5994
12125,12.0,-0.006186,0.000269,-0.311936,0.001974,0.004305,-0.001720,-4.1994,-1.4371,0.0017,0.00024250,0.00012696,-0.00001322,-0.00512223,0.01168982,-0.00993837,-0.2251,0.8428,-9.7676,0.007605,0.003091,0.007260,25.7079,16.5023,33.2548,-3.4772,0.3120,130,0,0,-0.009321,0.003004,-0.311734,0.016508,0.089122,0.005392,2.0136,-3.1305,6.6548
12136,11.0,-0.006112,0.000307,-0.311955,0.002913,0.004982,-0.001645,-4.1835,-1.4548,-0.0021,0.00024716,0.00014236,-0.00001190,-0.00513746,0.01168073,-0.00993796,-0.2217,0.8058,-9.7788,0.028219,-0.020215,0.005014,25.7079,16.5023,33.2548,-3.4772,0.3140,130,0,0,-0.009352,0.003047,-0.311678,0.015832,0.090540,0.006314,2.0788,-3.1438,6.7678
12147,11.0,-0.006004,0.000327,-0.311881,0.003877,0.005474,-0.000889,-4.1794,-1.4775,-0.0026,0.00025952,0.00016561,-0.00001011,-0.00516948,0.01174233,-0.01057722,-0.2496,0.8185,-9.8181,0.013399,-0.024798,0.012808,25.7105,15.0541,34.1052,-3.4772,0.3140,120,0,0,-0.009206,0.003242,-0.312614,0.017004,0.092857,-0.002794,2.1555,-3.1863,6.9206
12158,11.0,-0.005942,0.000321,-0.312534,0.003953,0.004923,-0.008754,-4.1930,-1.4861,0.0000,0.00028282,0.00017211,-0.00001016,-0.00507049,0.01140117,-0.00634249,-0.2750,0.7531,-9.8221,-0.009003,-0.011231,0.014594,25.7105,15.0541,34.1052,-3.4772,0.3140,117,0,0,-0.009017,0.003400,-0.312563,0.017952,0.094284,-0.000719,2.2092,-3.2332,7.0826
12169,11.0,-0.005845,0.000275,-0.312562,0.004683,0.004297,-0.008454,-4.2284,-1.4998,-0.0009,0.00031590,0.00018895,-0.00000954,-0.00509383,0.01146519,-0.00682566,-0.2518,0.7886,-9.8341,-0.039322,-0.014745,0.016604,25.7105,15.0541,34.1052,-3.4772,0.3110,118,0,0,-0.008938,0.003454,-0.311200,0.017934,0.093839,0.014806,2.1899,-3.2412,7.1387
12180,11.0,-0.005785,0.000190,-0.312654,0.004768,0.003636,-0.008234,-4.2852,-1.5014,0.0013,0.00036118,0.00019208,-0.00001049,-0.00509516,0.01148447,-0.00682353,-0.2637,0.8230,-9.7600,-0.067791,-0.002296,0.018930,25.7105,15.0541,34.1052,-3.4772,0.3110,113,0,0,-0.008841,0.003469,-0.310976,0.018502,0.094250,0.016127,2.2264,-3.2726,7.2531
12191,11.0,-0.005699,0.000121,-0.311213,0.004822,0.002687,0.010348,-4.3302,-1.5096,0.0001,0.00039286,0.00020435,-0.00001032,-0.00535123,0.01236355,-0.01674952,-0.2942,0.7722,-9.7231,-0.056752,-0.009191,0.023530,25.7105,15.0541,34.1052,-3.3610,0.3110,117,0,0,-0.008682,0.003448,-0.310580,0.018597,0.093764,0.019251,2.2056,-3.2670,7.0166
12203,12.0,-0.005506,0.000117,-0.311087,0.006334,0.002113,0.010604,-4.3398,-1.5483,-0.0046,0.00040466,0.00024981,-0.00000663,-0.00538106,0.01237215,-0.01674548,-0.2725,0.7385,-9.7748,-0.008158,-0.038731,0.017764,25.7105,15.0541,34.1052,-3.3610,0.3140,116,0,0,-0.008567,0.003469,-0.312113,0.018826,0.092845,0.001444,2.1481,-3.2749,7.0946
12214,11.0,-0.005326,0.000161,-0.310923,0.007655,0.002278,0.010673,-4.3178,-1.5850,-0.0045,0.00039697,0.00028705,-0.00000312,-0.00541430,0.01239587,-0.01707434,-0.2708,0.7490,-9.8443,0.032215,-0.042439,0.007207,25.7105,15.0541,34.1052,-3.3610,0.3140,116,0,0,-0.008391,0.003531,-0.312095,0.020016,0.093308,0.002421,2.2027,-3.3224,7.2058
12225,11.0,-0.005292,0.000183,-0.310912,0.007082,0.001955,0.009676,-4.3099,-1.5851,0.0018,0.00039788,0.00026960,-0.00000467,-0.00538432,0.01233955,-0.01639381,-0.2732,0.7219,-9.7744,0.013404,-0.007233,-0.000250,25.7105,15.0541,34.1052,-3.3610,0.3120,114,0,0,-0.008092,0.003745,-0.311992,0.021479,0.094513,0.003568,2.2780,-3.3886,7.3699
12236,11.0,-0.005263,0.000213,-0.310759,0.006582,0.000939,0.011690,-4.2974,-1.5856,0.0010,0.00039241,0.00025267,-0.00000591,-0.00537955,0.01235723,-0.01664294,-0.2658,0.6300,-9.6623,0.017702,-0.007178,-0.005209,27.2911,16.4949,33.6915,-3.3610,0.3120,109,0,0,-0.008056,0.003830,-0.311480,0.020762,0.094251,0.009844,2.2732,-3.3866,7.4294
12247,11.0,-0.005591,0.000223,-0.310625,0.001686,-0.000057,0.012577,-4.2950,-1.5711,0.0084,0.00038982,0.00011250,-0.00001713,-0.00527894,0.01237317,-0.01665314,-0.2905,0.6452,-9.7218,0.003068,-0.033155,-0.004925,27.2911,16.4949,33.6915,-3.3610,0.3120,108,-1,0,-0.008396,0.003946,-0.311250,0.015096,0.092884,0.013959,2.3404,-3.3954,7.6149
12258,11.0,-0.005390,0.000191,-0.311284,0.004420,-0.000981,0.003969,-4.3151,-1.6126,-0.0026,0.00040115,0.00017616,-0.00001245,-0.00517950,0.01196012,-0.01164097,-0.2158,0.6879,-9.7316,-0.026291,-0.040726,0.002930,27.2911,16.4949,33.6915,-3.3610,0.3130,109,0,0,-0.008676,0.003964,-0.311043,0.011509,0.092459,0.016135,2.3999,-3.4254,7.7363
12270,12.0,-0.005212,0.000125,-0.311235,0.005928,-0.001053,0.004243,-4.3533,-1.6439,-0.0015,0.00042253,0.00022118,-0.00000946,-0.00521042,0.01196694,-0.01163627,-0.2773,0.7991,-9.7634,-0.047509,-0.030040,0.005933,27.2911,16.4949,33.6915,-3.4191,0.3130,112,0,0,-0.008481,0.004025,-0.311652,0.014173,0.092091,0.008916,2.3663,-3.4473,7.7837
12282,12.0,-0.005058,0.000043,-0.311120,0.006774,-0.001183,0.003482,-4.4009,-1.6655,-0.0004,0.00044965,0.00025184,-0.00000780,-0.00524305,0.01202128,-0.01210167,-0.3019,0.8281,-9.9215,-0.058894,-0.022068,0.016295,27.2911,16.4949,33.6915,-3.4191,0.3130,108,0,0,-0.008155,0.004067,-0.311394,0.017241,0.093459,0.011584,2.3619,-3.4783,7.5500
12294,12.0,-0.004888,-0.000034,-0.311000,0.007649,-0.001621,0.002410,-4.4456,-1.6899,-0.0007,0.00047401,0.00028531,-0.00000581,-0.00527490,0.01207273,-0.01264938,-0.3101,0.8047,-9.9630,-0.055838,-0.025531,0.019643,27.2911,16.4949,33.6915,-3.4191,0.3120,105,0,0,-0.008006,0.004066,-0.311282,0.018184,0.094446,0.011212,2.3825,-3.5157,7.6642
12305,11.0,-0.004736,-0.000052,-0.310927,0.007635,-0.001223,0.001381,-4.4530,-1.7136,-0.0022,0.00047464,0.00031274,-0.00000351,-0.00529902,0.01210064,-0.01299432,-0.3779,0.8219,-9.9372,-0.010433,-0.028963,0.017565,27.2911,16.4949,33.6915,-3.4191,0.3120,114,0,0,-0.007698,0.004105,-0.311013,0.019465,0.095598,0.010556,2.3522,-3.5699,7.8541
12316,11.0,-0.004595,-0.000008,-0.310923,0.007510,-0.000738,-0.000707,-4.4275,-1.7393,-0.0036,0.00045269,0.00033646,-0.00000076,-0.00529848,0.01208904,-0.01299429,-0.3805,0.7708,-9.9772,0.033522,-0.032811,0.009091,27.2911,16.4949,33.6915,-3.4191,0.3120,113,0,0,-0.007561,0.004176,-0.310845,0.019333,0.096013,0.010710,2.3200,-3.5896,7.9296
12327,11.0,-0.004507,0.000063,-0.311447,0.007229,0.000196,-0.007864,-4.3865,-1.7557,-0.0034,0.00042220,0.00033955,0.00000069,-0.00520093,0.01183331,-0.00995383,-0.3406,0.7784,-9.9014,0.055413,-0.025103,0.009410,27.2911,16.4949,33.6915,-3.4191,0.3130,112,0,0,-0.007438,0.004277,-0.310744,0.019050,0.097230,0.009907,2.3897,-3.6302,8.0480
12338,11.0,-0.004476,0.000123,-0.311535,0.006766,0.000741,-0.008147,-4.3534,-1.7589,-0.0009,0.00039933,0.00032044,-0.00000002,-0.00519356,0.01182292,-0.00995712,-0.2970,0.7513,-9.8136,0.045414,-0.011679,0.006536,27.6808,16.5098,34.4727,-3.3821,0.3130,115,0,0,-0.007276,0.004537,-0.311474,0.018511,0.099565,0.000597,2.4717,-3.6784,8.2439
12349,11.0,-0.004970,0.000147,-0.311569,0.000408,0.000453,-0.007785,-4.3425,-1.7120,0.0142,0.00039210,0.00009599,-0.00001825,-0.00511422,0.01184891,-0.01032800,-0.2839,0.7135,-9.8210,0.015753,-0.000267,0.007810,27.6808,16.5098,34.4727,-3.3821,0.3130,115,-1,0,-0.007246,0.004660,-0.311471,0.018032,0.099908,0.001221,2.4704,-3.6775,8.3162
12360,11.0,-0.005004,0.000136,-0.311278,-0.000467,-0.000746,-0.004336,-4.3511,-1.7026,0.0017,0.00039508,0.00008193,-0.00001961,-0.00518090,0.01204471,-0.01258778,-0.3425,0.6624,-9.8859,-0.012235,0.009767,0.006083,27.6808,16.5098,34.4727,-3.3821,0.3120,117,0,0,-0.007693,0.004757,-0.311368,0.012099,0.099022,0.002680,2.5121,-3.6724,8.5443
12371,11.0,-0.005587,0.000078,-0.311286,-0.007351,-0.002143,-0.004494,-4.3850,-1.6382,0.0111,0.00041341,-0.00015022,-0.00003841,-0.00510251,0.01207365,-0.01287232,-0.3178,0.6819,-9.8579,-0.047321,0.027540,0.008020,27.6808,16.5098,34.4727,-3.3821,0.3120,122,-1,0,-0.008161,0.004723,-0.311156,0.006327,0.097807,0.004647,2.5495,-3.6669,8.6930
12382,11.0,-0.005738,0.000033,-0.311339,-0.008060,-0.002673,-0.005153,-4.4082,-1.6098,0.0019,0.00042147,-0.00017868,-0.00004094,-0.00509169,0.01207894,-0.01287399,-0.2781,0.7395,-9.8522,-0.033930,0.035946,0.002407,27.6808,16.5098,34.4727,-3.3821,0.3120,125,0,0,-0.008671,0.004656,-0.311065,0.000767,0.095620,0.005345,2.4941,-3.6292,8.7961
12393,11.0,-0.005819,0.000501,-0.311119,-0.007958,0.003136,-0.001813,-4.3767,-1.5988,-0.0190,0.00021648,-0.00017659,-0.00003304,-0.00515202,0.01212528,-0.01449419,-0.2783,0.7703,-9.7791,-0.012396,0.017596,0.005663,27.6808,16.5098,34.4727,-3.3821,0.3120,123,0,1,-0.008909,0.004655,-0.310882,0.000857,0.095132,0.007220,2.4946,-3.5661,8.5544
12404,11.0,-0.005865,0.000512,-0.311138,-0.007170,0.002514,-0.001550,-4.3758,-1.5974,-0.0000,0.00022521,-0.00016001,-0.00003205,-0.00516251,0.01213245,-0.01449193,-0.2488,0.7247,-9.7717,0.004271,0.006923,0.002356,27.6808,16.5098,34.4727,-3.3821,0.3120,122,0,0,-0.009051,0.005123,-0.310975,0.000511,0.100947,0.006530,2.5544,-3.5740,8.6595
12415,11.0,-0.005888,0.000538,-0.311055,-0.006239,0.001797,-0.000112,-4.3664,-1.6011,-0.0008,0.00022452,-0.00013737,-0.00003028,-0.00519355,0.01217651,-0.01507366,-0.2500,0.6918,-9.7750,0.014846,0.000693,-0.001669,27.6808,16.5098,34.4727,-3.4931,0.3120,122,0,0,-0.009117,0.005247,-0.310729,0.002388,0.100562,0.009872,2.5729,-3.5804,8.8336
12426,11.0,-0.005863,0.000589,-0.309925,-0.005502,0.001404,0.013025,-4.3413,-1.6161,-0.0016,0.00020997,-0.00009694,-0.00002681,-0.00544664,0.01267200,-0.02157342,-0.3126,0.6869,-9.8092,0.035296,-0.012104,-0.011817,27.6808,16.5098,34.4727,-3.4931,0.3100,123,0,0,-0.009125,0.005335,-0.310633,0.003426,0.100007,0.010914,2.5548,-3.5748,8.8909
12437,11.0,-0.005775,0.000629,-0.309707,-0.003631,0.000936,0.013859,-4.3220,-1.6439,-0.0020,0.00019771,-0.00003392,-0.00002171,-0.00548771,0.01269997,-0.02201192,-0.2664,0.6831,-9.8120,0.027068,-0.025138,-0.014574,28.0787,16.5023,34.4958,-3.4931,0.3100,125,0,0,-0.009103,0.005439,-0.309585,0.004439,0.100536,0.022013,2.6278,-3.6047,8.9862
12448,11.0,-0.005664,0.000639,-0.309557,-0.001778,0.000635,0.013352,-4.3182,-1.6728,-0.0012,0.00019712,0.00003098,-0.00001686,-0.00551381,0.01270138,-0.02200741,-0.2769,0.7267,-9.8485,0.005627,-0.026621,-0.013247,28.0787,16.5023,34.4958,-3.4931,0.3100,118,0,0,-0.008948,0.005649,-0.309138,0.007965,0.101123,0.023212,2.6750,-3.6500,9.1285
12459,11.0,-0.005562,0.000617,-0.309663,0.000003,-0.000165,0.010532,-4.3320,-1.6959,-0.0001,0.00020798,0.00008328,-0.00001337,-0.00548233,0.01260053,-0.02057155,-0.2547,0.7043,-9.7911,-0.019062,-0.020801,-0.015878,28.0787,16.5023,34.4958,-3.4931,0.3110,116,0,0,-0.008845,0.005735,-0.308787,0.009599,0.100955,0.025047,2.6438,-3.6585,9.1740
12470,11.0,-0.005454,0.000601,-0.309546,0.001604,0.000068,0.010805,-4.3399,-1.7190,-0.0009,0.00021552,0.00012978,-0.00001005,-0.00550501,0.01259663,-0.02056837,-0.2603,0.7896,-9.7716,-0.010703,-0.022819,-0.015551,28.0787,16.5023,34.4958,-3.4931,0.3110,119,0,0,-0.008740,0.005793,-0.309420,0.011290,0.101126,0.016256,2.6748,-3.6920,9.2749
12481,11.0,-0.005269,0.000598,-0.309337,0.003584,0.000815,0.010575,-4.3401,-1.7581,-0.0024,0.00021936,0.00020434,-0.00000435,-0.00555080,0.01263826,-0.02112353,-0.2983,0.8405,-9.9196,0.000529,-0.040810,-0.015275,28.0787,16.5023,34.4958,-3.4931,0.3110,114,0,0,-0.008490,0.005930,-0.308992,0.014284,0.102650,0.019091,2.6960,-3.7005,8.9591
12492,11.0,-0.005623,0.000098,-0.309084,-0.000836,-0.003510,0.010031,-4.3863,-1.7447,0.0242,0.00045506,0.00002707,-0.00002676,-0.00552598,0.01275395,-0.02195418,-0.3019,0.9200,-9.9954,-0.010078,-0.026091,-0.001698,28.0787,16.5023,34.4958,-3.4350,0.3100,112,-1,-1,-0.008682,0.005510,-0.308813,0.011646,0.097630,0.018648,2.6305,-3.7014,9.0331
12503,11.0,-0.005634,0.000059,-0.308924,-0.000683,-0.001847,0.009212,-4.4005,-1.7412,0.0004,0.00045953,0.00002599,-0.00002701,-0.00553683,0.01277994,-0.02228526,-0.2919,0.9341,-9.9245,-0.020762,0.004984,0.002591,28.0787,16.5023,34.4958,-3.4350,0.3100,112,0,0,-0.008841,0.005104,-0.308666,0.009591,0.096259,0.014880,2.5878,-3.7242,9.2179
12514,11.0,-0.006222,0.000022,-0.308820,-0.007246,-0.000201,0.009637,-4.4165,-1.6807,0.0260,0.00047307,-0.00024055,-0.00005156,-0.00545928,0.01276595,-0.02230309,-0.2915,0.9408,-9.7470,-0.020837,0.026413,0.005989,28.0787,16.5023,34.4958,-3.4350,0.3100,110,-1,0,-0.008861,0.005116,-0.308442,0.009308,0.098586,0.015987,2.6137,-3.7343,9.3336
12525,11.0,-0.006326,0.000003,-0.309340,-0.007554,0.001201,0.002904,-4.4246,-1.6636,0.0020,0.00048512,-0.00025224,-0.00005305,-0.00534162,0.01249755,-0.01886551,-0.2941,0.9172,-9.7305,-0.008614,0.022388,0.026003,28.0787,16.5023,34.4958,-3.4350,0.3110,112,0,0,-0.009379,0.005057,-0.308285,0.003186,0.098831,0.017242,2.5446,-3.6887,9.4309
12537,12.0,-0.006381,0.000020,-0.309308,-0.007215,0.001291,0.002530,-4.4182,-1.6595,-0.0017,0.00048471,-0.00023545,-0.00005149,-0.00534485,0.01249430,-0.01886478,-0.2970,0.7776,-9.8259,0.010690,0.007034,0.033577,27.2911,17.2154,33.2778,-3.4350,0.3110,114,0,0,-0.009537,0.005121,-0.309142,0.002528,0.101255,0.008149,2.5157,-3.6706,9.6467
12548,11.0,-0.006453,0.000048,-0.309206,-0.007289,0.000575,0.002838,-4.4062,-1.6516,-0.0010,0.00047528,-0.00023113,-0.00005079,-0.00536030,0.01252847,-0.01929461,-0.3073,0.6868,-9.8580,0.017872,0.011373,0.025080,27.2911,17.2154,33.2778,-3.4350,0.3110,106,0,0,-0.009577,0.005183,-0.309059,0.002863,0.102022,0.008888,2.5584,-3.6848,9.7784
12559,11.0,-0.006595,0.000090,-0.307958,-0.007967,-0.000505,0.016904,-4.3853,-1.6299,0.0009,0.00044980,-0.00025946,-0.00005242,-0.00556696,0.01311444,-0.02580751,-0.2854,0.6216,-9.8166,0.026916,0.025751,0.013592,27.2911,17.2154,33.2778,-3.4350,0.3080,105,0,0,-0.009723,0.005334,-0.308780,0.002816,0.100999,0.010734,2.5800,-3.6759,9.9864
12570,11.0,-0.006702,0.000123,-0.307726,-0.008001,-0.001294,0.018109,-4.3683,-1.6168,-0.0008,0.00042785,-0.00026928,-0.00005249,-0.00557167,0.01312810,-0.02604568,-0.2645,0.6392,-9.7505,0.021938,0.018349,-0.002460,27.2911,17.2154,33.2778,-3.3821,0.3080,107,0,0,-0.009855,0.005410,-0.307636,0.002428,0.099874,0.022672,2.5681,-3.6466,10.0562
12581,11.0,-0.006707,0.000122,-0.307527,-0.007027,-0.002626,0.018122,-4.3701,-1.6227,-0.0014,0.00041612,-0.00022963,-0.00004914,-0.00558373,0.01315151,-0.02604214,-0.2796,0.6170,-9.8134,-0.005445,-0.000268,0.001271,27.2911,17.2154,33.2778,-3.3821,0.3080,106,0,0,-0.009956,0.005479,-0.307356,0.002476,0.099634,0.024651,2.6190,-3.6495,10.1667
12592,11.0,-0.006646,0.000111,-0.307105,-0.005110,-0.003126,0.020078,-4.3736,-1.6422,-0.0021,0.00040487,-0.00016339,-0.00004375,-0.00564358,0.01324916,-0.02723248,-0.2528,0.6962,-9.8713,-0.008169,-0.014805,-0.011267,27.2911,17.2154,33.2778,-3.3821,0.3080,105,0,0,-0.009940,0.005595,-0.306782,0.004924,0.098353,0.026688,2.6373,-3.6309,9.9293
12603,11.0,-0.006604,0.000085,-0.306889,-0.003594,-0.002452,0.019083,-4.3829,-1.6552,-0.0019,0.00040301,-0.00011722,-0.00004002,-0.00566092,0.01323883,-0.02723084,-0.2504,0.8240,-9.8916,-0.015117,-0.008782,-0.015059,27.2911,17.2154,33.2778,-3.3821,0.3110,112,0,0,-0.009878,0.005658,-0.308679,0.006440,0.098044,0.003631,2.5800,-3.6259,9.9855
12613,10.0,-0.006631,0.000039,-0.306643,-0.003148,-0.001271,0.020111,-4.4026,-1.6500,0.0004,0.00041756,-0.00011373,-0.00004018,-0.00567145,0.01326674,-0.02752063,-0.2513,0.9113,-9.7561,-0.030304,0.009821,-0.000959,27.2911,17.2154,33.2778,-3.3821,0.3110,112,0,0,-0.009829,0.005700,-0.308645,0.007586,0.099428,0.003689,2.6073,-3.6481,10.0793
12624,11.0,-0.006691,0.000026,-0.308328,-0.003045,0.000752,-0.000270,-4.4051,-1.6402,0.0008,0.00042382,-0.00012912,-0.00004159,-0.00534756,0.01243509,-0.01749370,-0.2454,0.9456,-9.6021,-0.001114,0.012107,0.008564,27.6890,16.8477,32.8869,-3.3610,0.3110,111,0,0,-0.009860,0.005740,-0.308494,0.007424,0.102096,0.007438,2.5567,-3.6377,10.2445
12636,12.0,-0.006186,0.000050,-0.308285,0.003207,0.002955,0.001595,-4.3891,-1.6847,-0.0245,0.00042334,0.00013875,-0.00001704,-0.00544670,0.01245127,-0.01768050,-0.2757,0.9379,-9.6633,0.023795,-0.010205,0.016183,27.6890,16.8477,32.8869,-3.3610,0.3080,105,1,0,-0.009894,0.005792,-0.307594,0.007146,0.103277,0.019310,2.5022,-3.6167,10.3025
12647,11.0,-0.006091,0.000084,-0.308269,0.003658,0.003732,0.001431,-4.3736,-1.7028,-0.0028,0.00042556,0.00016955,-0.00001426,-0.00545389,0.01244114,-0.01767977,-0.3170,0.8377,-9.8031,0.026463,-0.024004,0.028343,27.6890,16.8477,32.8869,-3.3610,0.3080,109,0,0,-0.009395,0.006054,-0.307168,0.012147,0.106975,0.023539,2.5075,-3.6515,10.4642
12658,11.0,-0.006039,0.000105,-0.309164,0.003280,0.003737,-0.009308,-4.3680,-1.7102,-0.0001,0.00043791,0.00017596,-0.00001407,-0.00531167,0.01204276,-0.01301051,-0.3471,0.7841,-9.8025,0.013434,-0.011987,0.028553,27.6890,16.8477,32.8869,-3.3610,0.3110,122,0,0,-0.009310,0.006157,-0.306871,0.012351,0.107971,0.025164,2.5514,-3.6815,10.5868
12669,11.0,-0.006032,0.000134,-0.309268,0.002780,0.003009,-0.009706,-4.3585,-1.7091,0.0015,0.00044166,0.00016203,-0.00001549,-0.00530364,0.01205063,-0.01301059,-0.3156,0.7040,-9.8301,0.017132,-0.002976,0.024809,27.6890,16.8477,32.8869,-3.3610,0.3110,122,0,0,-0.009257,0.006251,-0.308678,0.011985,0.107333,0.003375,2.4949,-3.6786,10.6783
12680,11.0,-0.006051,0.000166,-0.309330,0.001930,0.002276,-0.009710,-4.3464,-1.7036,0.0015,0.00043985,0.00013743,-0.00001754,-0.00530437,0.01207255,-0.01326480,-0.3267,0.6914,-9.8479,0.019507,0.002525,0.013059,27.6890,16.8477,32.8869,-3.3610,0.3110,120,0,0,-0.009250,0.006425,-0.308562,0.010970,0.105937,0.004956,2.5218,-3.6512,10.4432
12691,11.0,-0.006068,0.000198,-0.308097,0.001242,0.001711,0.004434,-4.3322,-1.7000,0.0009,0.00043124,0.00012020,-0.00001876,-0.00551578,0.01267815,-0.02007052,-0.3261,0.7033,-9.9363,0.020267,0.001575,0.000069,27.6890,16.8477,32.8869,-3.3610,0.3080,127,0,0,-0.009278,0.006514,-0.308515,0.010202,0.105510,0.005109,2.5659,-3.6606,10.5601
12702,11.0,-0.006057,0.000168,-0.308021,0.001361,0.001345,0.003300,-4.3517,-1.6987,0.0015,0.00045728,0.00011829,-0.00001982,-0.00552185,0.01270110,-0.02025991,-0.2859,0.7830,-9.9395,-0.024850,0.001415,0.002860,27.6890,16.8477,32.8869,-3.3610,0.3080,130,0,0,-0.009287,0.006653,-0.307472,0.009500,0.104831,0.013693,2.5592,-3.6606,10.7382
12713,11.0,-0.006080,0.000108,-0.307983,0.001607,0.000930,0.003549,-4.3868,-1.6879,0.0025,0.00049757,0.00009614,-0.00002288,-0.00552485,0.01270461,-0.02025954,-0.2300,0.7964,-9.7740,-0.046292,0.011526,0.013321,27.6890,16.8477,32.8869,-3.3081,0.3080,120,0,0,-0.009269,0.006682,-0.307315,0.009646,0.104289,0.013776,2.4848,-3.6440,10.8064
12724,11.0,-0.006081,0.000102,-0.308477,0.002292,0.000889,-0.001448,-4.3920,-1.6855,0.0010,0.00050725,0.00008347,-0.00002423,-0.00542921,0.01247559,-0.01756783,-0.2042,0.7679,-9.6805,-0.005011,0.000467,0.013365,28.8717,17.2154,33.6915,-3.3081,0.3100,126,0,0,-0.009275,0.006687,-0.307174,0.009835,0.104190,0.015189,2.4835,-3.6491,10.9259
12735,11.0,-0.006050,0.000146,-0.308493,0.002874,0.000594,-0.001321,-4.3702,-1.6925,-0.0009,0.00048672,0.00008424,-0.00002351,-0.00543754,0.01247893,-0.01756774,-0.2433,0.6968,-9.7896,0.030834,-0.011211,0.002699,28.8717,17.2154,33.6915,-3.3081,0.3100,126,0,0,-0.009268,0.006807,-0.308202,0.010424,0.103510,0.005552,2.4477,-3.6395,11.1114
12746,11.0,-0.006057,0.000162,-0.308479,0.002875,0.000406,-0.001044,-4.3630,-1.6894,0.0006,0.00048072,0.00006285,-0.00002505,-0.00543655,0.01248943,-0.01771213,-0.2535,0.7316,-9.8037,0.010907,0.000202,0.005216,28.8717,17.2154,33.6915,-3.3081,0.3100,120,0,0,-0.009683,0.006824,-0.308149,0.005739,0.101831,0.006469,2.4173,-3.6100,11.1915
12757,11.0,-0.006085,0.000158,-0.307118,0.002677,-0.000011,0.015175,-4.3664,-1.6799,0.0010,0.00048304,0.00003036,-0.00002764,-0.00565376,0.01305724,-0.02445534,-0.2464,0.7259,-9.7793,-0.004941,0.007527,0.003390,28.8717,17.2154,33.6915,-3.3081,0.3070,116,0,0,-0.009692,0.006895,-0.308048,0.006165,0.102041,0.007739,2.4510,-3.6220,11.2960
12768,11.0,-0.006026,0.000157,-0.306931,0.003260,-0.000486,0.015096,-4.3685,-1.6895,-0.0004,0.00048237,0.00004565,-0.00002642,-0.00566113,0.01306584,-0.02456189,-0.2707,0.7176,-9.8361,-0.002865,-0.012433,0.005079,28.8717,17.2154,33.6915,-3.3081,0.3070,116,0,0,-0.009720,0.006998,-0.306660,0.006921,0.101137,0.021678,2.4258,-3.6110,11.4569
12779,11.0,-0.005913,0.000188,-0.306773,0.004849,-0.000409,0.013725,-4.3510,-1.7123,-0.0018,0.00046139,0.00008408,-0.00002278,-0.00568035,0.01306203,-0.02456073,-0.2292,0.7367,-9.9306,0.024091,-0.028667,0.001580,28.8717,17.2154,33.6915,-3.3081,0.3070,112,0,0,-0.009662,0.007073,-0.306419,0.007809,0.100590,0.022421,2.3774,-3.6054,11.5141
12790,11.0,-0.005799,0.000238,-0.307332,0.006098,-0.000025,0.003397,-4.3229,-1.7354,-0.0012,0.00043073,0.00011357,-0.00001970,-0.00558379,0.01278532,-0.02117573,-0.2501,0.7491,-10.0032,0.039034,-0.030258,-0.002134,28.8717,17.2154,33.6915,-3.3980,0.3090,118,0,0,-0.009569,0.007170,-0.306198,0.009510,0.101449,0.022366,2.4394,-3.6014,11.1364
12801,11.0,-0.005742,0.000273,-0.307308,0.006419,0.000976,0.001016,-4.3027,-1.7442,-0.0004,0.00041419,0.00010653,-0.00001973,-0.00558659,0.01277106,-0.02117723,-0.2673,0.8266,-10.0114,0.029501,-0.015791,0.006922,28.8717,17.2154,33.6915,-3.3980,0.3090,111,0,0,-0.009395,0.007402,-0.307150,0.011665,0.103059,0.006635,2.4480,-3.6275,11.2872
12812,11.0,-0.005737,0.000290,-0.307245,0.005989,0.001707,0.000077,-4.2941,-1.7399,0.0012,0.00041321,0.00006989,-0.00002263,-0.00559003,0.01279448,-0.02148036,-0.2786,0.8242,-9.9465,0.014294,-0.001771,0.016266,28.8717,17.2154,33.6915,-3.3980,0.3090,113,0,0,-0.009355,0.007503,-0.307096,0.011789,0.103518,0.005467,2.4069,-3.6179,11.3456
12823,11.0,-0.005758,0.000303,-0.307113,0.005056,0.002122,0.000242,-4.2888,-1.7301,0.0017,0.00041845,0.00002237,-0.00002659,-0.00560204,0.01283806,-0.02214885,-0.3025,0.8032,-9.9283,0.010440,0.004790,0.018407,28.8717,17.2154,33.6915,-3.3980,0.3080,109,0,0,-0.009341,0.007582,-0.306969,0.011605,0.104601,0.005823,2.4395,-3.6299,11.4533
12834,11.0,-0.005837,-0.000140,-0.307067,0.003842,-0.003417,0.000121,-4.3051,-1.7107,0.0074,0.00067644,-0.00005248,-0.00003967,-0.00559953,0.01288975,-0.02237601,-0.2731,0.7273,-9.8650,0.026063,0.015046,0.012013,26.8906,16.5098,32.4047,-3.3980,0.3080,109,0,-1,-0.009397,0.007713,-0.306954,0.009768,0.104348,0.004810,2.4093,-3.6112,11.6408
12845,11.0,-0.005952,-0.000112,-0.307067,0.002089,-0.002507,-0.000017,-4.2850,-1.6845,0.0019,0.00064081,-0.00014027,-0.00004564,-0.00558675,0.01288020,-0.02238044,-0.2951,0.7662,-9.8117,0.025878,0.023179,0.013078,26.8906,16.5098,32.4047,-3.3980,0.3080,106,0,0,-0.009378,0.007358,-0.306912,0.009708,0.098600,0.005068,2.3495,-3.5836,11.7184
12856,11.0,-0.006105,-0.000095,-0.308075,0.000598,-0.001794,-0.011129,-4.2723,-1.6513,0.0026,0.00061623,-0.00024255,-0.00005309,-0.00543654,0.01250187,-0.01761089,-0.2432,0.7608,-9.7383,0.016640,0.031661,0.016992,26.8906,16.5098,32.4047,-3.4561,0.3100,106,0,0,-0.009470,0.007426,-0.306861,0.008210,0.099248,0.005762,2.3882,-3.5779,11.8311
12867,11.0,-0.006218,-0.000070,-0.308194,-0.001102,-0.001190,-0.010527,-4.2564,-1.6281,0.0015,0.00059173,-0.00030811,-0.00005764,-0.00541934,0.01249466,-0.01761423,-0.3195,0.7484,-9.7401,0.021551,0.022627,0.016230,26.8906,16.5098,32.4047,-3.4561,0.3100,109,0,0,-0.009730,0.007531,-0.308223,0.004741,0.099375,-0.005903,2.3697,-3.5255,12.0241
12878,11.0,-0.006278,-0.000552,-0.308232,-0.001946,-0.006678,-0.010316,-4.2881,-1.6159,0.0079,0.00085466,-0.00033257,-0.00006748,-0.00542748,0.01257039,-0.01800817,-0.3162,0.7287,-9.8680,0.001597,0.012933,0.017879,26.8906,16.5098,32.4047,-3.4561,0.3100,105,0,-1,-0.009843,0.007592,-0.308196,0.003139,0.098893,-0.003436,2.3276,-3.4957,12.0999
12889,11.0,-0.006403,-0.000606,-0.307618,-0.003612,-0.006314,-0.002207,-4.3098,-1.5874,0.0013,0.00084418,-0.00038740,-0.00007153,-0.00550914,0.01283211,-0.02140599,-0.3303,0.7621,-9.8301,-0.035221,0.033211,0.014695,26.8906,16.5098,32.4047,-3.4561,0.3080,105,0,0,-0.009871,0.007234,-0.308269,0.002567,0.093833,-0.002680,2.2920,-3.4425,11.8405
12900,11.0,-0.006577,-0.000645,-0.307572,-0.005093,-0.005609,-0.000279,-4.3233,-1.5516,0.0015,0.00082831,-0.00046269,-0.00007698,-0.00550407,0.01285299,-0.02171253,-0.2713,0.7770,-9.6919,-0.023401,0.041143,0.011689,26.8906,16.5098,32.4047,-3.4561,0.3080,107,0,0,-0.009984,0.007213,-0.307531,0.001025,0.093984,0.006303,2.2920,-3.4286,11.9538
12911,11.0,-0.006642,-0.000650,-0.307569,-0.005110,-0.003646,0.000857,-4.3170,-1.5426,-0.0008,0.00080180,-0.00046832,-0.00007656,-0.00550330,0.01283176,-0.02171448,-0.2598,0.8725,-9.6878,0.006101,0.012209,0.006973,26.8906,16.5098,32.4047,-3.4561,0.3080,107,0,0,-0.010230,0.007214,-0.307285,-0.001178,0.094136,0.011245,2.2307,-3.3800,12.1386
12922,11.0,-0.006162,-0.000633,-0.308300,0.001098,-0.001943,-0.006358,-4.3011,-1.5804,-0.0148,0.00077336,-0.00016667,-0.00005017,-0.00546478,0.01255198,-0.01826893,-0.2524,0.8424,-9.6562,0.020907,-0.003838,0.012667,26.8906,16.5098,32.4047,-3.4561,0.3100,116,1,0,-0.009845,0.007359,-0.307170,0.003562,0.096135,0.013298,2.1742,-3.3787,12.1864
12933,11.0,-0.006151,-0.000151,-0.308366,0.001095,0.004307,-0.005590,-4.2665,-1.5809,-0.0072,0.00048928,-0.00016834,-0.00004181,-0.00546332,0.01247379,-0.01827680,-0.2727,0.7965,-9.7236,0.002767,-0.002439,0.018307,27.2884,17.2228,34.0821,-3.5089,0.3100,116,0,1,-0.009942,0.007866,-0.308365,0.002374,0.102595,0.001466,2.2169,-3.3882,12.2910
12945,12.0,-0.006103,-0.000137,-0.308322,0.001082,0.003274,-0.003328,-4.2684,-1.5892,-0.0003,0.00050846,-0.00014645,-0.00004061,-0.00548451,0.01251919,-0.01876515,-0.3108,0.6817,-9.7166,0.001623,-0.010058,0.018805,27.2884,17.2228,34.0821,-3.5089,0.3100,118,0,0,-0.010011,0.008445,-0.308212,0.001609,0.106362,0.005813,2.1950,-3.3888,12.4693
12956,11.0,-0.006034,-0.000122,-0.308170,0.001662,0.002225,0.000338,-4.2663,-1.6020,-0.0003,0.00051664,-0.00011385,-0.00003837,-0.00551853,0.01260313,-0.01957163,-0.2791,0.6532,-9.6599,0.005564,-0.015591,0.015902,27.2884,17.2228,34.0821,-3.5089,0.3090,113,0,0,-0.009974,0.008526,-0.308143,0.001993,0.104449,0.007524,2.1417,-3.3855,12.5468
12967,11.0,-0.005953,-0.000095,-0.308080,0.002528,0.001713,0.002752,-4.2556,-1.6186,-0.0007,0.00051325,-0.00007832,-0.00003553,-0.00554078,0.01263247,-0.01993879,-0.2611,0.6800,-9.6703,0.017050,-0.020217,0.003649,27.2884,17.2228,34.0821,-3.5089,0.3090,122,0,0,-0.009855,0.008709,-0.307955,0.003937,0.101959,0.012002,2.1152,-3.4026,12.7223
12978,11.0,-0.005857,-0.000065,-0.308048,0.003144,0.001001,0.003042,-4.2427,-1.6375,-0.0002,0.00050282,-0.00003844,-0.00003235,-0.00554895,0.01264227,-0.01993713,-0.2970,0.6566,-9.7783,0.019166,-0.023278,0.008807,27.2884,17.2228,34.0821,-3.5089,0.3090,122,0,0,-0.009786,0.008807,-0.307705,0.004927,0.101509,0.015564,2.1417,-3.4256,12.8218
12990,12.0,-0.005694,-0.000069,-0.308509,0.004852,0.000103,-0.003380,-4.2494,-1.6678,0.0002,0.00051009,0.00003200,-0.00002749,-0.00549535,0.01246854,-0.01774845,-0.2608,0.6792,-9.8645,-0.007351,-0.033363,0.015314,27.2884,17.2228,34.0821,-3.5089,0.3100,120,0,0,-0.009706,0.008913,-0.307552,0.005841,0.100368,0.016690,2.1243,-3.3994,12.4467
13001,11.0,-0.005575,-0.000093,-0.308551,0.005677,-0.001154,-0.004324,-4.2649,-1.6851,0.0008,0.00052014,0.00006938,-0.00002526,-0.00550505,0.01248579,-0.01774621,-0.2849,0.6508,-9.8895,-0.021904,-0.021760,0.015843,27.2884,17.2228,34.0821,-3.5089,0.3100,122,0,0,-0.009430,0.009073,-0.308437,0.008884,0.098638,0.005198,2.0689,-3.4357,12.6183
13012,11.0,-0.005467,-0.000091,-0.308473,0.006285,-0.001875,-0.005000,-4.2645,-1.7019,0.0002,0.00050854,0.00009585,-0.00002312,-0.00553109,0.01253121,-0.01837649,-0.2916,0.6718,-10.0144,-0.000531,-0.022451,0.009770,27.2884,17.2228,34.0821,-3.6041,0.3100,121,0,0,-0.009315,0.009133,-0.308388,0.009832,0.097842,0.005139,2.0711,-3.4590,12.7217
13023,11.0,-0.005437,-0.000116,-0.308791,0.005199,-0.002417,-0.009841,-4.2772,-1.7004,0.0001,0.00050893,0.00007595,-0.00002462,-0.00548005,0.01245295,-0.01726617,-0.3647,0.7067,-9.9717,-0.019390,-0.001546,0.007105,27.2884,17.2228,34.0821,-3.6041,0.3100,120,0,0,-0.009135,0.009277,-0.308794,0.010226,0.096121,-0.002569,2.0259,-3.4753,12.8903
13034,11.0,-0.005486,-0.000134,-0.308797,0.003585,-0.002722,-0.009155,-4.2852,-1.6839,-0.0014,0.00050273,0.00001526,-0.00002845,-0.00548632,0.01248624,-0.01774823,-0.3384,0.7089,-9.8506,-0.013185,0.014495,0.008669,28.4739,17.2228,34.4958,-3.6041,0.3100,114,0,0,-0.009115,0.009314,-0.308715,0.009195,0.094907,-0.002025,1.9607,-3.4626,12.9634
13045,11.0,-0.005528,0.000344,-0.308899,0.002155,0.002611,-0.009401,-4.2556,-1.6713,-0.0127,0.00020429,-0.00003088,-0.00002113,-0.00546842,0.01244237,-0.01775317,-0.3442,0.7102,-9.8194,-0.007141,0.011713,0.001401,28.4739,17.2228,34.4958,-3.6041,0.3100,116,0,1,-0.009149,0.009342,-0.308736,0.007766,0.094397,-0.001718,1.9659,-3.4584,13.0703
13056,11.0,-0.005539,0.000360,-0.308929,0.001867,0.002331,-0.008676,-4.2507,-1.6679,-0.0001,0.00021150,-0.00005138,-0.00002276,-0.00547650,0.01246553,-0.01807581,-0.2823,0.7279,-9.8101,0.009496,0.001438,0.001596,28.4739,17.2228,34.4958,-3.6041,0.3100,112,0,0,-0.009417,0.010297,-0.308973,0.003350,0.102395,-0.002421,1.9576,-3.4353,13.2287
13067,11.0,-0.005565,0.000382,-0.309024,0.001696,0.002357,-0.008693,-4.2416,-1.6622,-0.0006,0.00021418,-0.00008053,-0.00002475,-0.00547612,0.01246281,-0.01807655,-0.2563,0.7461,-9.7990,0.015067,0.003774,-0.001301,28.4739,17.2228,34.4958,-3.6041,0.3100,118,0,0,-0.009432,0.010370,-0.308998,0.003150,0.101030,-0.001704,1.9062,-3.4179,13.2958
13078,11.0,-0.005658,0.000398,-0.308984,0.000304,0.002230,-0.007350,-4.2358,-1.6427,-0.0007,0.00022027,-0.00014569,-0.00002942,-0.00548808,0.01250453,-0.01869110,-0.3041,0.7382,-9.8248,0.010319,0.019587,-0.006397,28.4739,17.2228,34.4958,-3.6041,0.3100,116,0,0,-0.009458,0.010439,-0.308873,0.003026,0.100694,0.000728,1.9255,-3.4212,13.3960
13089,11.0,-0.005764,0.000389,-0.309044,-0.000595,0.001657,-0.007302,-4.2440,-1.6197,-0.0005,0.00023919,-0.00021135,-0.00003449,-0.00548484,0.01251487,-0.01878573,-0.2554,0.7190,-9.8188,-0.009474,0.024470,-0.000533,28.4739,17.2228,34.4958,-3.5089,0.3100,116,0,0,-0.009632,0.010535,-0.308855,0.001204,0.098883,0.001862,1.9104,-3.3534,13.0724
13100,11.0,-0.005788,0.000373,-0.309045,-0.000681,0.001858,-0.006146,-4.2541,-1.6143,0.0006,0.00026166,-0.00022156,-0.00003593,-0.00549602,0.01254160,-0.01913500,-0.2722,0.7935,-9.7752,-0.011828,0.006612,-0.002905,28.4739,17.2228,34.4958,-3.5089,0.3100,116,0,0,-0.009723,0.010564,-0.309079,0.000616,0.097362,-0.000010,1.8464,-3.3188,13.1386
13111,11.0,-0.005818,0.000368,-0.309109,-0.000312,0.002075,-0.005564,-4.2589,-1.6079,-0.0001,0.00027917,-0.00023814,-0.00003751,-0.00550131,0.01253639,-0.01913550,-0.2190,0.7851,-9.7436,-0.003947,0.006587,0.005640,28.4739,17.2228,34.4958,-3.5089,0.3100,114,0,0,-0.009756,0.010595,-0.309076,0.000431,0.097120,0.000985,1.8483,-3.3177,13.2350
13122,11.0,-0.005707,0.000391,-0.309578,0.001001,0.003074,-0.011940,-4.2473,-1.6326,-0.0006,0.00028191,-0.00017043,-0.00003246,-0.00545069,0.01242242,-0.01744168,-0.2829,0.8491,-9.9491,0.019220,-0.027377,0.001832,28.4739,17.2228,34.4958,-3.5089,0.3110,108,0,0,-0.009763,0.010715,-0.308919,0.001454,0.096923,0.003885,1.8035,-3.3080,13.3928
13133,11.0,-0.005627,0.000383,-0.309719,0.001498,0.003692,-0.013640,-4.2546,-1.6466,-0.0002,0.00031163,-0.00012800,-0.00003001,-0.00545177,0.01241124,-0.01744186,-0.3166,0.8553,-9.9419,-0.005110,-0.016376,0.023223,26.4981,16.5023,34.4958,-3.5089,0.3110,112,0,0,-0.009672,0.010816,-0.309770,0.002524,0.097217,-0.006149,1.7489,-3.3105,13.4517
13144,11.0,-0.005601,0.000389,-0.309775,0.001102,0.003026,-0.014005,-4.2572,-1.6494,0.0005,0.00033140,-0.00012049,-0.00003007,-0.00546794,0.01244547,-0.01788797,-0.3402,0.7239,-9.9417,0.000259,-0.004851,0.019954,26.4981,16.5023,34.4958,-3.5089,0.3110,105,0,0,-0.009536,0.010955,-0.309819,0.002898,0.097187,-0.006452,1.6950,-3.3283,13.6356
13156,12.0,-0.005656,0.000430,-0.309436,-0.000084,0.002881,-0.007642,-4.2396,-1.6380,0.0007,0.00032813,-0.00015894,-0.00003300,-0.00552944,0.01260088,-0.01999502,-0.3238,0.7198,-9.7535,0.025746,0.009244,0.010734,26.4981,16.5023,34.4958,-3.4878,0.3100,107,0,0,-0.009522,0.011017,-0.309766,0.002453,0.096483,-0.005487,1.7037,-3.3359,13.7441
13167,11.0,-0.005736,0.000484,-0.309439,-0.000713,0.002953,-0.005440,-4.2135,-1.6250,0.0000,0.00031355,-0.00020683,-0.00003615,-0.00553365,0.01262262,-0.02031250,-0.2576,0.7104,-9.6815,0.039165,0.011538,0.004719,26.4981,16.5023,34.4958,-3.4878,0.3100,103,0,0,-0.009646,0.011171,-0.309550,0.000474,0.094760,0.000200,1.6927,-3.3154,13.9261
13178,11.0,-0.005785,0.000503,-0.309489,-0.000849,0.002170,-0.003591,-4.2086,-1.6161,0.0001,0.00031915,-0.00023243,-0.00003818,-0.00553480,0.01263495,-0.02031188,-0.2479,0.6606,-9.6376,0.009162,0.008793,0.007442,26.4981,16.5023,34.4958,-3.4878,0.3100,107,0,0,-0.009725,0.011249,-0.309447,-0.000108,0.093621,0.003205,1.6592,-3.2898,13.9952
13189,11.0,-0.005811,0.000505,-0.309745,-0.000768,0.001317,-0.004028,-4.2113,-1.6110,0.0001,0.00032960,-0.00024360,-0.00003929,-0.00549965,0.01256521,-0.01936509,-0.2502,0.6580,-9.6039,-0.001933,0.005579,0.005648,26.4981,16.5023,34.4958,-3.4878,0.3110,107,0,0,-0.009776,0.011305,-0.309406,-0.000058,0.092852,0.005599,1.6958,-3.2616,13.6252
13200,11.0,-0.005804,0.000546,-0.309787,-0.000645,0.000402,-0.003478,-4.1927,-1.6155,0.0002,0.00030827,-0.00023437,-0.00003816,-0.00549995,0.01258284,-0.01936365,-0.2844,0.6119,-9.7577,0.025768,-0.005348,-0.005735,26.4981,16.5023,34.4958,-3.4878,0.3110,112,0,0,-0.009837,0.011416,-0.309867,0.000008,0.090412,0.004356,1.6565,-3.2417,13.7917
13211,11.0,-0.005798,0.000585,-0.309738,-0.000412,-0.000142,-0.003881,-4.1733,-1.6200,-0.0003,0.00028416,-0.00022697,-0.00003696,-0.00551483,0.01260819,-0.01976598,-0.2775,0.6494,-9.9456,0.026594,-0.005389,-0.009967,26.4981,16.5023,34.4958,-3.4878,0.3110,103,0,0,-0.009842,0.011506,-0.309823,0.000203,0.089136,0.005403,1.6269,-3.2315,13.8532
13223,12.0,-0.005880,0.000599,-0.309938,-0.001395,0.000013,-0.007041,-4.1650,-1.6046,-0.0011,0.00027519,-0.00027192,-0.00003968,-0.00548452,0.01256097,-0.01917894,-0.2978,0.7339,-9.9235,0.010447,0.016068,-0.014481,26.8933,16.1421,32.8412,-3.4878,0.3110,110,0,0,-0.009903,0.011647,-0.310029,-0.000158,0.088268,0.001423,1.6093,-3.2177,13.9963
13234,11.0,-0.006011,0.000566,-0.309940,-0.001899,0.000350,-0.005799,-4.1819,-1.5771,-0.0008,0.00029778,-0.00034428,-0.00004527,-0.00548296,0.01258653,-0.01948915,-0.2015,0.7913,-9.7639,-0.022862,0.030901,-0.005858,26.8933,16.1421,32.8412,-3.4878,0.3110,109,0,0,-0.009992,0.011667,-0.309927,-0.001247,0.088549,0.002622,1.6162,-3.2060,14.0849
13245,11.0,-0.006103,0.000553,-0.309991,-0.002191,0.000866,-0.003528,-4.1883,-1.5589,-0.0007,0.00031055,-0.00038885,-0.00004863,-0.00548097,0.01257968,-0.01949015,-0.2210,0.7802,-9.5902,-0.007211,0.020128,0.008105,26.8933,16.1421,32.8412,-3.4878,0.3110,119,0,0,-0.010101,0.011666,-0.309901,-0.001940,0.088003,0.003725,1.5464,-3.1667,14.1443
13256,11.0,-0.006093,0.000562,-0.310526,-0.001419,0.001440,-0.006614,-4.1836,-1.5630,-0.0000,0.00031231,-0.00037056,-0.00004733,-0.00542028,0.01243545,-0.01742622,-0.2274,0.7658,-9.5393,0.008288,-0.004279,0.009728,26.8933,16.1421,32.8412,-3.4878,0.3120,119,0,0,-0.010199,0.011674,-0.309854,-0.002505,0.088156,0.006343,1.5469,-3.1532,14.2410
