timestamp_ms,dt_ms,pos_x,pos_y,pos_z,vel_x,vel_y,vel_z,roll_deg,pitch_deg,yaw_deg,gyro_bias_x,gyro_bias_y,gyro_bias_z,accel_bias_x,accel_bias_y,accel_bias_z,raw_accel_x,raw_accel_y,raw_accel_z,raw_gyro_x,raw_gyro_y,raw_gyro_z,raw_mag_x,raw_mag_y,raw_mag_z,raw_baro_alt,raw_tof,raw_flow_squal,raw_flow_dx,raw_flow_dy,dev_pos_x,dev_pos_y,dev_pos_z,dev_vel_x,dev_vel_y,dev_vel_z,dev_roll_deg,dev_pitch_deg,dev_yaw_deg
11106,10.0,0.000011,-0.000592,-0.029056,0.000066,-0.058419,-0.000353,-0.0152,-0.0034,0.0023,0.00000000,0.00000000,-0.00173288,-0.01852559,0.00830251,0.00000000,-0.2246,0.1692,-9.8380,-0.002906,-0.005125,0.001871,-14.4320,33.1620,17.1543,-26.4862,0.0290,65,0,-1,0.001135,-0.000239,-0.028148,-0.006855,0.030970,-0.002527,1.0855,0.3332,0.0781
11117,11.0,0.000016,-0.000087,-0.029062,-0.000894,-0.001415,-0.000689,0.2131,-0.1463,-0.0035,-0.00000012,0.00000051,-0.00173287,-0.01853611,0.00765851,-0.00000016,-0.2139,0.1491,-9.8407,-0.001586,-0.001387,0.000300,-14.4320,33.1620,17.1543,-26.4862,0.0290,54,0,1,0.001177,-0.000757,-0.028823,-0.011428,0.023981,-0.009100,1.0055,0.4586,0.1549
11128,11.0,0.000025,0.000479,-0.030801,-0.001692,0.020179,-0.077171,0.5210,-0.1651,-0.0062,-0.00000102,0.00000055,-0.00173285,-0.01856662,0.00704327,0.00004851,-0.2044,0.1612,-9.8460,-0.001045,-0.004700,0.005157,-14.4320,33.1620,17.1543,-26.4862,0.0300,54,0,1,0.001146,-0.000210,-0.028916,-0.011187,0.031263,-0.009405,1.0631,0.3415,0.0923
11139,11.0,0.000026,-0.000071,-0.030023,-0.002295,0.000352,-0.029132,-0.1850,-0.2882,0.0078,0.00000237,0.00000144,-0.00173291,-0.01861464,0.00828638,0.00000037,-0.2193,0.1719,-9.8647,-0.002341,-0.003807,0.000431,-14.4320,33.1620,17.1543,-26.4862,0.0300,63,0,-1,0.001099,0.000943,-0.029758,-0.010859,0.044116,-0.016634,1.1500,0.1609,0.0011
11150,11.0,0.000029,-0.000076,-0.030448,-0.002781,0.001187,-0.032230,-0.2004,-0.3229,0.0083,0.00000245,0.00000163,-0.00173291,-0.01868821,0.00831827,0.00003639,-0.1957,0.1520,-9.8401,-0.000875,-0.001198,-0.000571,-14.4320,33.1620,17.1543,-26.4862,0.0300,63,0,0,0.001130,0.000421,-0.029976,-0.013241,0.035374,-0.017686,1.0784,0.2781,0.0699
11161,11.0,-0.001053,-0.000610,-0.030804,-0.028646,-0.011391,-0.032525,-0.8286,0.6551,0.0377,0.00000717,-0.00000458,-0.00173316,-0.01610563,0.00967965,0.00002547,-0.1895,0.1495,-9.8386,-0.000778,-0.003639,0.003208,-15.7888,33.8726,17.6212,-26.5231,0.0300,69,-2,-1,0.000111,-0.000045,-0.030331,-0.033082,0.024499,-0.018078,0.8522,0.7162,0.3146
11173,12.0,-0.001119,-0.000644,-0.030226,-0.025320,-0.008531,-0.015511,-0.7096,0.3098,0.0361,0.00000610,-0.00000143,-0.00173306,-0.01695964,0.00939477,-0.00052953,-0.2296,0.1861,-9.8567,-0.002204,0.001578,0.005104,-15.7888,33.8726,17.6212,-26.5231,0.0300,62,0,0,-0.000944,-0.000558,-0.030202,-0.049644,0.015705,-0.014910,0.6812,1.0573,0.5024
11184,11.0,-0.000656,-0.000659,-0.030400,-0.008893,-0.006489,-0.016039,-0.6397,-0.6765,0.0275,0.00000557,0.00000998,-0.00173282,-0.01925655,0.00915125,-0.00053914,-0.1896,0.1652,-9.8430,0.001390,-0.003034,0.002818,-15.7888,33.8726,17.6212,-26.5231,0.0300,64,1,0,-0.001013,-0.000521,-0.030357,-0.046255,0.014804,-0.015445,0.5432,0.9218,0.4545
11195,11.0,-0.000171,-0.000677,-0.030653,0.004704,-0.004557,-0.017761,-0.5830,-1.3927,0.0187,0.00000478,0.00001937,-0.00173258,-0.02115977,0.00899030,-0.00042026,-0.2018,0.1849,-9.8532,-0.004848,-0.003015,0.003154,-15.7888,33.8726,17.6212,-26.5231,0.0300,60,1,0,-0.000070,-0.000563,-0.030726,-0.024310,0.019110,-0.016829,0.7528,0.4417,0.2105
11206,11.0,-0.000159,-0.000686,-0.030242,0.004088,-0.003102,-0.009894,-0.5611,-1.3284,0.0227,0.00000487,0.00001826,-0.00173258,-0.02102872,0.00885543,-0.00158164,-0.2081,0.1814,-9.8562,0.002306,-0.002459,0.005861,-15.7888,33.8726,17.6212,-26.5231,0.0300,66,0,0,-0.000095,-0.000560,-0.030340,-0.023446,0.019804,-0.010977,0.7650,0.3996,0.1932
11217,11.0,-0.000150,-0.000696,-0.030391,0.003474,-0.001975,-0.010779,-0.5388,-1.2855,0.0248,0.00000442,0.00001745,-0.00173259,-0.02090284,0.00878540,-0.00146826,-0.2222,0.1619,-9.8419,-0.002317,-0.000471,0.001562,-15.7888,33.8726,17.6212,-26.5231,0.0300,72,0,0,-0.000117,-0.000555,-0.030484,-0.022799,0.020403,-0.011738,0.7776,0.3640,0.1795
11229,12.0,-0.000138,-0.001152,-0.030524,0.002976,-0.012229,-0.011129,-1.0264,-1.2512,0.0441,0.00001529,0.00001668,-0.00173290,-0.02079654,0.01023168,-0.00145757,-0.2190,0.1352,-9.8344,-0.001746,-0.001124,0.002419,-15.7888,33.8726,17.6212,-26.5231,0.0300,74,0,-1,-0.000689,-0.000525,-0.030775,-0.029735,0.020280,-0.013057,0.7437,0.4215,0.2183
11239,10.0,-0.000133,-0.001173,-0.030255,0.002481,-0.010109,-0.006784,-0.9181,-1.2212,0.0431,0.00001242,0.00001596,-0.00173284,-0.02073152,0.00990969,-0.00298172,-0.2192,0.1446,-9.8350,-0.006659,-0.000827,0.002766,-15.7888,33.8726,17.6212,-26.5231,0.0300,65,0,0,-0.000704,-0.001072,-0.030353,-0.029108,0.013562,-0.007093,0.7288,0.4287,0.2272
11250,11.0,-0.000126,-0.001200,-0.030331,0.002110,-0.008205,-0.007094,-0.8387,-1.2030,0.0426,0.00000997,0.00001545,-0.00173278,-0.02065587,0.00963644,-0.00298562,-0.2198,0.1598,-9.8386,-0.004368,-0.001509,0.001826,-15.7888,33.8726,17.6212,-26.5020,0.0300,65,0,0,-0.000736,-0.001074,-0.030425,-0.027842,0.014366,-0.007177,0.7428,0.3828,0.2064
11261,11.0,-0.000121,-0.000763,-0.030462,0.002025,0.004307,-0.007993,-0.3471,-1.1868,0.0284,-0.00000771,0.00001477,-0.00173233,-0.02058866,0.00800826,-0.00268753,-0.1919,0.1658,-9.8369,-0.001704,-0.003523,0.003290,-16.4690,33.8795,17.6010,-26.5020,0.0290,73,0,1,-0.000794,-0.001072,-0.030626,-0.025405,0.016018,-0.007978,0.7685,0.2983,0.1706
11272,11.0,0.000346,-0.000753,-0.029646,0.012316,0.004076,0.002145,-0.3970,-1.5639,0.0226,-0.00000491,0.00003055,-0.00173204,-0.02202613,0.00814853,-0.00846355,-0.2053,0.1478,-9.8495,-0.003641,-0.000711,0.001374,-16.4690,33.8795,17.6010,-26.5020,0.0290,66,1,0,-0.000833,-0.000533,-0.029701,-0.023689,0.023311,0.003154,0.8058,0.2191,0.1319
11283,11.0,0.000375,-0.000746,-0.029660,0.010925,0.004114,0.001533,-0.4367,-1.4722,0.0300,-0.00000317,0.00002609,-0.00173217,-0.02169829,0.00827087,-0.00818304,-0.1860,0.1701,-9.8311,-0.005727,0.000451,0.004718,-16.4690,33.8795,17.6010,-26.5020,0.0290,70,0,0,-0.000350,-0.000514,-0.029641,-0.015322,0.023304,0.002871,0.8204,0.1239,-0.2247
11294,11.0,0.000403,-0.000737,-0.029644,0.009636,0.004083,0.001352,-0.4857,-1.3910,0.0338,0.00000025,0.00002098,-0.00173228,-0.02147627,0.00830531,-0.00818864,-0.1847,0.1832,-9.8321,-0.004463,-0.001846,0.001830,-16.4690,33.8795,17.6010,-26.5020,0.0290,62,0,0,-0.000362,-0.000501,-0.029674,-0.015077,0.023268,0.002048,0.8179,0.1155,-0.2276
11306,12.0,0.000434,-0.000726,-0.029849,0.008616,0.004006,-0.001389,-0.5196,-1.3295,0.0403,0.00000225,0.00001678,-0.00173242,-0.02120710,0.00839311,-0.00634593,-0.1851,0.1632,-9.8301,-0.004013,-0.001339,0.003831,-16.4690,33.8795,17.6010,-26.5601,0.0300,65,0,0,-0.000373,-0.000489,-0.029654,-0.014851,0.023296,0.001981,0.8153,0.1061,-0.2319
11317,11.0,0.000455,-0.000717,-0.029867,0.007426,0.003841,-0.001876,-0.5555,-1.2795,0.0456,0.00000547,0.00001279,-0.00173253,-0.02102517,0.00843162,-0.00635106,-0.2102,0.1702,-9.8573,-0.002241,-0.002172,0.004370,-16.4690,33.8795,17.6010,-26.5601,0.0300,53,0,0,-0.000387,-0.001018,-0.029899,-0.015092,0.016237,-0.000984,0.7866,0.1274,-0.2179
11328,11.0,0.000472,-0.000709,-0.029914,0.006249,0.003509,-0.002426,-0.5786,-1.2405,0.0515,0.00000741,0.00000935,-0.00173264,-0.02086483,0.00851651,-0.00610937,-0.2272,0.1420,-9.8351,-0.000888,-0.000722,0.004594,-16.4690,33.8795,17.6010,-26.5601,0.0290,53,0,0,-0.000398,-0.001012,-0.029910,-0.015029,0.016762,-0.001255,0.7871,0.1146,-0.2227
11339,11.0,0.000486,-0.000704,-0.029412,0.005384,0.003268,0.003708,-0.6052,-1.2105,0.0552,0.00001023,0.00000646,-0.00173274,-0.02083124,0.00862302,-0.01122585,-0.2122,0.1541,-9.8257,-0.005776,-0.001677,0.002488,-16.4690,33.8795,17.6010,-26.5601,0.0290,64,0,0,-0.000421,-0.000997,-0.029375,-0.014953,0.017135,0.004141,0.7879,0.0895,-0.2327
11351,12.0,0.000503,-0.000696,-0.029389,0.004774,0.003244,0.003186,-0.6268,-1.1860,0.0605,0.00001236,0.00000347,-0.00173285,-0.02071817,0.00869817,-0.01102556,-0.1990,0.1679,-9.8416,-0.004028,-0.002537,0.003803,-17.1468,34.2314,18.0680,-26.5601,0.0290,57,0,0,-0.000432,-0.000989,-0.029358,-0.014874,0.017342,0.003861,0.7875,0.0761,-0.2387
11362,11.0,0.000514,-0.000691,-0.029354,0.004173,0.003053,0.003194,-0.6504,-1.1681,0.0641,0.00001549,0.00000083,-0.00173294,-0.02062484,0.00871952,-0.01102888,-0.2054,0.1620,-9.8172,-0.004711,-0.004523,0.002809,-17.1468,34.2314,18.0680,-26.5601,0.0300,60,0,0,-0.000443,-0.000982,-0.029320,-0.014722,0.017641,0.003789,0.7864,0.0650,-0.2433
11373,11.0,0.000523,-0.000686,-0.029712,0.003557,0.002979,-0.001761,-0.6670,-1.1506,0.0684,0.00001774,-0.00000181,-0.00173305,-0.02047301,0.00872745,-0.00706525,-0.2136,0.1687,-9.8453,-0.001036,-0.000396,0.003139,-17.1468,34.2314,18.0680,-26.5601,0.0300,57,0,0,-0.000464,-0.000966,-0.029734,-0.014443,0.018236,-0.001235,0.7846,0.0421,-0.2520
11384,11.0,0.000530,-0.001190,-0.029733,0.003220,-0.006313,-0.001962,-0.9046,-1.1370,0.0842,0.00005637,-0.00000419,-0.00173396,-0.02041053,0.00974623,-0.00707685,-0.1945,0.1630,-9.8309,-0.004849,-0.001456,0.006247,-17.1468,34.2314,18.0680,-26.5918,0.0300,47,0,-1,-0.000474,-0.000947,-0.029748,-0.014862,0.017510,-0.001418,0.6981,0.0874,-0.6326
11395,11.0,0.000536,-0.000711,-0.029767,0.002768,0.003328,-0.002273,-0.6839,-1.1261,0.0773,0.00001558,-0.00000637,-0.00173306,-0.02035248,0.00871624,-0.00693622,-0.2090,0.1635,-9.8294,-0.002571,-0.001634,0.003752,-17.1468,34.2314,18.0680,-26.5918,0.0290,58,0,1,-0.000499,-0.000938,-0.029798,-0.014496,0.018200,-0.002078,0.6943,0.0682,-0.6511
11406,11.0,0.000049,-0.000707,-0.029348,-0.006009,0.003242,0.002906,-0.7000,-0.9318,0.0875,0.00001936,-0.00004651,-0.00173391,-0.01947841,0.00878821,-0.01148682,-0.1985,0.1767,-9.8253,-0.000832,-0.004142,0.003953,-17.1468,34.2314,18.0680,-26.5918,0.0290,60,-1,0,-0.001037,-0.000917,-0.029292,-0.021244,0.017948,0.003517,0.6639,0.1228,-0.6267
11417,11.0,0.000038,-0.000703,-0.029328,-0.005307,0.003115,0.002454,-0.7147,-0.9547,0.0899,0.00002219,-0.00004179,-0.00173388,-0.01957650,0.00884635,-0.01138104,-0.2039,0.1700,-9.8485,-0.003575,-0.003697,0.002130,-17.1468,34.2314,18.0680,-26.5918,0.0290,53,0,0,-0.001613,0.000188,-0.029222,-0.025021,0.030596,0.003391,0.6735,0.0932,-0.6502
11428,11.0,0.000028,-0.000698,-0.029303,-0.004657,0.002906,0.002063,-0.7296,-0.9741,0.0924,0.00002586,-0.00003664,-0.00173386,-0.01962223,0.00885918,-0.01138087,-0.2021,0.1635,-9.8540,-0.003018,-0.000910,0.002526,-17.1468,34.2314,18.0680,-26.5918,0.0290,53,0,0,-0.001613,0.000188,-0.029222,-0.025021,0.030596,0.003391,0.6735,0.0932,-0.6502
11439,11.0,0.000022,-0.001192,-0.029129,-0.004231,-0.005463,0.003756,-0.9033,-0.9913,0.1048,0.00007390,-0.00003240,-0.00173488,-0.01972750,0.00974764,-0.01289193,-0.2176,0.1579,-9.8281,-0.003561,-0.003321,0.003978,-17.1468,34.2314,18.0680,-26.5918,0.0290,61,0,-1,-0.001659,0.000230,-0.029048,-0.022514,0.028261,0.004056,0.6682,0.0688,-0.6701
11450,11.0,0.000015,-0.001702,-0.029089,-0.003805,-0.012880,0.003600,-1.0447,-1.0065,0.1145,0.00011638,-0.00002741,-0.00173582,-0.01974820,0.01048459,-0.01289714,-0.2148,0.1477,-9.8337,-0.004979,-0.000859,0.000536,-17.1468,34.2314,18.0680,-26.5918,0.0290,61,0,-1,-0.001701,-0.000817,-0.028985,-0.021243,0.014160,0.003550,0.6318,0.0953,-0.6622
11461,11.0,0.000509,-0.001726,-0.029071,0.004554,-0.011284,0.003293,-1.0127,-1.1652,0.1114,0.00010455,0.00002627,-0.00173456,-0.02057639,0.01029769,-0.01266755,-0.2065,0.1625,-9.8245,-0.004447,-0.001169,0.003355,-16.8073,34.9489,17.6212,-26.5707,0.0290,59,1,0,-0.001721,-0.000812,-0.028951,-0.020389,0.014278,0.003453,0.6312,0.0795,-0.6752
11472,11.0,0.000517,-0.001747,-0.029010,0.003971,-0.009922,0.003379,-0.9837,-1.1558,0.1132,0.00009328,0.00002238,-0.00173440,-0.02050183,0.01015631,-0.01291235,-0.2157,0.1582,-9.8395,-0.001340,-0.002343,0.002948,-16.8073,34.9489,17.6212,-26.5707,0.0290,64,0,0,-0.001210,-0.000819,-0.028983,-0.012786,0.014613,0.002684,0.6528,0.0145,-0.7121
11483,11.0,0.000525,-0.001767,-0.028989,0.003602,-0.008780,0.003099,-0.9622,-1.1473,0.1151,0.00008328,0.00001831,-0.00173424,-0.02044398,0.01001943,-0.01275677,-0.1997,0.1541,-9.8278,-0.004675,-0.002368,0.003177,-16.8073,34.9489,17.6212,-26.5707,0.0290,62,0,0,-0.001214,-0.000825,-0.028929,-0.014061,0.017005,0.002481,0.8462,0.1207,-0.7077
11495,12.0,0.000083,-0.001792,-0.028954,-0.003427,-0.007560,0.002819,-0.9417,-1.0249,0.1216,0.00007437,-0.00003732,-0.00173505,-0.01975006,0.00988987,-0.01277469,-0.1855,0.1756,-9.8433,0.000641,-0.003169,0.003837,-16.8073,34.9489,17.6212,-26.5707,0.0280,61,-1,0,-0.001225,-0.000816,-0.028933,-0.013928,0.017093,0.002073,0.8452,0.1142,-0.7152
11506,11.0,0.000078,-0.001805,-0.028416,-0.003043,-0.006595,0.008646,-0.9267,-1.0336,0.1247,0.00006603,-0.00003345,-0.00173480,-0.01988414,0.00986351,-0.01740668,-0.2057,0.1635,-9.8359,-0.003495,-0.001105,0.005163,-16.8073,34.9489,17.6212,-26.5707,0.0280,61,0,0,-0.001749,-0.000796,-0.028352,-0.020027,0.017169,0.008001,0.8249,0.1563,-0.6976
11517,11.0,0.000073,-0.001818,-0.028322,-0.002722,-0.005681,0.008480,-0.9152,-1.0429,0.1264,0.00005901,-0.00002892,-0.00173457,-0.01989294,0.00976831,-0.01740667,-0.2095,0.1717,-9.8394,-0.003064,-0.002053,0.002507,-16.8073,34.9489,17.6212,-26.5707,0.0280,67,0,0,-0.001787,-0.001300,-0.028213,-0.018839,0.011285,0.007795,0.8128,0.1567,-0.7037
11528,11.0,0.000069,-0.001828,-0.028237,-0.002530,-0.004997,0.008252,-0.9058,-1.0484,0.1293,0.00005231,-0.00002548,-0.00173436,-0.01992728,0.00969795,-0.01733863,-0.2170,0.1592,-9.8368,-0.003697,0.000863,0.004372,-16.8073,34.9489,17.6212,-26.6077,0.0290,67,0,0,-0.001804,-0.001297,-0.028135,-0.018252,0.011969,0.007763,0.8148,0.1455,-0.7141
11539,11.0,0.000065,-0.001837,-0.028614,-0.002106,-0.004380,0.002529,-0.8980,-1.0560,0.1301,0.00004643,-0.00002190,-0.00173417,-0.01986581,0.00956740,-0.01322998,-0.1928,0.1609,-9.8430,-0.002780,-0.003258,0.000703,-16.8073,34.9489,17.6212,-26.6077,0.0290,74,0,0,-0.001830,-0.000212,-0.028617,-0.016634,0.025575,0.001042,0.8411,0.0862,-0.7528
11550,11.0,0.000576,-0.001845,-0.028594,0.005558,-0.003596,0.002161,-0.8905,-1.1701,0.1264,0.00004112,0.00005146,-0.00173270,-0.02054225,0.00951773,-0.01316552,-0.1993,0.1833,-9.8474,-0.000781,-0.004845,0.000657,-15.7876,34.2245,19.4287,-26.6077,0.0290,63,1,0,-0.001844,-0.000193,-0.028615,-0.016132,0.024754,0.000844,0.8385,0.0818,-0.7600
11561,11.0,0.000586,-0.001851,-0.028571,0.004945,-0.003041,0.001876,-0.8843,-1.1619,0.1303,0.00003702,0.00004438,-0.00173273,-0.02046692,0.00945727,-0.01316778,-0.2105,0.1715,-9.8459,0.000393,-0.003159,0.004625,-15.7876,34.2245,19.4287,-26.6077,0.0290,60,0,0,-0.001327,-0.000169,-0.028600,-0.009364,0.023535,0.000796,0.8516,0.0325,-0.7936
11572,11.0,0.000594,-0.001858,-0.028247,0.004413,-0.002523,0.005281,-0.8818,-1.1546,0.1340,0.00003319,0.00003752,-0.00173278,-0.02045923,0.00946654,-0.01576644,-0.2087,0.1752,-9.8384,-0.003843,-0.002643,0.003783,-15.7876,34.2245,19.4287,-26.6077,0.0280,60,0,0,-0.001332,-0.000152,-0.028209,-0.009639,0.022930,0.004719,0.8475,0.0322,-0.7969
11583,11.0,0.000601,-0.001863,-0.028191,0.004063,-0.002239,0.004892,-0.8800,-1.1476,0.1376,0.00002992,0.00003094,-0.00173282,-0.02040901,0.00943097,-0.01576800,-0.1962,0.1580,-9.8584,-0.003406,-0.001753,0.003949,-15.7876,34.2245,19.4287,-26.6077,0.0280,60,0,0,-0.001888,-0.000076,-0.028169,-0.011863,0.016076,0.004459,0.2804,-0.3194,-0.5464
11594,11.0,0.000607,-0.001369,-0.028145,0.003529,0.005005,0.004714,-0.7864,-1.1415,0.1346,-0.00005149,0.00002498,-0.00173117,-0.02036293,0.00882206,-0.01571045,-0.2168,0.1687,-9.8305,0.000063,-0.001274,0.003399,-15.7876,34.2245,19.4287,-26.6077,0.0280,65,0,1,-0.001903,0.000462,-0.028093,-0.010654,0.020762,0.004077,0.2741,-0.3527,-0.5613
11605,11.0,0.000613,-0.001363,-0.028038,0.003195,0.004603,0.005145,-0.7990,-1.1370,0.1384,-0.00004214,0.00001982,-0.00173144,-0.02032257,0.00885056,-0.01617848,-0.2049,0.1715,-9.8442,-0.004298,-0.001783,0.003199,-15.7876,34.2245,19.4287,-26.5549,0.0280,70,0,0,-0.001909,0.000476,-0.028020,-0.010313,0.019691,0.004452,0.2637,-0.3598,-0.5626
11616,11.0,0.000619,-0.001855,-0.028002,0.002827,-0.002597,0.004836,-0.8924,-1.1316,0.1480,0.00004889,0.00001479,-0.00173350,-0.02028566,0.00946481,-0.01599920,-0.2126,0.1636,-9.8280,-0.001743,0.000352,0.002153,-15.7876,34.2245,19.4287,-26.5549,0.0280,60,0,-1,-0.001915,0.000487,-0.027998,-0.009944,0.018704,0.004093,0.2519,-0.3654,-0.5638
11628,12.0,0.000626,-0.001863,-0.027944,0.002647,-0.002138,0.004811,-0.8901,-1.1285,0.1499,0.00004573,0.00001009,-0.00173350,-0.02025005,0.00941478,-0.01600065,-0.1976,0.1756,-9.8251,-0.001146,-0.002003,0.001344,-15.7876,34.2245,19.4287,-26.5549,0.0280,63,0,0,-0.001929,-0.000019,-0.027951,-0.009524,0.011317,0.003558,0.2202,-0.3630,-0.5595
11639,11.0,0.000630,-0.001867,-0.027964,0.002258,-0.001807,0.003670,-0.8880,-1.1246,0.1513,0.00004233,0.00000575,-0.00173351,-0.02021266,0.00938465,-0.01543627,-0.2196,0.1690,-9.8509,-0.001454,-0.000091,0.000570,-15.7876,34.2245,19.4287,-26.5549,0.0280,68,0,0,-0.001936,-0.000015,-0.027966,-0.009093,0.010987,0.002997,0.2116,-0.3715,-0.5626
11650,11.0,0.000633,-0.001870,-0.027925,0.002396,-0.001484,0.003474,-0.8873,-1.1226,0.1532,0.00004035,0.00000029,-0.00173351,-0.02021438,0.00934180,-0.01543699,-0.1698,0.1729,-9.8409,-0.001607,-0.003910,0.001952,-15.7876,34.2245,19.4287,-26.5549,0.0280,68,0,0,-0.001941,-0.000011,-0.027937,-0.008783,0.010614,0.002846,0.2025,-0.3791,-0.5651
11661,11.0,0.001159,-0.001871,-0.027913,0.009163,-0.001221,0.003211,-0.8849,-1.1978,0.1509,0.00003776,0.00009367,-0.00173171,-0.02074191,0.00932364,-0.01520041,-0.1950,0.1670,-9.8163,0.000655,-0.000838,0.002249,-15.7864,33.1414,18.1085,-26.5549,0.0290,65,1,0,-0.001951,-0.000005,-0.027915,-0.008190,0.010077,0.002239,0.1844,-0.3948,-0.5704
11672,11.0,0.001173,-0.001874,-0.028492,0.008370,-0.000879,-0.004264,-0.8863,-1.1860,0.1542,0.00003737,0.00007582,-0.00173199,-0.02057168,0.00920274,-0.01040839,-0.1910,0.1829,-9.8460,-0.002868,-0.002536,0.002894,-15.7864,33.1414,18.1085,-26.5549,0.0290,66,0,0,-0.001419,-0.000010,-0.028575,-0.001398,0.009900,-0.005341,0.1905,-0.4395,-0.5904
11683,11.0,0.001184,-0.001877,-0.028568,0.007479,-0.000838,-0.004910,-0.8876,-1.1739,0.1575,0.00003579,0.00005980,-0.00173225,-0.02048383,0.00919084,-0.01019541,-0.2092,0.1558,-9.8466,-0.003787,0.000910,0.002521,-15.7864,33.1414,18.1085,-26.5337,0.0290,64,0,0,-0.001416,0.000001,-0.028685,-0.001450,0.008069,-0.005705,0.0596,-0.4989,-0.5916
11695,12.0,0.000232,-0.001882,-0.028630,-0.005785,-0.000903,-0.005498,-0.8902,-1.0300,0.1681,0.00003415,-0.00015147,-0.00173602,-0.01940884,0.00918443,-0.01022539,-0.2021,0.1509,-9.8663,-0.005178,0.000157,0.001487,-15.7864,33.1414,18.1085,-26.5337,0.0290,63,-2,0,-0.001413,0.000002,-0.028903,-0.001823,0.007743,-0.007769,0.0463,-0.5027,-0.5923
11706,11.0,0.000225,-0.001885,-0.028879,-0.005271,-0.000695,-0.007999,-0.8918,-1.0382,0.1698,0.00003291,-0.00013951,-0.00173578,-0.01944029,0.00915488,-0.00879733,-0.2171,0.1735,-9.8447,-0.003825,-0.001045,0.001677,-15.7864,33.1414,18.1085,-26.5337,0.0290,61,0,0,-0.002498,0.000018,-0.029097,-0.013832,0.006969,-0.008728,-0.0071,-0.4475,-0.5626
11717,11.0,0.000744,-0.001357,-0.028970,0.002261,0.006375,-0.008481,-0.8238,-1.1161,0.1630,-0.00007882,-0.00001659,-0.00173120,-0.02001044,0.00858783,-0.00878835,-0.1838,0.1854,-9.8599,-0.001422,-0.003329,0.004072,-15.7864,33.1414,18.1085,-26.5337,0.0290,49,1,1,-0.002509,0.000018,-0.029186,-0.012996,0.006724,-0.009013,-0.0161,-0.4596,-0.5676
11728,11.0,0.001274,-0.000821,-0.029099,0.008714,0.012688,-0.009046,-0.7667,-1.1813,0.1568,-0.00017953,0.00009359,-0.00172706,-0.02049820,0.00813286,-0.00850856,-0.2088,0.1870,-9.8285,-0.003490,-0.000664,0.003446,-15.7864,33.1414,18.1085,-26.5337,0.0290,49,1,1,-0.001980,0.000551,-0.029277,-0.005345,0.012896,-0.009366,0.0008,-0.5201,-0.5960
11739,11.0,0.001286,-0.000805,-0.029084,0.008115,0.011413,-0.007793,-0.7862,-1.1721,0.1592,-0.00014995,0.00007298,-0.00172793,-0.02046109,0.00822357,-0.00936691,-0.1763,0.1691,-9.8245,-0.004805,-0.003791,0.000219,-15.7864,33.1414,18.1085,-26.5337,0.0290,57,0,0,-0.000897,0.001093,-0.029230,0.007346,0.017338,-0.007415,0.0123,-0.6076,-0.6372
11750,11.0,0.001298,-0.000791,-0.029197,0.007185,0.010212,-0.008223,-0.8018,-1.1637,0.1611,-0.00012448,0.00005524,-0.00172877,-0.02038293,0.00832717,-0.00916374,-0.2169,0.1621,-9.8259,-0.003207,-0.001670,-0.001369,-14.7715,34.2383,18.0477,-26.5337,0.0290,53,0,0,-0.000885,0.001104,-0.029342,0.006497,0.016020,-0.007957,-0.0049,-0.6056,-0.6346
11762,12.0,0.001314,-0.000769,-0.029297,0.006492,0.009260,-0.008394,-0.8166,-1.1557,0.1645,-0.00009912,0.00003879,-0.00172955,-0.02031050,0.00838612,-0.00916569,-0.2034,0.1744,-9.8303,-0.002705,-0.000538,0.001448,-14.7715,34.2383,18.0477,-26.5337,0.0290,54,0,0,-0.000873,0.001114,-0.029422,0.005484,0.014745,-0.008059,-0.0209,-0.6037,-0.6339
11773,11.0,0.001322,-0.000758,-0.029182,0.005915,0.008319,-0.006038,-0.8301,-1.1477,0.1682,-0.00007721,0.00002334,-0.00173027,-0.02027742,0.00849758,-0.01068628,-0.1969,0.1678,-9.8237,-0.004320,0.000588,0.001920,-14.7715,34.2383,18.0477,-26.5654,0.0290,54,0,0,-0.000854,0.001130,-0.029261,0.003890,0.012773,-0.005061,-0.0512,-0.6024,-0.6313
11784,11.0,0.001862,-0.000748,-0.029249,0.012135,0.007525,-0.006146,-0.8438,-1.2045,0.1670,-0.00005555,0.00013754,-0.00172848,-0.02073349,0.00854199,-0.01067353,-0.1858,0.1722,-9.8279,-0.005528,-0.004834,0.003412,-14.7715,34.2383,18.0477,-26.5654,0.0290,52,1,0,-0.000858,0.001127,-0.029311,0.005312,0.013719,-0.005041,0.1037,-0.7872,-0.1313
11795,11.0,0.001881,-0.001271,-0.029342,0.010950,0.000192,-0.006827,-0.9141,-1.1944,0.1749,0.00009495,0.00010830,-0.00173199,-0.02062304,0.00909410,-0.01050344,-0.2045,0.1699,-9.8543,-0.003590,-0.004908,0.001897,-14.7715,34.2383,18.0477,-26.5654,0.0290,60,0,-1,-0.000292,0.000596,-0.029176,0.010058,0.006099,-0.002568,0.0779,-0.8075,-0.1221
11806,11.0,0.001895,-0.001272,-0.029182,0.010007,0.000276,-0.004320,-0.9163,-1.1841,0.1782,0.00009666,0.00008034,-0.00173250,-0.02057164,0.00910151,-0.01219855,-0.1896,0.1780,-9.8415,-0.002044,-0.003002,0.002387,-14.7715,34.2383,18.0477,-26.5654,0.0290,61,0,0,-0.000277,0.000596,-0.029203,0.009150,0.006043,-0.002796,0.0651,-0.8085,-0.1154
11817,11.0,0.001907,-0.000741,-0.029249,0.009052,0.006793,-0.004882,-0.8611,-1.1761,0.1771,-0.00003964,0.00005500,-0.00173033,-0.02048125,0.00862658,-0.01207616,-0.1997,0.1695,-9.8512,-0.002643,-0.003951,0.000640,-14.7715,34.2383,18.0477,-26.5654,0.0290,59,0,1,-0.001326,-0.000483,-0.029287,-0.005437,-0.006834,-0.003340,-0.0084,-0.7231,-0.0540
11828,11.0,0.001918,-0.000201,-0.029304,0.008043,0.012571,-0.005171,-0.8143,-1.1673,0.1758,-0.00016095,0.00003238,-0.00172832,-0.02038811,0.00819257,-0.01208229,-0.2148,0.1654,-9.8452,-0.003252,-0.000429,0.000636,-14.7715,34.2383,18.0477,-26.5654,0.0290,59,0,1,-0.001326,-0.000483,-0.029287,-0.005437,-0.006834,-0.003340,-0.0084,-0.7231,-0.0540
11839,11.0,0.001927,0.000345,-0.029173,0.007235,0.017810,-0.003494,-0.7742,-1.1607,0.1763,-0.00027031,0.00001131,-0.00172653,-0.02034338,0.00785929,-0.01343793,-0.2060,0.1732,-9.8716,-0.003682,-0.002515,0.002761,-14.7715,34.2383,18.0477,-26.5654,0.0290,60,0,1,-0.001332,0.000042,-0.029160,-0.004349,0.000594,-0.002008,-0.0118,-0.7566,-0.0580
11850,11.0,0.001936,0.000898,-0.029213,0.006587,0.022647,-0.003802,-0.7392,-1.1562,0.1784,-0.00036482,-0.00000822,-0.00172493,-0.02028146,0.00749152,-0.01344255,-0.1985,0.1890,-9.8483,-0.000505,-0.004507,0.005705,-14.7715,34.2383,18.0477,-26.6024,0.0290,60,0,1,-0.001337,0.001122,-0.029218,-0.003243,0.012897,-0.002827,-0.0119,-0.7992,-0.0643
11861,11.0,0.001944,0.001459,-0.029265,0.005793,0.026817,-0.004130,-0.7088,-1.1508,0.1786,-0.00045099,-0.00002597,-0.00172350,-0.02022548,0.00722527,-0.01338213,-0.2195,0.1725,-9.8403,-0.001449,-0.001622,0.001684,-16.4666,34.2245,18.5351,-26.6024,0.0290,62,0,1,-0.001338,0.001672,-0.029247,-0.002788,0.018318,-0.002981,-0.0118,-0.8186,-0.0641
11873,12.0,0.001957,0.001518,-0.029136,0.005232,0.024209,-0.002144,-0.7372,-1.1463,0.1812,-0.00037268,-0.00004184,-0.00172534,-0.02018912,0.00741420,-0.01461591,-0.2066,0.1815,-9.8293,-0.001971,-0.001513,-0.001479,-16.4666,34.2245,18.5351,-26.6024,0.0290,66,0,0,-0.001339,0.002228,-0.029101,-0.002464,0.023096,-0.001253,-0.0127,-0.8361,-0.0643
11884,11.0,0.001964,0.001546,-0.029167,0.004644,0.021730,-0.002456,-0.7629,-1.1419,0.1874,-0.00030337,-0.00005667,-0.00172706,-0.02014530,0.00761514,-0.01456861,-0.2146,0.1716,-9.8422,-0.004060,-0.001109,0.003544,-16.4666,34.2245,18.5351,-26.6024,0.0290,71,0,0,-0.001334,0.002261,-0.029126,-0.003133,0.019571,-0.001209,-0.0280,-0.7467,-0.2628
11895,11.0,0.001970,0.001573,-0.029195,0.004206,0.019568,-0.002604,-0.7858,-1.1389,0.1926,-0.00023796,-0.00006971,-0.00172862,-0.02009598,0.00774792,-0.01457064,-0.2061,0.1782,-9.8347,-0.002531,-0.002108,0.003153,-16.4666,34.2245,18.5351,-26.6024,0.0290,68,0,0,-0.001334,0.002276,-0.029065,-0.002941,0.017988,-0.000538,-0.0401,-0.7504,-0.2586
11906,11.0,0.001976,0.001596,-0.029102,0.003822,0.017751,-0.001277,-0.8039,-1.1369,0.1977,-0.00018003,-0.00008202,-0.00173006,-0.02007741,0.00792297,-0.01540285,-0.2055,0.1891,-9.8317,0.000029,-0.003031,0.002653,-16.4666,34.2245,18.5351,-26.6024,0.0290,68,0,0,-0.001333,0.002289,-0.029071,-0.002746,0.016512,-0.000609,-0.0518,-0.7544,-0.2544
11917,11.0,0.001980,0.001618,-0.029118,0.003542,0.015815,-0.001695,-0.8223,-1.1318,0.2017,-0.00012609,-0.00009396,-0.00173137,-0.02004028,0.00804206,-0.01540434,-0.1979,0.1598,-9.8606,-0.003035,0.002194,0.001769,-16.4666,34.2245,18.5351,-26.6024,0.0290,64,0,0,-0.001332,0.002312,-0.029093,-0.002276,0.013954,-0.000814,-0.0711,-0.7622,-0.2443
11928,11.0,0.001983,0.001639,-0.029146,0.003334,0.014041,-0.001963,-0.8376,-1.1273,0.2069,-0.00007856,-0.00010549,-0.00173255,-0.02000878,0.00816665,-0.01534418,-0.1929,0.1549,-9.8374,-0.001812,0.001436,0.003952,-16.4666,34.2245,18.5351,-26.6024,0.0280,64,0,0,-0.001333,0.002321,-0.028455,-0.001990,0.012812,0.006231,-0.0828,-0.7652,-0.2401
11939,11.0,0.001987,0.001658,-0.028523,0.003076,0.012437,0.005473,-0.8490,-1.1255,0.2148,-0.00003635,-0.00011521,-0.00173358,-0.02005318,0.00834005,-0.01963379,-0.2012,0.1526,-9.8358,0.001271,-0.001765,0.008657,-16.4666,34.2245,18.5351,-26.6024,0.0280,66,0,0,-0.001332,0.002338,-0.028342,-0.001490,0.010530,0.005821,-0.1045,-0.7729,-0.2318
11950,11.0,0.001992,0.001674,-0.028471,0.002768,0.010861,0.005128,-0.8616,-1.1244,0.2202,0.00000168,-0.00012469,-0.00173452,-0.02002840,0.00843548,-0.01958678,-0.2095,0.1399,-9.8506,-0.002884,-0.002760,0.004792,-15.4493,34.2314,18.0680,-26.6024,0.0280,62,0,0,-0.001331,0.002345,-0.028296,-0.001334,0.009575,0.005584,-0.1139,-0.7774,-0.2266
11962,12.0,0.001999,0.001697,-0.028410,0.002581,0.009784,0.004985,-0.8731,-1.1248,0.2229,0.00003818,-0.00013315,-0.00173538,-0.01999707,0.00849498,-0.01958791,-0.2015,0.1741,-9.8384,-0.002236,-0.003965,0.000777,-15.4493,34.2314,18.0680,-26.6024,0.0290,64,0,0,-0.001327,0.002354,-0.028712,-0.001066,0.008093,-0.000367,-0.1356,-0.7880,-0.2199
11973,11.0,0.001463,0.001705,-0.028714,-0.003813,0.008860,0.000394,-0.8846,-1.0771,0.2292,0.00007116,-0.00031909,-0.00173938,-0.01950555,0.00853514,-0.01729034,-0.1864,0.1835,-9.8654,-0.004341,-0.002454,0.000044,-15.4493,34.2314,18.0680,-26.6024,0.0290,52,-1,0,-0.001325,0.002357,-0.028724,-0.000886,0.007414,-0.000531,-0.1472,-0.7939,-0.2173
11984,11.0,0.001459,0.001716,-0.028712,-0.003330,0.007877,0.000053,-0.8925,-1.0824,0.2325,0.00010078,-0.00030576,-0.00173974,-0.01951676,0.00858965,-0.01728987,-0.2012,0.1644,-9.8553,-0.000168,-0.003216,0.002889,-15.4493,34.2314,18.0680,-26.6024,0.0290,52,0,0,-0.001864,0.002355,-0.028731,-0.006944,0.008817,-0.000817,0.0002,-0.7698,-0.0411
11995,11.0,0.001454,0.001725,-0.028721,-0.002786,0.007084,-0.000275,-0.9004,-1.0855,0.2341,0.00012732,-0.00029543,-0.00174007,-0.01953958,0.00865004,-0.01722899,-0.1887,0.1735,-9.8443,-0.001866,-0.001094,0.000285,-15.4493,34.2314,18.0680,-26.6024,0.0290,70,0,0,-0.001872,0.002363,-0.028907,-0.005502,0.007851,-0.002862,-0.0137,-0.7867,-0.0328
12006,11.0,0.001450,0.001732,-0.028871,-0.002221,0.006433,-0.002095,-0.9098,-1.0891,0.2384,0.00015365,-0.00028724,-0.00174036,-0.01954761,0.00866119,-0.01629473,-0.1811,0.1811,-9.8342,-0.004262,-0.003076,0.005264,-15.4493,34.2314,18.0680,-26.6024,0.0290,69,0,0,-0.001875,0.002366,-0.028936,-0.004850,0.007370,-0.003011,-0.0210,-0.7939,-0.0298
12017,11.0,0.001447,0.001738,-0.028903,-0.001798,0.005928,-0.002421,-0.9184,-1.0905,0.2410,0.00017678,-0.00028051,-0.00174068,-0.01956179,0.00871197,-0.01624900,-0.1888,0.1898,-9.8452,-0.004741,0.000057,0.002207,-15.4493,34.2314,18.0680,-26.6024,0.0290,64,0,0,-0.001878,0.002368,-0.028976,-0.004199,0.007011,-0.003188,-0.0291,-0.8009,-0.0250
12028,11.0,0.001446,0.001744,-0.028930,-0.001789,0.005327,-0.002621,-0.9253,-1.0942,0.2442,0.00019848,-0.00027141,-0.00174097,-0.01953903,0.00874146,-0.01624929,-0.2280,0.1750,-9.8409,-0.002545,-0.002692,0.002602,-15.4493,34.2314,18.0680,-26.6024,0.0280,64,0,0,-0.001882,0.002373,-0.028421,-0.003250,0.006196,0.003335,-0.0459,-0.8123,-0.0152
12039,11.0,0.001444,0.001752,-0.028434,-0.001661,0.004604,0.003462,-0.9284,-1.0952,0.2472,0.00021596,-0.00026480,-0.00174120,-0.01961256,0.00883406,-0.01954558,-0.2146,0.1545,-9.8302,0.001602,0.000445,0.002652,-15.4493,34.2314,18.0680,-26.6024,0.0280,55,0,0,-0.001882,0.002375,-0.028388,-0.003004,0.005870,0.003253,-0.0539,-0.8191,-0.0109
12050,11.0,0.001441,0.001759,-0.028397,-0.001416,0.003868,0.003224,-0.9313,-1.0971,0.2517,0.00023036,-0.00025823,-0.00174144,-0.01960684,0.00888213,-0.01954509,-0.2024,0.1458,-9.8486,0.000667,-0.001006,0.004511,-15.4493,34.2314,18.0680,-26.6024,0.0280,55,0,0,-0.001883,0.002377,-0.028356,-0.002696,0.005459,0.003249,-0.0606,-0.8249,-0.0066
12062,12.0,0.001916,0.001769,-0.028376,0.004336,0.003513,0.002964,-0.9354,-1.1360,0.2512,0.00024459,-0.00007802,-0.00173853,-0.01997623,0.00891002,-0.01942422,-0.2065,0.1746,-9.8305,-0.001230,-0.000292,0.002120,-16.4666,34.5833,17.6415,-26.5813,0.0280,56,1,0,-0.002407,0.002383,-0.028306,-0.008103,0.004298,0.002844,-0.0866,-0.8094,0.0154
12075,13.0,0.002378,0.001781,-0.028141,0.009204,0.002947,0.005335,-0.9421,-1.1680,0.2530,0.00025678,0.00007243,-0.00173620,-0.02029629,0.00896323,-0.02060416,-0.2020,0.1544,-9.8184,-0.005147,-0.000519,0.003368,-16.4666,34.5833,17.6415,-26.5813,0.0280,62,1,0,-0.001362,0.002365,-0.028061,0.002936,0.008038,0.004527,0.2630,-0.6944,-0.1771
12086,11.0,0.002935,0.001786,-0.028097,0.014629,0.002706,0.004990,-0.9461,-1.2024,0.2522,0.00026814,0.00024288,-0.00173343,-0.02063390,0.00898483,-0.02051044,-0.2071,0.1786,-9.8441,-0.002397,0.001257,0.001139,-16.4666,34.5833,17.6415,-26.5813,0.0290,56,1,0,-0.000834,0.002366,-0.028016,0.008661,0.007847,0.004594,0.2659,-0.7218,-0.1855
12097,11.0,0.002952,0.001787,-0.028042,0.013171,0.002579,0.004978,-0.9494,-1.1951,0.2554,0.00028050,0.00018786,-0.00173463,-0.02052561,0.00897842,-0.02051369,-0.2062,0.1904,-9.8282,-0.000803,-0.005940,0.001630,-16.4666,34.5833,17.6415,-26.5813,0.0290,57,0,0,-0.000282,0.002365,-0.028553,0.014034,0.007863,-0.001930,0.2697,-0.7465,-0.1945
12108,11.0,0.002966,0.001789,-0.028553,0.011914,0.002447,-0.002052,-0.9517,-1.1865,0.2561,0.00029091,0.00013704,-0.00173578,-0.02036618,0.00894297,-0.01714489,-0.2017,0.1889,-9.8726,-0.000044,-0.002080,-0.002863,-16.4666,34.5833,17.6415,-26.5813,0.0290,47,0,0,-0.000249,0.002373,-0.028609,0.011411,0.007511,-0.002367,0.2552,-0.7406,-0.1868
12119,11.0,0.002979,0.001792,-0.028577,0.010731,0.002205,-0.002263,-0.9528,-1.1766,0.2540,0.00030082,0.00009079,-0.00173683,-0.02027515,0.00894685,-0.01714755,-0.2058,0.1756,-9.8432,0.001517,0.001802,-0.006760,-16.4666,34.5833,17.6415,-26.5813,0.0290,60,0,0,-0.000234,0.002377,-0.028635,0.010157,0.007456,-0.002696,0.2480,-0.7379,-0.1843
12130,11.0,0.002991,0.001794,-0.028621,0.009526,0.002037,-0.002857,-0.9548,-1.1693,0.2522,0.00030957,0.00004946,-0.00173779,-0.02019710,0.00896110,-0.01704540,-0.2217,0.1812,-9.8591,-0.000218,-0.000862,-0.006467,-16.4666,34.5833,17.6415,-26.5813,0.0280,60,0,0,-0.000221,0.002380,-0.028662,0.009073,0.007430,-0.002880,0.2424,-0.7345,-0.1840
12141,11.0,0.002523,0.001772,-0.028282,-0.003836,0.007656,0.004013,-0.9476,-1.1639,0.1705,0.00034265,-0.00015836,-0.00174618,-0.01980557,0.00901133,-0.01916146,-0.8713,0.7668,-9.5529,0.018272,-0.049811,-0.174656,-16.1259,32.0651,16.7679,-26.5813,0.0280,54,-1,0,-0.000714,0.002373,-0.028249,0.000200,0.009963,0.000854,0.2083,-0.7138,-0.1793
12151,10.0,0.002537,0.001750,-0.028249,-0.008996,0.013160,0.005044,-0.9332,-1.1445,-0.0435,0.00039603,-0.00012543,-0.00174729,-0.01986497,0.00910753,-0.01908029,-0.8256,0.8744,-9.6829,0.034952,0.050430,-0.381229,-16.1259,32.0651,16.7679,-26.5813,0.0280,55,0,0,-0.001207,0.002358,-0.028266,-0.009666,0.014239,-0.000758,0.1863,-0.7157,-0.2643
12162,11.0,0.003057,0.002309,-0.028187,-0.001701,0.016074,0.006181,-0.8917,-1.1762,-0.3939,0.00020759,0.00012348,-0.00172944,-0.02032050,0.00911206,-0.01906587,-0.1953,-0.0169,-9.7255,0.001015,0.028218,-0.459621,-16.1259,32.0651,16.7679,-26.5813,0.0290,57,1,1,-0.001201,0.002334,-0.028289,-0.015800,0.019342,-0.003898,0.1653,-0.6847,-0.4724
12173,11.0,0.002605,0.008774,-0.028601,-0.006085,0.087923,-0.000054,-0.4377,-1.1754,-1.0567,-0.00235675,-0.00005000,-0.00162528,-0.01987115,0.00445058,-0.01631410,-0.1722,0.1280,-9.8886,-0.011015,-0.040107,-0.492693,-16.1259,32.0651,16.7679,-26.5813,0.0290,44,-1,12,-0.000124,0.003454,-0.028808,-0.002161,0.025886,-0.006698,0.2147,-0.7640,-1.0422
12184,11.0,0.001604,0.012670,-0.028601,-0.015451,0.120808,-0.000117,-0.2172,-1.0971,-1.4167,-0.00357792,-0.00047489,-0.00159172,-0.01973339,0.00249423,-0.01633267,-0.0806,0.0081,-9.8368,0.000850,0.005289,-0.403341,-16.1259,32.0651,16.7679,-26.5813,0.0290,43,-2,7,-0.000516,0.010010,-0.028874,-0.006653,0.098945,-0.006923,0.4622,-0.7450,-1.5089
12195,11.0,0.001125,0.016068,-0.028622,-0.015885,0.142696,-0.000924,-0.0635,-1.0721,-1.6809,-0.00443999,-0.00061413,-0.00157086,-0.01946670,0.00089428,-0.01623755,0.0972,-0.1299,-9.8873,0.000434,0.002375,-0.344904,-16.1259,32.0651,16.7679,-26.5813,0.0290,43,-1,6,-0.001956,0.017378,-0.029013,-0.017539,0.154233,-0.006920,0.5151,-0.7816,-1.9880
12208,13.0,0.000267,0.020236,-0.028836,-0.021111,0.168638,-0.003740,0.0998,-1.0112,-1.8606,-0.00541957,-0.00098583,-0.00155400,-0.02027740,-0.00076663,-0.01505873,0.0024,-0.0318,-9.8668,-0.009520,-0.009861,-0.198906,-16.1259,32.0651,16.7679,-26.5813,0.0290,43,-2,8,-0.002907,0.021936,-0.029081,-0.023731,0.186782,-0.006871,0.5477,-0.8091,-2.1740
12219,11.0,0.000426,0.024708,-0.028890,-0.018349,0.204620,-0.004477,0.7931,-0.7774,-2.0001,-0.00868365,-0.00193816,-0.00150186,-0.03843125,0.03220184,-0.01399863,-0.0819,0.0159,-9.8790,0.005957,-0.001179,-0.117772,-16.1259,32.0651,16.7679,-26.5813,0.0290,44,0,8,-0.005202,0.034434,-0.029243,-0.039499,0.280740,-0.007596,0.6324,-0.8895,-2.4443
12230,11.0,0.000407,0.024925,-0.028944,-0.015841,0.183577,-0.005313,0.7483,-0.7339,-2.0007,-0.00819741,-0.00207961,-0.00151723,-0.04233283,0.04007759,-0.01387712,-0.0780,0.0107,-9.9006,-0.000349,0.004540,-0.047617,-16.1259,32.0651,16.7679,-26.5813,0.0290,48,0,0,-0.005060,0.039072,-0.029136,-0.031689,0.302044,-0.005772,0.6682,-0.9457,-2.5372
12242,12.0,0.000384,0.025278,-0.029011,-0.014967,0.166932,-0.005713,0.7115,-0.7074,-1.9889,-0.00775980,-0.00217405,-0.00153001,-0.04549307,0.04761119,-0.01377940,-0.2295,0.2187,-9.8563,-0.001786,-0.005396,-0.016082,-17.1445,33.1414,19.0023,-26.5813,0.0290,43,0,0,-0.005119,0.039656,-0.029258,-0.024664,0.246621,-0.006143,0.5955,-0.8777,-2.5318
12253,11.0,-0.000675,0.025468,-0.029077,-0.027400,0.153558,-0.006130,0.6544,-0.6255,-1.9807,-0.00725697,-0.00265043,-0.00155462,-0.04664765,0.05278134,-0.01376963,-0.3752,0.3787,-9.8622,-0.004214,-0.003860,-0.066747,-17.1445,33.1414,19.0023,-26.5813,0.0280,46,-2,0,-0.005137,0.039899,-0.029341,-0.022864,0.224405,-0.006520,0.5645,-0.8529,-2.5256
12264,11.0,-0.000680,0.026138,-0.029161,-0.025707,0.147019,-0.006315,0.6422,-0.6132,-2.0569,-0.00701886,-0.00261637,-0.00155934,-0.04874654,0.05725310,-0.01363287,-0.3047,0.3673,-9.8236,0.001345,0.009106,-0.131961,-17.1445,33.1414,19.0023,-26.5813,0.0280,45,0,1,-0.006198,0.040164,-0.028563,-0.034257,0.205633,0.002632,0.5143,-0.7801,-2.5192
12275,11.0,-0.000708,0.026291,-0.028554,-0.022913,0.131498,0.000790,0.6104,-0.5900,-2.1570,-0.00665495,-0.00263210,-0.00156830,-0.05148312,0.06321791,-0.01735744,-0.1295,-0.0189,-9.8958,-0.010723,0.008446,-0.181686,-17.1445,33.1414,19.0023,-26.5813,0.0280,47,0,0,-0.006248,0.041083,-0.028529,-0.027204,0.174101,0.002041,0.2721,-0.9839,-2.7198
12286,11.0,-0.000734,0.026428,-0.028559,-0.019864,0.117723,0.000586,0.5828,-0.5755,-2.2412,-0.00632412,-0.00264360,-0.00157629,-0.05383882,0.06856838,-0.01725820,-0.0765,-0.0008,-9.8310,-0.009684,-0.002065,-0.153301,-17.1445,33.1414,19.0023,-26.5813,0.0290,46,0,0,-0.006278,0.041261,-0.028510,-0.024060,0.156084,0.001787,0.2465,-0.9646,-2.8121
12298,12.0,-0.000291,0.026136,-0.028553,-0.010841,0.100068,0.000404,0.5521,-0.5703,-2.2559,-0.00587473,-0.00255855,-0.00158444,-0.05842527,0.07548526,-0.01721296,0.0142,0.0468,-9.8429,-0.000336,-0.008072,-0.039375,-17.1445,33.1414,19.0023,-26.5813,0.0290,37,1,-1,-0.005786,0.041542,-0.028821,-0.010591,0.123897,-0.001616,0.2146,-0.9680,-2.9442
12308,10.0,0.000286,0.025512,-0.028804,-0.003368,0.084329,-0.002573,0.5288,-0.5778,-2.2436,-0.00547826,-0.00239739,-0.00158926,-0.06196297,0.08268528,-0.01578968,-0.1474,0.1646,-9.8270,-0.003041,-0.003790,0.015529,-17.1445,33.1414,19.0023,-26.5813,0.0290,30,1,-1,-0.005283,0.041094,-0.028855,-0.002728,0.105193,-0.002043,0.1933,-0.9650,-2.9471
12319,11.0,0.000288,0.025599,-0.028833,-0.003919,0.076708,-0.002602,0.5083,-0.5660,-2.2195,-0.00523562,-0.00243283,-0.00159560,-0.06325361,0.08596801,-0.01579009,-0.2465,0.1335,-9.8274,-0.006470,-0.002960,0.021879,-17.1445,33.1414,19.0023,-26.5813,0.0280,42,0,0,-0.004770,0.040624,-0.028876,0.004034,0.089056,-0.002127,0.1761,-0.9687,-2.9361
12330,11.0,0.000240,0.025769,-0.028881,-0.000515,0.063049,-0.002908,-0.1574,-0.9024,-2.3620,-0.00013014,-0.00006936,-0.00116821,-0.04145897,0.04797873,-0.01680387,-0.1789,0.1102,-9.8313,-0.005033,-0.001590,0.005558,-17.1445,33.1414,19.0023,-26.5813,0.0280,42,0,0,-0.004758,0.040787,-0.028335,0.003396,0.073441,0.003360,0.1403,-0.9464,-2.9152
12341,11.0,0.000242,0.025833,-0.028413,-0.000602,0.057614,0.002555,-0.1715,-0.8917,-2.3485,0.00003424,-0.00012018,-0.00117361,-0.04257431,0.05059038,-0.01950531,-0.2048,0.2064,-9.8620,-0.003301,-0.003332,0.007867,-16.4666,31.7133,16.7478,-26.5813,0.0280,44,0,0,-0.006351,0.040418,-0.028302,-0.015204,0.060764,0.003350,0.0835,-0.8530,-2.8591
12352,11.0,0.000243,0.025892,-0.028399,-0.000684,0.052525,0.002198,-0.1850,-0.8799,-2.3400,0.00018832,-0.00016509,-0.00117860,-0.04356049,0.05300419,-0.01942646,-0.2034,0.1877,-9.8457,-0.004251,0.000464,0.001319,-16.4666,31.7133,16.7478,-26.5813,0.0280,38,0,0,-0.006363,0.040474,-0.028291,-0.013721,0.055394,0.002935,0.0712,-0.8552,-2.8537
12364,12.0,0.000262,0.026496,-0.028373,-0.000380,0.053514,0.002138,-0.1885,-0.8800,-2.3427,0.00019792,-0.00015735,-0.00117861,-0.04368315,0.05315858,-0.01942502,-0.1979,0.1978,-9.8327,-0.004399,0.000353,-0.005045,-16.4666,31.7133,16.7478,-26.5601,0.0290,34,0,1,-0.006360,0.041119,-0.028729,-0.010347,0.051453,-0.002476,0.0583,-0.8707,-2.8484
12375,11.0,0.000283,0.027094,-0.028721,0.000112,0.054842,-0.002122,-0.1923,-0.8821,-2.3407,0.00019751,-0.00014737,-0.00117834,-0.04371332,0.05320019,-0.01745778,-0.1789,0.2053,-9.8215,-0.006397,-0.001822,0.002938,-16.4666,31.7133,16.7478,-26.5601,0.0290,34,0,1,-0.006343,0.041711,-0.028775,-0.008814,0.052924,-0.002793,0.0559,-0.8806,-2.8527
12386,11.0,0.000831,0.027124,-0.028746,0.005737,0.049740,-0.002340,-0.1938,-0.8990,-2.3456,0.00030836,0.00004221,-0.00117590,-0.04558266,0.05637990,-0.01742641,-0.2327,0.1786,-9.8450,-0.003870,-0.000080,0.002134,-16.4666,31.7133,16.7478,-26.5601,0.0290,33,1,0,-0.006316,0.042301,-0.028803,-0.008949,0.056308,-0.002766,0.2180,-0.7238,-2.7885
12396,10.0,0.001405,0.026505,-0.028794,0.011156,0.038845,-0.002744,-0.2048,-0.9051,-2.3450,0.00058221,0.00017914,-0.00117887,-0.04831241,0.06173643,-0.01725249,-0.2156,0.1992,-9.8363,-0.001369,-0.002612,-0.000816,-16.4666,31.7133,16.7478,-26.5601,0.0290,39,1,-1,-0.005262,0.041803,-0.028958,0.003830,0.040474,-0.003874,0.2115,-0.7560,-2.7973
12407,11.0,0.001421,0.026548,-0.028919,0.009975,0.035269,-0.004361,-0.2171,-0.8945,-2.3402,0.00071233,0.00010367,-0.00118400,-0.04879211,0.06314656,-0.01676987,-0.1968,0.1563,-9.8754,-0.002756,-0.004159,-0.005202,-16.4666,31.7133,16.7478,-26.5601,0.0290,37,0,0,-0.005257,0.041839,-0.028997,0.003484,0.037175,-0.003942,0.2019,-0.7507,-2.7933
12419,12.0,0.001445,0.026618,-0.028992,0.008708,0.032338,-0.004865,-0.2270,-0.8843,-2.3306,0.00083137,0.00003580,-0.00118867,-0.04923481,0.06447004,-0.01666205,-0.2160,0.1808,-9.8476,-0.000425,-0.002315,0.003216,-16.4666,31.7133,16.7478,-26.5601,0.0290,33,0,0,-0.005789,0.041934,-0.029109,-0.003346,0.030805,-0.004586,0.1740,-0.7189,-2.7762
12430,11.0,0.001434,0.026087,-0.029046,0.007598,0.023301,-0.004930,-0.2483,-0.8628,-2.3080,0.00112253,-0.00007598,-0.00119855,-0.05056864,0.06790565,-0.01664367,-0.1768,0.1608,-9.8311,-0.000655,-0.002453,0.013645,-16.4666,31.7133,16.7478,-26.5971,0.0300,32,0,-1,-0.005791,0.041963,-0.029666,-0.003216,0.028166,-0.010291,0.1677,-0.7172,-2.7716
12441,11.0,0.001457,0.025493,-0.029600,0.001939,0.021472,-0.011223,0.2860,-0.4973,-2.4294,-0.00516842,-0.00430124,0.00005372,-0.06847250,0.09785338,-0.01333993,-0.2890,0.1675,-9.8716,0.002946,-0.001419,-0.013009,-16.8073,32.0789,16.2810,-26.5971,0.0300,32,0,-1,-0.005845,0.040874,-0.029874,-0.003770,0.012960,-0.010678,0.1386,-0.6949,-2.7458
12451,10.0,0.001435,0.024908,-0.029710,0.001890,0.013096,-0.010729,0.2802,-0.4828,-2.4288,-0.00492012,-0.00439524,0.00004187,-0.06993049,0.10103375,-0.01331875,-0.0899,0.0814,-9.7741,0.012891,-0.014512,-0.019501,-16.8073,32.0789,16.2810,-26.5971,0.0290,32,0,-1,-0.005845,0.040874,-0.029874,-0.003770,0.012960,-0.010678,0.1386,-0.6949,-2.7458
12462,11.0,0.001437,0.024919,-0.029841,0.001751,0.012880,-0.011271,0.2792,-0.4780,-2.4261,-0.00487654,-0.00441512,0.00003967,-0.07013825,0.10158938,-0.01326180,-0.1481,0.1713,-9.8614,-0.002087,-0.002772,0.000893,-16.8073,32.0789,16.2810,-26.5971,0.0290,34,0,0,-0.005848,0.040891,-0.029498,-0.003289,0.011481,-0.004575,0.1392,-0.7035,-2.7543
12473,11.0,0.001435,0.024933,-0.029441,0.001993,0.012474,-0.004950,0.2801,-0.4682,-2.4175,-0.00482671,-0.00444142,0.00003708,-0.07045148,0.10203692,-0.01591608,-0.1059,0.1520,-9.8049,0.002976,0.003264,0.009123,-16.8073,32.0789,16.2810,-26.5971,0.0290,34,0,0,-0.005850,0.040899,-0.029556,-0.002930,0.010709,-0.005052,0.1336,-0.7057,-2.7513
12484,11.0,0.001422,0.024403,-0.029506,0.000694,0.006568,-0.005633,0.2697,-0.4565,-2.4042,-0.00461598,-0.00450742,0.00002782,-0.07155650,0.10480311,-0.01586092,-0.2300,0.1775,-9.8785,-0.001567,-0.009219,0.007517,-16.8073,32.0789,16.2810,-26.5971,0.0290,38,0,-1,-0.005874,0.040367,-0.029671,-0.004826,0.006401,-0.005255,0.3933,-0.4363,-2.7073
12495,11.0,0.001404,0.023866,-0.029572,-0.000062,0.001055,-0.006332,0.2589,-0.4445,-2.3876,-0.00441642,-0.00456210,0.00001946,-0.07256064,0.10731687,-0.01585029,-0.1878,0.1614,-9.8889,-0.003089,-0.005830,0.014298,-16.8073,32.0789,16.2810,-26.5971,0.0290,38,0,-1,-0.005900,0.039825,-0.029264,-0.004953,0.000452,-0.000584,0.3831,-0.4304,-2.6964
12506,11.0,0.001413,0.023876,-0.029306,-0.000581,-0.000464,-0.002496,0.2638,-0.4589,-2.3693,-0.00442178,-0.00455562,0.00001988,-0.07258275,0.10730530,-0.01753488,-0.2035,-0.0849,-9.8332,0.002811,-0.025893,0.029853,-16.8073,32.0789,16.2810,-26.5601,0.0290,31,0,0,-0.005931,0.039270,-0.029309,-0.004712,-0.004364,-0.001660,0.3713,-0.4302,-2.6747
12517,11.0,0.001466,0.024944,-0.029327,-0.001750,0.013886,-0.001279,0.2859,-0.4912,-2.3663,-0.00477028,-0.00444195,0.00003547,-0.07086419,0.10304020,-0.01755063,-0.3604,0.3171,-9.7161,-0.001793,-0.017107,0.026928,-16.8073,32.0789,16.2810,-26.5601,0.0290,36,0,2,-0.005925,0.039267,-0.029323,-0.004315,-0.004144,-0.001088,0.3760,-0.4575,-2.6502
12528,11.0,0.001505,0.026035,-0.029363,-0.001385,0.025021,-0.001133,0.3013,-0.5056,-2.3755,-0.00508435,-0.00434671,0.00004911,-0.06936862,0.09927362,-0.01743897,-0.2044,0.1447,-9.7874,-0.009227,0.005850,0.004505,-16.8073,32.0789,16.2810,-26.5601,0.0290,36,0,2,-0.005870,0.040343,-0.029128,-0.004156,0.010089,0.001741,0.3929,-0.4966,-2.6472
12539,11.0,0.001502,0.026056,-0.029171,-0.001667,0.023886,0.000625,0.2909,-0.4944,-2.3693,-0.00499273,-0.00435689,0.00004590,-0.06985934,0.10036635,-0.01845923,-0.1988,0.2031,-9.8879,-0.013894,0.006717,0.005577,-15.7888,32.7964,17.1745,-26.5601,0.0290,30,0,0,-0.005827,0.041451,-0.029109,-0.003243,0.020906,0.002205,0.3953,-0.5154,-2.6475
12550,11.0,0.001473,0.024995,-0.029185,-0.002291,0.011910,0.000081,0.3705,-0.5065,-1.9316,-0.00681335,-0.00289593,-0.00617362,-0.07499534,0.10687638,-0.01828124,-0.2527,0.1368,-9.8568,-0.008094,-0.000135,0.007510,-15.7888,32.7964,17.1745,-26.5601,0.0290,36,0,-2,-0.005831,0.041465,-0.029120,-0.003205,0.019670,0.001565,0.3849,-0.5089,-2.6427
12561,11.0,0.001470,0.025006,-0.029189,-0.002269,0.012579,-0.000882,0.3808,-0.4995,-1.9211,-0.00676944,-0.00289683,-0.00617541,-0.07529161,0.10743269,-0.01827878,-0.1869,0.2323,-9.9162,0.013183,0.005310,0.008627,-15.7888,32.7964,17.1745,-26.5601,0.0290,34,0,0,-0.005881,0.040392,-0.029041,-0.004235,0.006000,0.002062,0.3603,-0.4834,-2.6235
12573,12.0,0.001449,0.025046,-0.029104,-0.002694,0.011578,-0.000123,0.4113,-0.4530,-1.8602,-0.00673517,-0.00290201,-0.00617710,-0.07550640,0.10790858,-0.01875042,-0.2038,0.0581,-9.8589,0.040702,0.062818,0.080376,-15.7888,32.7964,17.1745,-26.5601,0.0290,34,0,0,-0.005901,0.040408,-0.029037,-0.002935,0.006814,0.000541,0.3852,-0.4638,-2.6001
12584,11.0,0.001422,0.025072,-0.029103,-0.002330,0.011784,0.000425,0.4489,-0.4003,-1.7877,-0.00669024,-0.00291349,-0.00617948,-0.07577888,0.10830612,-0.01874856,-0.1218,0.1654,-9.7795,0.058247,0.076590,0.105362,-15.7888,32.7964,17.1745,-26.5971,0.0290,42,0,0,-0.005914,0.040427,-0.029033,-0.002631,0.007157,0.000232,0.4780,-0.4138,-2.2187
12595,11.0,0.001949,0.025096,-0.029106,0.004012,0.010702,0.000753,0.5195,-0.4389,-1.6912,-0.00671669,-0.00266174,-0.00616441,-0.07687549,0.10956492,-0.01868262,-0.1235,0.0279,-9.7866,0.090354,-0.023293,0.165913,-15.7888,32.7964,17.1745,-26.5971,0.0280,41,1,0,-0.005425,0.040459,-0.028368,0.003898,0.004669,0.006886,0.5554,-0.3702,-2.0994
12606,11.0,0.001979,0.025641,-0.028501,0.002982,0.018162,0.005654,0.5725,-0.4641,-1.5839,-0.00685154,-0.00263305,-0.00615740,-0.07618475,0.10783587,-0.02159289,-0.2546,0.2913,-10.0276,0.068027,-0.029014,0.171311,-15.7888,32.7964,17.1745,-26.5971,0.0280,42,0,1,-0.005399,0.041010,-0.028298,0.004221,0.010408,0.007030,0.6105,-0.3930,-2.0101
12617,11.0,0.002506,0.025689,-0.028462,0.008278,0.020420,0.002874,0.7164,-0.4808,-1.4912,-0.00684696,-0.00240852,-0.00614482,-0.07728004,0.10929579,-0.02154104,-0.1847,0.3732,-10.0776,0.210410,0.006086,0.156409,-15.7888,32.7964,17.1745,-26.5971,0.0280,45,1,0,-0.005346,0.042127,-0.028209,0.003881,0.025304,0.002424,0.7562,-0.4282,-1.8255
12628,11.0,0.003064,0.025763,-0.028439,0.011926,0.021218,0.001310,0.8905,-0.4976,-1.4063,-0.00683830,-0.00218681,-0.00613257,-0.07830060,0.11069412,-0.02153209,-0.3146,0.2059,-9.9740,0.258958,0.005865,0.143913,-15.7888,32.7964,17.1745,-26.5971,0.0290,45,1,0,-0.004795,0.042188,-0.028689,0.009168,0.025644,-0.004749,0.8991,-0.4458,-1.7463
12639,11.0,0.003097,0.025862,-0.028744,0.009155,0.023097,-0.003191,1.0836,-0.5112,-1.3503,-0.00677297,-0.00224116,-0.00613829,-0.07841895,0.11119832,-0.02004954,-0.3318,0.2770,-9.9096,0.307987,-0.033979,0.077080,-16.8073,33.8726,18.5147,-26.5971,0.0290,50,0,0,-0.004742,0.043367,-0.028742,0.006047,0.036873,-0.005892,1.0592,-0.4609,-1.6879
12650,11.0,0.003116,0.025975,-0.028798,0.008160,0.027132,-0.006579,1.3248,-0.5146,-1.2882,-0.00670253,-0.00229517,-0.00614420,-0.07859283,0.11177438,-0.02005205,-0.1855,0.4587,-10.1458,0.384711,-0.017603,0.086345,-16.8073,33.8726,18.5147,-26.6288,0.0290,50,0,0,-0.004703,0.043584,-0.028885,0.003197,0.037546,-0.009261,1.4220,-0.4828,-1.5777
12661,11.0,0.002062,0.026196,-0.028899,-0.002274,0.021726,-0.011190,1.1631,-0.5943,-1.2897,0.00238245,0.00001740,-0.00348333,-0.07921967,0.10339555,-0.02007884,-0.1006,0.1137,-10.2364,0.535525,-0.049844,0.109795,-16.8073,33.8726,18.5147,-26.6288,0.0290,63,-2,0,-0.005236,0.043738,-0.028993,-0.003192,0.039541,-0.014093,1.6697,-0.4632,-1.4992
12672,11.0,0.002105,0.025804,-0.028997,-0.000605,0.013664,-0.008281,1.4214,-0.7152,-1.2215,0.00257940,-0.00001513,-0.00349455,-0.08044194,0.10598503,-0.02013212,-0.0743,-0.2110,-9.5717,0.428622,-0.205649,0.099759,-16.8073,33.8726,18.5147,-26.6288,0.0290,53,0,-1,-0.006316,0.043932,-0.029154,-0.014494,0.039783,-0.018221,1.9443,-0.4356,-1.4039
12683,11.0,0.002716,0.025341,-0.029080,0.005329,0.005955,-0.006909,1.5847,-0.9020,-1.1961,0.00270794,0.00023404,-0.00348325,-0.08244400,0.10939540,-0.02013621,-0.2773,-0.2540,-9.6983,0.257099,-0.265565,0.056651,-16.8073,33.8726,18.5147,-26.6288,0.0290,58,1,-1,-0.005716,0.043111,-0.029498,-0.002649,0.017467,-0.014851,1.9970,-0.7944,-1.4093
12695,12.0,0.003788,0.024399,-0.029166,0.015446,-0.006822,-0.007504,1.7450,-1.1103,-1.1681,0.00292641,0.00064450,-0.00346625,-0.08569613,0.11500003,-0.02014083,-0.3138,-0.3483,-9.8678,0.229666,-0.256974,0.063785,-16.8073,33.8726,18.5147,-26.6288,0.0290,56,2,-2,-0.005114,0.042635,-0.029244,0.003825,0.009596,-0.009627,2.1420,-0.9640,-1.3906
12706,11.0,0.004423,0.023899,-0.029099,0.020227,-0.011602,-0.006175,1.8942,-1.3000,-1.1520,0.00301653,0.00083582,-0.00345810,-0.08715250,0.11739755,-0.02083752,-0.3043,-0.2142,-9.8613,0.236072,-0.276411,0.040927,-16.8073,33.8726,18.5147,-26.6288,0.0290,57,1,-1,-0.003976,0.041591,-0.029342,0.015817,-0.004068,-0.009959,2.2802,-1.1416,-1.3716
12717,11.0,0.003973,0.023434,-0.029188,0.013113,-0.012662,-0.009986,2.0838,-1.4412,-1.0729,0.00320973,0.00046814,-0.00349167,-0.08669383,0.11777325,-0.02087329,-0.2813,0.0446,-10.1786,0.339711,-0.282661,0.099735,-16.8073,33.8726,18.5147,-26.6288,0.0290,67,-1,-1,-0.003271,0.040589,-0.029548,0.019287,-0.012097,-0.011610,2.5489,-1.4569,-1.3219
12728,11.0,0.003520,0.022988,-0.029320,0.009039,-0.012115,-0.014205,2.3312,-1.6181,-0.9388,0.00338985,0.00013110,-0.00352257,-0.08631536,0.11814219,-0.02091648,-0.0959,0.1369,-10.2259,0.431524,-0.330534,0.192494,-16.8073,33.8726,18.5147,-26.6288,0.0290,67,-1,-1,-0.003735,0.040114,-0.029248,0.012298,-0.013207,-0.010101,2.7122,-1.5845,-1.2519
12739,11.0,0.003648,0.023092,-0.029198,0.010767,-0.006772,-0.013833,2.6219,-1.9031,-0.7622,0.00330750,0.00016113,-0.00351664,-0.08598693,0.11726236,-0.02223838,-0.2439,-0.0221,-10.1111,0.466093,-0.430970,0.300364,-14.4283,33.5001,17.6617,-26.6288,0.0290,66,0,0,-0.004111,0.039741,-0.029519,0.010988,-0.006877,-0.016786,3.1807,-1.9534,-1.0190
12750,11.0,0.003808,0.023193,-0.029361,0.011272,-0.004099,-0.015896,2.8786,-2.2532,-0.5625,0.00324246,0.00019729,-0.00351109,-0.08575804,0.11665004,-0.02222922,-0.4177,-0.2656,-10.0083,0.415587,-0.530865,0.343767,-14.4283,33.5001,17.6617,-26.6288,0.0280,71,0,0,-0.003994,0.039833,-0.028738,0.012962,-0.001787,-0.008325,3.4385,-2.2207,-0.8584
12761,11.0,0.003448,0.023287,-0.029545,0.005017,-0.004912,-0.017557,3.0560,-2.5805,-0.3442,0.00323640,-0.00003093,-0.00352445,-0.08475146,0.11531898,-0.02224571,-0.5638,-0.5979,-9.9489,0.310489,-0.532927,0.355420,-14.4283,33.5001,17.6617,-26.6288,0.0280,68,-1,0,-0.004226,0.040021,-0.028937,0.008703,0.001916,-0.011238,3.8521,-2.8420,-0.4828
12773,12.0,0.003599,0.023354,-0.028762,0.006948,-0.016104,-0.011334,2.5819,-2.8318,0.0460,0.01295116,0.00323920,-0.00426258,-0.10602167,0.10548327,-0.02645474,-0.5068,-0.8295,-10.2666,0.156212,-0.399896,0.353684,-14.4283,33.5001,17.6617,-26.6288,0.0280,70,0,0,-0.004614,0.040101,-0.029057,0.003371,0.001020,-0.013088,3.9913,-3.1317,-0.2849
12784,11.0,0.003654,0.023362,-0.028932,0.008082,-0.017449,-0.019638,2.5948,-2.9649,0.2742,0.01288853,0.00324675,-0.00425791,-0.10564283,0.10463420,-0.02643816,-0.5004,-0.6925,-10.5595,0.047125,-0.187012,0.369000,-14.4283,33.5001,17.6617,-26.6288,0.0290,78,0,0,-0.004494,0.040175,-0.029214,0.004584,-0.007336,-0.017533,3.5084,-3.2233,0.0202
12795,11.0,0.004186,0.023325,-0.029200,0.014699,-0.016078,-0.029186,2.5426,-2.9665,0.5074,0.01279346,0.00348654,-0.00423294,-0.10600576,0.10471822,-0.02639035,-0.4968,-0.4171,-10.6867,-0.069671,0.057179,0.382913,-14.4283,33.5001,17.6617,-26.6288,0.0290,80,1,0,-0.003878,0.040187,-0.029336,0.014893,-0.008279,-0.029054,3.5225,-3.4490,0.4238
12806,11.0,0.004146,0.023262,-0.029221,0.013723,-0.015609,-0.032778,2.4205,-2.8575,0.7523,0.01277270,0.00339141,-0.00423879,-0.10557774,0.10384647,-0.02790213,-0.5306,-0.4300,-10.5023,-0.157465,0.179798,0.370596,-14.4283,33.5001,17.6617,-26.6077,0.0290,81,0,0,-0.003890,0.040151,-0.029669,0.015368,-0.006747,-0.037518,3.4566,-3.4152,0.6516
12818,12.0,0.004110,0.023133,-0.029660,0.011997,-0.015502,-0.039619,2.1706,-2.7055,0.9691,0.01277255,0.00329214,-0.00424630,-0.10518939,0.10328032,-0.02789278,-0.5796,-0.3763,-10.3811,-0.330775,0.223556,0.296123,-14.4283,33.5001,17.6617,-26.6077,0.0290,92,0,0,-0.003973,0.040023,-0.029561,0.014566,-0.005992,-0.039861,3.1795,-3.1976,1.0810
12829,11.0,0.004065,0.022965,-0.030124,0.009281,-0.016064,-0.044703,1.8236,-2.5621,1.1402,0.01278737,0.00320273,-0.00425407,-0.10494050,0.10297450,-0.02791033,-0.6639,-0.3369,-10.2760,-0.519728,0.226297,0.252983,-14.4283,33.5001,17.6617,-26.6077,0.0290,93,0,0,-0.004562,0.039902,-0.029992,0.007072,-0.005949,-0.045388,2.9359,-3.0449,1.2740
12840,11.0,0.003998,0.022755,-0.029726,0.006375,-0.017523,-0.040215,1.3843,-2.3666,1.2932,0.01280491,0.00311304,-0.00426181,-0.10502252,0.10253903,-0.03193336,-0.6686,-0.3281,-10.3795,-0.666659,0.303885,0.222386,-14.4308,34.5901,18.0680,-26.6077,0.0290,92,0,0,-0.004609,0.039758,-0.030469,0.005816,-0.006394,-0.050079,2.6284,-2.9172,1.4332
12852,12.0,0.003921,0.022486,-0.030251,0.006465,-0.017888,-0.047422,0.8454,-2.1585,1.4349,0.01284133,0.00301919,-0.00427151,-0.10490252,0.10248999,-0.03195681,-0.3734,-0.1255,-10.4379,-0.756215,0.295385,0.189584,-14.4308,34.5901,18.0680,-26.6077,0.0300,94,0,0,-0.004747,0.039377,-0.030612,0.003221,-0.009314,-0.050834,1.8206,-2.5674,1.7134
12863,11.0,0.003864,0.022241,-0.030814,0.007700,-0.017213,-0.053784,0.3729,-2.0310,1.5773,0.01287418,0.00293659,-0.00428020,-0.10480386,0.10245713,-0.03194876,-0.2348,0.0618,-10.4166,-0.722260,0.193985,0.213461,-14.4308,34.5901,18.0680,-26.6077,0.0300,98,0,0,-0.004824,0.039156,-0.031149,0.004043,-0.009901,-0.056689,1.3730,-2.3952,1.8343
12874,11.0,0.003843,0.022007,-0.030639,0.009113,-0.016267,-0.052661,-0.0767,-1.9738,1.7411,0.01289841,0.00286510,-0.00428721,-0.10501905,0.10219984,-0.03542908,-0.2232,0.1667,-10.5956,-0.684564,0.080265,0.248809,-14.4308,34.5901,18.0680,-26.6077,0.0300,97,0,0,-0.004885,0.038938,-0.031749,0.006855,-0.008525,-0.068857,0.6088,-2.1746,1.9584
12885,11.0,0.003852,0.021803,-0.031303,0.010810,-0.011458,-0.064434,-0.1717,-2.0181,1.8406,0.00767575,0.00072238,-0.00309831,-0.09351173,0.10433605,-0.03566702,-0.1336,0.1608,-10.8968,-0.591060,-0.077078,0.321082,-14.4308,34.5901,18.0680,-26.5549,0.0300,100,0,0,-0.004919,0.038532,-0.033175,0.009439,-0.008042,-0.077462,0.2209,-2.1685,2.1252
12897,12.0,0.003362,0.021606,-0.032169,0.005941,-0.012772,-0.079899,-0.5612,-2.0172,2.0959,0.00774934,0.00038150,-0.00315584,-0.09284911,0.10342361,-0.03573337,-0.3057,0.0856,-11.1337,-0.525099,-0.050739,0.345423,-14.4308,34.5901,18.0680,-26.5549,0.0300,89,-1,0,-0.004845,0.037636,-0.032062,0.014064,-0.015653,-0.072274,-0.4796,-2.2254,2.5201
12908,11.0,0.003340,0.021448,-0.031404,0.007194,-0.014870,-0.075315,-0.8936,-1.9574,2.2929,0.00774765,0.00033143,-0.00316317,-0.09328489,0.10284495,-0.04301791,-0.2779,0.0222,-11.2437,-0.503889,0.079402,0.304924,-14.4308,34.5901,18.0680,-26.5549,0.0300,84,0,0,-0.005391,0.037459,-0.032877,0.008636,-0.017651,-0.085472,-0.8057,-2.1983,2.7354
12918,10.0,0.003108,0.025176,-0.032222,0.004252,0.022799,-0.088409,-1.1073,-1.8951,2.3789,0.00653650,0.00068042,-0.00299936,-0.08682103,0.08802413,-0.04293951,-0.5441,-0.1253,-11.1577,-0.472852,0.229135,0.215833,-14.4308,34.5901,18.0680,-26.5549,0.0310,87,0,6,-0.005412,0.037316,-0.033801,0.009845,-0.019988,-0.099450,-1.1029,-2.1347,2.9090
12929,11.0,0.002860,0.028556,-0.033282,-0.000256,0.053681,-0.100270,-1.3831,-1.7236,2.4577,0.00554931,0.00094452,-0.00286674,-0.08152767,0.07605901,-0.04281840,-0.6514,0.0514,-10.8937,-0.510368,0.357831,0.176353,-14.4308,34.5901,18.0680,-26.5549,0.0310,87,0,6,-0.005643,0.040672,-0.032496,0.007907,0.015228,-0.088054,-1.3285,-2.0937,3.0038
12941,12.0,-0.003413,0.033682,-0.032584,-0.071237,0.101992,-0.085176,-1.7008,-1.1948,2.6088,0.00461285,-0.00183643,-0.00319786,-0.06845880,0.04784850,-0.05151075,-0.5899,0.4884,-10.4514,-0.382159,0.411350,0.096273,-12.7332,33.5139,18.9615,-26.5549,0.0310,92,-11,10,-0.012438,0.054722,-0.034491,-0.069718,0.156996,-0.108227,-1.8247,-1.6580,3.1764
12953,12.0,-0.011873,0.035604,-0.033649,-0.160472,0.109287,-0.089194,-2.0297,-0.5279,2.7824,0.00501028,-0.00583416,-0.00384987,-0.05941578,0.03123956,-0.05208860,-0.6976,0.5182,-10.1599,-0.261505,0.382324,0.030659,-12.7332,33.5139,18.9615,-26.5549,0.0310,94,-15,4,-0.028437,0.062170,-0.033989,-0.233892,0.196445,-0.090352,-2.4782,-0.5444,3.5345
12964,11.0,-0.020523,0.038220,-0.034645,-0.240724,0.123220,-0.091983,-2.2592,0.0513,2.8906,0.00509564,-0.00934098,-0.00440254,-0.04996286,0.01338690,-0.05266254,-0.5445,0.4501,-10.1076,-0.179245,0.366468,-0.028527,-12.7332,33.5139,18.9615,-26.5549,0.0310,101,-14,5,-0.037081,0.064710,-0.034907,-0.311088,0.200784,-0.092919,-2.7494,-0.0013,3.6750
12975,11.0,-0.033362,0.040659,-0.033101,-0.354210,0.133478,-0.066259,-2.5161,0.7863,3.0426,0.00553135,-0.01467711,-0.00528678,-0.03823802,-0.00969983,-0.06400384,-0.0906,0.5249,-10.2296,-0.108981,0.305407,-0.077156,-12.7332,33.5139,18.9615,-26.5549,0.0310,97,-21,5,-0.045809,0.067258,-0.035878,-0.379692,0.203865,-0.095690,-2.9675,0.4961,3.7712
12986,11.0,-0.041176,0.045566,-0.033860,-0.397304,0.172049,-0.071754,-2.5580,1.0909,3.0419,0.00469195,-0.01634158,-0.00548056,-0.02907605,-0.02932810,-0.06441422,0.0782,0.6972,-10.3515,-0.040914,0.249978,-0.068712,-12.7332,33.5139,18.9615,-26.5549,0.0340,97,-11,8,-0.058695,0.069540,-0.036854,-0.483784,0.205128,-0.098887,-3.0293,0.9159,4.0459
12997,11.0,-0.048464,0.051160,-0.034711,-0.421755,0.214178,-0.078741,-2.4325,0.8883,3.5010,0.00413885,-0.01159867,-0.01739638,-0.00974563,-0.03976268,-0.06482836,0.3055,0.7012,-10.4533,0.095600,0.165991,0.008320,-12.7332,33.5139,18.9615,-26.5549,0.0340,98,-10,9,-0.073981,0.079229,-0.036190,-0.543655,0.263855,-0.082076,-3.0964,1.3468,4.0335
13009,12.0,-0.055637,0.056609,-0.034741,-0.442920,0.246002,-0.074395,-2.3161,1.0550,3.6077,0.00348177,-0.01230749,-0.01749080,-0.00388146,-0.05399813,-0.06900259,0.3005,0.5301,-10.4118,0.162908,0.147343,0.118172,-12.7332,33.5139,18.9615,-26.5549,0.0340,98,-10,9,-0.081382,0.084808,-0.037041,-0.564688,0.297072,-0.088056,-3.0488,1.4827,4.0457
13020,11.0,-0.059404,0.057352,-0.035562,-0.431756,0.224692,-0.078886,-2.1935,1.1428,3.7413,0.00396412,-0.01200184,-0.01747005,-0.00760978,-0.04491954,-0.06890503,0.1210,0.3061,-10.3073,0.211697,0.146711,0.208042,-12.7332,33.5139,18.9615,-26.7028,0.0340,102,-5,1,-0.100173,0.097095,-0.036460,-0.646375,0.361307,-0.073942,-2.9265,1.9115,4.2952
13031,11.0,-0.060548,0.057611,-0.036451,-0.393791,0.201536,-0.082972,-1.9885,1.1156,3.8484,0.00432731,-0.01042519,-0.01714042,-0.01419749,-0.03026444,-0.06867957,0.0515,0.3182,-10.2465,0.271896,0.169582,0.252579,-13.0740,34.2383,19.8345,-26.7028,0.0340,83,-1,0,-0.104114,0.097917,-0.037190,-0.620071,0.329002,-0.077733,-2.7946,1.9476,4.3944
