timestamp_ms,dt_ms,pos_x,pos_y,pos_z,vel_x,vel_y,vel_z,roll_deg,pitch_deg,yaw_deg,gyro_bias_x,gyro_bias_y,gyro_bias_z,accel_bias_x,accel_bias_y,accel_bias_z,raw_accel_x,raw_accel_y,raw_accel_z,raw_gyro_x,raw_gyro_y,raw_gyro_z,raw_mag_x,raw_mag_y,raw_mag_z,raw_baro_alt,raw_tof,raw_flow_squal,raw_flow_dx,raw_flow_dy,dev_pos_x,dev_pos_y,dev_pos_z,dev_vel_x,dev_vel_y,dev_vel_z,dev_roll_deg,dev_pitch_deg,dev_yaw_deg
335072,10.0,-0.001038,-0.003671,-0.025941,-0.104851,-0.366572,-0.000094,-0.0856,0.0244,0.0022,0.00000000,0.00000000,0.00191266,-0.00109327,0.00179846,0.00000000,-0.2041,0.1690,-9.8128,-0.005012,0.002270,0.002140,7.9408,13.9416,22.0774,-24.8268,0.0260,30,-2,-7,-0.019649,-0.068397,-0.025960,-0.111017,-0.380121,-0.001534,-1.0002,-0.8638,-0.0229
335083,11.0,-0.002128,-0.007505,-0.025943,-0.102894,-0.355880,-0.000352,-0.1413,-0.1213,0.0013,0.00000032,0.00000049,0.00191266,-0.00113652,0.00169222,-0.00000017,-0.1819,0.1734,-9.8320,-0.001439,0.003874,0.002352,7.9408,13.9416,22.0774,-24.8268,0.0260,30,-2,-7,-0.020743,-0.072207,-0.025976,-0.111028,-0.380318,-0.001631,-1.0069,-0.8812,-0.0226
335094,11.0,-0.003212,-0.011333,-0.024126,-0.102849,-0.351447,0.079639,-0.0993,-0.1496,0.0011,0.00000020,0.00000059,0.00191267,-0.00119922,0.00160968,-0.00004994,-0.1983,0.1910,-9.8253,0.000762,0.003881,0.003861,7.9408,13.9416,22.0774,-24.8268,0.0260,30,-2,-7,-0.022930,-0.079827,-0.025948,-0.110925,-0.380604,-0.001447,-1.0127,-0.9041,-0.0225
335105,11.0,-0.004304,-0.015152,-0.025960,-0.102847,-0.349050,-0.001333,-0.1666,-0.2793,0.0014,0.00000084,0.00000149,0.00191267,-0.00127849,0.00155132,0.00001825,-0.1926,0.1807,-9.8110,-0.001348,0.000856,0.004271,7.9408,13.9416,22.0774,-24.8268,0.0260,30,-2,-7,-0.024023,-0.083637,-0.025981,-0.110994,-0.380567,-0.001794,-1.0144,-0.9131,-0.0224
335116,11.0,-0.005392,-0.018975,-0.025866,-0.103016,-0.347042,0.001383,-0.1627,-0.3243,-0.0007,0.00000080,0.00000175,0.00191268,-0.00138231,0.00153945,-0.00001955,-0.1812,0.1990,-9.8271,-0.002885,0.002094,0.000234,6.5818,13.9488,22.0566,-24.8268,0.0260,30,-2,-7,-0.026208,-0.091258,-0.025968,-0.110910,-0.380541,-0.001456,-1.0203,-0.9352,0.2504
335127,11.0,-0.006489,-0.022786,-0.025853,-0.102857,-0.346073,0.001062,-0.2440,-0.4360,-0.0028,0.00000186,0.00000296,0.00191269,-0.00148397,0.00153781,-0.00001912,-0.1774,0.1680,-9.8359,-0.001196,0.000409,-0.000303,6.5818,13.9488,22.0566,-24.8638,0.0260,30,-2,-7,-0.027286,-0.095073,-0.025892,-0.110463,-0.380648,-0.000613,-1.0265,-0.9502,0.2501
335138,11.0,-0.007618,-0.026724,-0.026743,-0.103625,-0.347980,-0.015642,-0.4074,-0.4483,-0.0003,0.00000330,0.00000306,0.00191266,-0.00150639,0.00192756,0.00049194,-0.1671,0.1756,-9.8204,-0.002708,0.001143,-0.000101,6.5818,13.9488,22.0566,-24.8638,0.0270,30,-2,-7,-0.028363,-0.098888,-0.025900,-0.110109,-0.380844,-0.000846,-1.0297,-0.9623,0.2489
335149,11.0,-0.008753,-0.030656,-0.026916,-0.103999,-0.349891,-0.015931,-0.5842,-0.5025,0.0027,0.00000561,0.00000406,0.00191263,-0.00152378,0.00225369,0.00049323,-0.1672,0.1731,-9.8314,-0.001935,0.001713,0.001102,6.5818,13.9488,22.0566,-24.8638,0.0270,30,-2,-7,-0.030587,-0.106771,-0.026651,-0.110416,-0.385324,-0.008259,-1.1288,-0.9553,0.2532
335160,11.0,-0.009884,-0.034594,-0.026963,-0.104459,-0.351588,-0.014217,-0.6945,-0.5217,0.0063,0.00000704,0.00000434,0.00191260,-0.00158377,0.00255497,0.00028087,-0.1683,0.1496,-9.8343,-0.001447,0.002241,0.003456,6.5818,13.9488,22.0566,-24.8638,0.0270,30,-2,-7,-0.031699,-0.110717,-0.026735,-0.110506,-0.387147,-0.008622,-1.1621,-0.9511,0.2549
335171,11.0,-0.010987,-0.038417,-0.026324,-0.103964,-0.350171,-0.003134,-0.6596,-0.6092,0.0040,0.00000686,0.00000622,0.00191264,-0.00174376,0.00240919,-0.00120653,-0.1848,0.1725,-9.8034,0.001871,0.002370,0.001376,6.5818,13.9488,22.0566,-24.8638,0.0260,30,-2,-7,-0.032812,-0.114666,-0.026727,-0.110670,-0.388823,-0.007896,-1.1893,-0.9472,0.2563
335183,12.0,-0.012119,-0.042342,-0.026290,-0.101910,-0.342774,-0.002479,-0.3430,-0.7468,-0.0081,0.00000091,0.00000884,0.00191285,-0.00215906,0.00147762,-0.00142714,-0.1814,0.1741,-9.8376,-0.000679,0.002563,0.001988,6.5818,13.9488,22.0566,-24.8638,0.0260,30,-2,-7,-0.034964,-0.122315,-0.026327,-0.110027,-0.387417,-0.002574,-1.1433,-0.9667,0.2552
335194,11.0,-0.013217,-0.046144,-0.026320,-0.101792,-0.342790,-0.002855,-0.4187,-0.7928,-0.0078,0.00000314,0.00001028,0.00191284,-0.00222248,0.00156228,-0.00142621,-0.1983,0.1754,-9.8416,-0.005074,0.003036,0.001412,6.5818,13.9488,22.0566,-24.8638,0.0260,30,-2,-7,-0.036040,-0.126138,-0.026282,-0.109779,-0.386856,-0.002053,-1.1251,-0.9735,0.2551
335205,11.0,-0.014311,-0.049949,-0.026095,-0.101745,-0.342649,-0.000071,-0.4590,-0.8218,-0.0078,0.00000424,0.00001105,0.00191283,-0.00233041,0.00170870,-0.00244189,-0.1953,0.1733,-9.8370,0.000755,-0.000919,0.000819,6.5818,13.9488,22.0566,-24.8057,0.0260,30,-2,-7,-0.037116,-0.129962,-0.026303,-0.109620,-0.386331,-0.002293,-1.1139,-0.9789,0.2538
335216,11.0,-0.015408,-0.053750,-0.026097,-0.101447,-0.342757,-0.000198,-0.5182,-0.8554,-0.0085,0.00000668,0.00001230,0.00191283,-0.00238925,0.00177439,-0.00244197,-0.1790,0.1765,-9.8204,-0.001131,-0.001515,0.000139,8.6179,13.9488,21.1659,-24.8057,0.0260,30,-2,-7,-0.039265,-0.137605,-0.026092,-0.109482,-0.385364,-0.000080,-1.0885,-0.9897,0.4821
335227,11.0,-0.016502,-0.057555,-0.026044,-0.101347,-0.342789,0.000542,-0.5533,-0.8765,-0.0070,0.00000795,0.00001308,0.00191281,-0.00246859,0.00189981,-0.00276758,-0.1897,0.1690,-9.8016,0.000238,0.000644,0.002984,8.6179,13.9488,21.1659,-24.8057,0.0260,30,-2,-7,-0.040327,-0.141429,-0.026093,-0.109077,-0.384994,-0.000168,-1.0801,-0.9993,0.4809
335238,11.0,-0.017598,-0.061357,-0.026014,-0.101133,-0.342837,0.000657,-0.6028,-0.8987,-0.0074,0.00001058,0.00001427,0.00191280,-0.00251314,0.00195530,-0.00292892,-0.1829,0.1890,-9.8254,-0.003469,0.001284,0.000697,8.6179,13.9488,21.1659,-24.8057,0.0260,30,-2,-7,-0.042449,-0.149078,-0.026006,-0.108457,-0.384475,0.000565,-1.0687,-1.0129,0.4792
335249,11.0,-0.018692,-0.065162,-0.025970,-0.100975,-0.342895,0.000758,-0.6326,-0.9145,-0.0065,0.00001204,0.00001505,0.00191278,-0.00257561,0.00206776,-0.00321981,-0.1828,0.1759,-9.8425,-0.000070,0.000103,0.002152,8.6179,13.9488,21.1659,-24.8057,0.0260,30,-2,-7,-0.043510,-0.152902,-0.025963,-0.108197,-0.384180,0.000840,-1.0648,-1.0171,0.4776
335260,11.0,-0.019787,-0.068965,-0.025962,-0.100838,-0.343130,0.000751,-0.6704,-0.9309,-0.0074,0.00001449,0.00001628,0.00191277,-0.00260102,0.00211901,-0.00322043,-0.1873,0.1702,-9.8102,-0.004718,0.001714,-0.000189,8.6179,13.9488,21.1659,-24.8057,0.0260,30,-2,-7,-0.045631,-0.160548,-0.025947,-0.107573,-0.383813,0.000750,-1.0578,-1.0231,0.4765
335271,11.0,-0.020881,-0.072770,-0.025949,-0.100593,-0.343290,0.000754,-0.6943,-0.9411,-0.0077,0.00001601,0.00001700,0.00191275,-0.00264373,0.00220922,-0.00326853,-0.1701,0.1672,-9.8160,-0.001068,0.001057,0.000315,8.6179,13.9488,21.1659,-24.8057,0.0260,30,-2,-7,-0.046691,-0.164370,-0.025941,-0.107427,-0.383770,0.000744,-1.0540,-1.0260,0.4769
335282,11.0,-0.021974,-0.076575,-0.025943,-0.100513,-0.343388,0.000327,-0.7230,-0.9523,-0.0084,0.00001859,0.00001814,0.00191273,-0.00265882,0.00224064,-0.00327005,-0.1882,0.1825,-9.8486,-0.001876,0.001598,0.000392,8.6179,13.9488,21.1659,-24.8057,0.0260,30,-2,-7,-0.047751,-0.168192,-0.025933,-0.107179,-0.383682,0.000717,-1.0501,-1.0280,0.4760
335293,11.0,-0.023067,-0.080381,-0.025892,-0.100428,-0.343480,0.000710,-0.7437,-0.9599,-0.0089,0.00002025,0.00001886,0.00191271,-0.00270086,0.00232600,-0.00374216,-0.1837,0.1764,-9.8288,-0.002693,0.000966,0.000159,8.6179,13.9488,21.1659,-24.8057,0.0260,30,-2,-7,-0.049870,-0.175836,-0.025870,-0.106915,-0.383526,0.000836,-1.0439,-1.0294,0.4745
335304,11.0,-0.024160,-0.084186,-0.025945,-0.100353,-0.343544,0.000008,-0.7681,-0.9688,-0.0083,0.00002299,0.00001997,0.00191269,-0.00270265,0.00233936,-0.00315371,-0.1867,0.1871,-9.8081,-0.002340,0.001072,0.002486,8.6179,13.9488,21.1659,-24.8057,0.0260,30,-2,-7,-0.050929,-0.179658,-0.025940,-0.106834,-0.383398,-0.000192,-1.0413,-1.0308,0.4739
335315,11.0,-0.025252,-0.087992,-0.025908,-0.100523,-0.343618,0.000602,-0.7838,-0.9746,-0.0078,0.00002476,0.00002083,0.00191266,-0.00274200,0.00241274,-0.00353488,-0.2091,0.1792,-9.7967,-0.000091,0.002764,0.002010,7.2621,14.3002,22.0774,-24.8057,0.0260,30,-2,-7,-0.051988,-0.183480,-0.025904,-0.106773,-0.383238,0.000257,-1.0394,-1.0315,0.4742
335326,11.0,-0.026345,-0.091798,-0.025903,-0.100431,-0.343883,0.000391,-0.8010,-0.9840,-0.0086,0.00002706,0.00002217,0.00191264,-0.00275195,0.00244471,-0.00353605,-0.1889,0.1633,-9.8295,-0.002060,-0.000832,-0.000130,7.2621,14.3002,22.0774,-24.8057,0.0260,30,-2,-7,-0.054101,-0.191124,-0.025836,-0.106700,-0.383046,0.000946,-1.0355,-1.0335,0.5537
335337,11.0,-0.027436,-0.095605,-0.025923,-0.100503,-0.343937,0.000019,-0.8146,-0.9908,-0.0087,0.00002887,0.00002317,0.00191262,-0.00277887,0.00249729,-0.00328534,-0.2031,0.1804,-9.8169,-0.001577,0.000318,0.001046,7.2621,14.3002,22.0774,-24.8057,0.0260,30,-2,-7,-0.055155,-0.194946,-0.025926,-0.106590,-0.383051,-0.000334,-1.0334,-1.0354,0.5524
335348,11.0,-0.028529,-0.099411,-0.025924,-0.100491,-0.343953,-0.000210,-0.8270,-0.9977,-0.0077,0.00003156,0.00002472,0.00191260,-0.00278298,0.00250682,-0.00328714,-0.1978,0.1870,-9.8304,0.002799,0.001874,0.003204,7.2621,14.3002,22.0774,-24.8427,0.0260,30,-2,-7,-0.056209,-0.198769,-0.025930,-0.106516,-0.382941,-0.000453,-1.0310,-1.0365,0.5526
335359,11.0,-0.029621,-0.103219,-0.025866,-0.100522,-0.343974,0.000276,-0.8380,-1.0021,-0.0062,0.00003352,0.00002581,0.00191258,-0.00282352,0.00256875,-0.00394598,-0.2006,0.1850,-9.8352,-0.000522,0.002411,0.003745,7.2621,14.3002,22.0774,-24.8427,0.0260,30,-2,-7,-0.058316,-0.206414,-0.025873,-0.106379,-0.382712,-0.000150,-1.0292,-1.0379,0.5528
335371,12.0,-0.030741,-0.107111,-0.025936,-0.098971,-0.339543,-0.000764,-0.7518,-1.0350,-0.0144,0.00001628,0.00003256,0.00191318,-0.00297466,0.00207403,-0.00320457,-0.1705,0.1831,-9.8260,-0.000306,0.000564,-0.000123,7.2621,14.3002,22.0774,-24.8427,0.0260,30,-2,-7,-0.060424,-0.214060,-0.025914,-0.106241,-0.382512,-0.000834,-1.0284,-1.0387,0.5528
335382,11.0,-0.031830,-0.110910,-0.025898,-0.099066,-0.340304,-0.000346,-0.7760,-1.0346,-0.0135,0.00002171,0.00003252,0.00191306,-0.00298328,0.00220048,-0.00370654,-0.1884,0.1633,-9.8257,-0.000749,0.000410,0.001097,7.2621,14.3002,22.0774,-24.8427,0.0260,30,-2,-7,-0.061478,-0.217881,-0.025923,-0.106037,-0.382523,-0.001083,-1.0255,-1.0389,0.5523
335393,11.0,-0.032920,-0.114710,-0.025903,-0.099111,-0.340829,-0.000533,-0.7990,-1.0338,-0.0119,0.00002801,0.00003269,0.00191295,-0.00297499,0.00225616,-0.00370888,-0.1848,0.1820,-9.8274,0.000198,0.001809,0.003402,7.2621,14.3002,22.0774,-24.8427,0.0260,30,-2,-7,-0.062532,-0.221703,-0.025856,-0.105959,-0.382570,-0.000332,-1.0243,-1.0386,0.5517
335404,11.0,-0.034045,-0.118632,-0.026475,-0.099709,-0.343469,-0.007421,-0.8587,-1.0213,-0.0089,0.00004408,0.00002964,0.00191252,-0.00281337,0.00245474,0.00188840,-0.1838,0.1605,-9.8248,-0.002738,0.002888,0.000728,7.2621,14.3002,22.0774,-24.8427,0.0270,30,-2,-7,-0.063585,-0.225524,-0.025860,-0.105830,-0.382560,-0.000555,-1.0223,-1.0385,0.5527
335415,11.0,-0.035170,-0.122559,-0.026558,-0.100193,-0.345548,-0.007581,-0.9066,-1.0137,-0.0064,0.00005932,0.00002715,0.00191215,-0.00276059,0.00266611,0.00188395,-0.1813,0.1846,-9.8192,0.000860,-0.001197,0.001537,7.2621,14.3002,22.0774,-24.8427,0.0270,30,-2,-7,-0.065764,-0.233431,-0.026641,-0.106778,-0.385778,-0.008360,-1.0545,-1.0272,0.6236
335426,11.0,-0.036262,-0.126370,-0.026589,-0.100240,-0.345403,-0.007278,-0.9108,-1.0170,-0.0082,0.00006048,0.00002838,0.00191215,-0.00279040,0.00269413,0.00134238,-0.1991,0.1886,-9.8375,-0.001110,0.000579,-0.000907,6.9227,15.3760,22.0774,-24.8215,0.0260,30,-2,-7,-0.066850,-0.237388,-0.026726,-0.107028,-0.387048,-0.008496,-1.0659,-1.0247,0.6245
335437,11.0,-0.037353,-0.130181,-0.026296,-0.100162,-0.345271,-0.003302,-0.9166,-1.0207,-0.0067,0.00006259,0.00002989,0.00191215,-0.00286227,0.00274096,-0.00224907,-0.1879,0.1918,-9.8500,-0.001650,0.000002,0.004442,6.9227,15.3760,22.0774,-24.8215,0.0260,30,-2,-7,-0.068949,-0.245044,-0.026353,-0.106732,-0.386037,-0.003592,-1.0532,-1.0294,0.6249
335448,11.0,-0.038444,-0.133990,-0.026291,-0.100151,-0.345371,-0.002825,-0.9200,-1.0230,-0.0074,0.00006389,0.00003112,0.00191215,-0.00288684,0.00276590,-0.00265147,-0.1927,0.1674,-9.8118,-0.000357,0.001199,0.000811,6.9227,15.3760,22.0774,-24.8215,0.0260,30,-2,-7,-0.069998,-0.248872,-0.026340,-0.106595,-0.385592,-0.003299,-1.0502,-1.0309,0.6256
335460,12.0,-0.039592,-0.137991,-0.026327,-0.099435,-0.343170,-0.003129,-0.8835,-1.0370,-0.0103,0.00004779,0.00003777,0.00191264,-0.00295164,0.00254838,-0.00264949,-0.1894,0.1626,-9.8350,0.000197,0.001060,0.001897,6.9227,15.3760,22.0774,-24.8215,0.0270,30,-2,-7,-0.071048,-0.252698,-0.026373,-0.106508,-0.385325,-0.003327,-1.0462,-1.0318,0.6248
335471,11.0,-0.040718,-0.141920,-0.026682,-0.099915,-0.345367,-0.007081,-0.9213,-1.0270,-0.0081,0.00006627,0.00003396,0.00191216,-0.00285054,0.00271734,0.00026974,-0.1798,0.1663,-9.8251,0.000857,0.003350,0.001126,6.9227,15.3760,22.0774,-24.8215,0.0270,30,-2,-7,-0.073218,-0.260612,-0.026783,-0.107040,-0.388061,-0.007036,-1.0661,-1.0275,0.6268
335482,11.0,-0.041844,-0.145853,-0.026763,-0.100428,-0.347270,-0.007563,-0.9529,-1.0217,-0.0048,0.00008309,0.00003126,0.00191173,-0.00279680,0.00289243,0.00026725,-0.1920,0.1701,-9.8503,0.000643,-0.000338,0.003296,6.9227,15.3760,22.0774,-24.8215,0.0270,30,-2,-7,-0.074304,-0.264571,-0.026854,-0.107294,-0.389242,-0.007227,-1.0733,-1.0239,0.6273
335493,11.0,-0.042936,-0.149666,-0.026794,-0.100350,-0.347441,-0.007309,-0.9529,-1.0229,-0.0038,0.00008190,0.00003296,0.00191179,-0.00282428,0.00288875,-0.00023216,-0.1892,0.1389,-9.8443,-0.003199,0.002866,0.003903,6.9227,15.3760,22.0774,-24.8215,0.0260,30,-2,-7,-0.076476,-0.272494,-0.026928,-0.107773,-0.391282,-0.007008,-1.0866,-1.0203,0.6305
335504,11.0,-0.044029,-0.153480,-0.026387,-0.100032,-0.347353,-0.001745,-0.9527,-1.0228,-0.0045,0.00008062,0.00003370,0.00191184,-0.00293609,0.00295196,-0.00453138,-0.1617,0.1630,-9.8267,-0.002934,0.002670,0.001457,6.9227,15.3760,22.0774,-24.8004,0.0260,30,-2,-7,-0.077526,-0.276326,-0.026343,-0.107538,-0.390656,-0.000246,-1.0784,-1.0219,0.6309
335515,11.0,-0.045119,-0.157293,-0.026371,-0.100150,-0.347136,-0.001427,-0.9512,-1.0253,-0.0052,0.00007967,0.00003534,0.00191189,-0.00295759,0.00294845,-0.00484733,-0.2045,0.1770,-9.8211,0.000189,-0.000063,0.001090,7.2653,13.5686,20.7823,-24.8004,0.0260,30,-2,-7,-0.078577,-0.280158,-0.026307,-0.107152,-0.389944,0.000085,-1.0708,-1.0230,0.6298
335526,11.0,-0.046211,-0.161107,-0.026388,-0.099951,-0.346795,-0.001600,-0.9532,-1.0258,-0.0064,0.00008031,0.00003654,0.00191194,-0.00297252,0.00291073,-0.00484781,-0.1724,0.1952,-9.8273,-0.002393,0.002117,0.000842,7.2653,13.5686,20.7823,-24.8004,0.0260,30,-2,-7,-0.080677,-0.287818,-0.026245,-0.107040,-0.388575,0.000587,-1.0548,-1.0262,0.6110
335537,11.0,-0.047338,-0.165045,-0.026702,-0.100388,-0.348356,-0.005148,-0.9784,-1.0180,-0.0024,0.00009850,0.00003259,0.00191148,-0.00289141,0.00302228,-0.00232341,-0.1835,0.1821,-9.8154,-0.001702,0.003890,0.005361,7.2653,13.5686,20.7823,-24.8004,0.0270,30,-2,-7,-0.081764,-0.291779,-0.026701,-0.107255,-0.389467,-0.004564,-1.0622,-1.0233,0.6110
335548,11.0,-0.048464,-0.168984,-0.026760,-0.100781,-0.349882,-0.005409,-0.9988,-1.0149,0.0000,0.00011463,0.00002975,0.00191107,-0.00285075,0.00315548,-0.00232413,-0.1864,0.1674,-9.8330,-0.000673,-0.000812,0.003162,7.2653,13.5686,20.7823,-24.8004,0.0270,30,-2,-7,-0.083939,-0.299703,-0.026747,-0.107616,-0.391142,-0.004324,-1.0738,-1.0185,0.6137
335559,11.0,-0.049520,-0.172677,-0.026775,-0.100383,-0.347807,-0.005135,-0.9721,-1.0241,-0.0018,0.00009018,0.00003839,0.00191177,-0.00292441,0.00297428,-0.00271830,-0.2103,0.1673,-9.8347,-0.002307,0.001370,0.003002,7.2653,13.5686,20.7823,-24.8004,0.0250,30,-2,-7,-0.085026,-0.303666,-0.026791,-0.107786,-0.391927,-0.004495,-1.0773,-1.0174,0.6147
335570,11.0,-0.050576,-0.176366,-0.025819,-0.099852,-0.345883,0.006719,-0.9489,-1.0320,-0.0049,0.00006831,0.00004670,0.00191240,-0.00312058,0.00294380,-0.01110077,-0.1921,0.1753,-9.8210,-0.000564,0.001732,0.000555,7.2653,13.5686,20.7823,-24.8004,0.0250,30,-2,-7,-0.086041,-0.307368,-0.025696,-0.107212,-0.389417,0.007913,-1.0572,-1.0228,0.6131
335581,11.0,-0.051630,-0.180052,-0.025727,-0.099290,-0.344287,0.006797,-0.9314,-1.0396,-0.0077,0.00004862,0.00005396,0.00191296,-0.00317429,0.00280924,-0.01126639,-0.1829,0.1648,-9.8328,-0.003926,-0.000327,0.000376,7.2653,13.5686,20.7823,-24.7475,0.0250,30,-2,-7,-0.088069,-0.314763,-0.025540,-0.106143,-0.384928,0.007653,-1.0202,-1.0332,0.6097
335592,11.0,-0.052757,-0.183986,-0.025655,-0.099841,-0.346230,0.006272,-0.9574,-1.0324,-0.0091,0.00007397,0.00004872,0.00191231,-0.00311987,0.00297138,-0.01126690,-0.1914,0.1664,-9.8659,-0.002877,0.003528,-0.003788,7.2653,13.5686,20.7823,-24.7475,0.0270,30,-2,-7,-0.089083,-0.318458,-0.025432,-0.105613,-0.383139,0.007938,-1.0069,-1.0371,0.6071
335603,11.0,-0.053883,-0.187922,-0.026345,-0.100354,-0.348034,-0.002860,-0.9783,-1.0277,-0.0074,0.00009654,0.00004411,0.00191173,-0.00297532,0.00301046,-0.00516050,-0.1938,0.1575,-9.8339,-0.001083,0.000725,0.001738,7.2653,13.5686,20.7823,-24.7475,0.0270,30,-2,-7,-0.090169,-0.322413,-0.026338,-0.106064,-0.384718,-0.003350,-1.0185,-1.0324,0.6050
335614,11.0,-0.055011,-0.191862,-0.026377,-0.100534,-0.349600,-0.002993,-0.9972,-1.0226,-0.0070,0.00011631,0.00003900,0.00191123,-0.00296222,0.00314344,-0.00515990,-0.1643,0.1618,-9.8247,-0.003048,0.001455,0.000458,7.9376,13.5974,21.5906,-24.7475,0.0270,30,-2,-7,-0.092342,-0.330327,-0.026386,-0.106869,-0.387357,-0.003369,-1.0357,-1.0269,0.4622
335625,11.0,-0.056103,-0.195678,-0.026386,-0.100362,-0.349301,-0.002957,-0.9937,-1.0243,-0.0069,0.00011077,0.00004161,0.00191139,-0.00298150,0.00311440,-0.00537043,-0.1796,0.1658,-9.8375,-0.001387,0.000630,0.002698,7.9376,13.5974,21.5906,-24.7475,0.0260,30,-2,-7,-0.093438,-0.334284,-0.026420,-0.107102,-0.388512,-0.003570,-1.0425,-1.0233,0.4623
335636,11.0,-0.057195,-0.199495,-0.026184,-0.100270,-0.348823,-0.000311,-0.9909,-1.0257,-0.0073,0.00010664,0.00004440,0.00191154,-0.00301868,0.00309920,-0.00721710,-0.1858,0.1879,-9.8236,-0.000517,0.001162,0.001981,7.9376,13.5974,21.5906,-24.7475,0.0260,30,-2,-7,-0.095558,-0.341937,-0.026167,-0.106958,-0.387284,-0.000612,-1.0321,-1.0242,0.4621
335647,11.0,-0.058286,-0.203311,-0.026142,-0.100253,-0.348572,0.000216,-0.9900,-1.0257,-0.0062,0.00010243,0.00004681,0.00191168,-0.00303859,0.00308254,-0.00758410,-0.1918,0.1702,-9.8166,-0.003183,0.002775,0.004073,7.9376,13.5974,21.5906,-24.8374,0.0260,30,-2,-7,-0.096617,-0.345762,-0.026114,-0.106930,-0.386675,-0.000088,-1.0276,-1.0242,0.4617
335659,12.0,-0.059399,-0.207199,-0.026140,-0.099152,-0.344689,0.000094,-0.9512,-1.0381,-0.0088,0.00004347,0.00006555,0.00191326,-0.00312369,0.00275961,-0.00758573,-0.1857,0.1790,-9.8244,-0.002152,0.000600,0.003737,7.9376,13.5974,21.5906,-24.8374,0.0260,30,-2,-7,-0.098736,-0.353412,-0.026115,-0.106866,-0.385748,-0.000118,-1.0199,-1.0245,0.4626
335670,11.0,-0.060525,-0.211136,-0.026578,-0.099650,-0.346532,-0.005122,-0.9726,-1.0322,-0.0051,0.00007363,0.00005833,0.00191250,-0.00302510,0.00285416,-0.00423562,-0.1847,0.1684,-9.8208,-0.002833,0.001894,0.005077,7.9376,13.5974,21.5906,-24.8374,0.0270,30,-2,-7,-0.099832,-0.357367,-0.026646,-0.107297,-0.386985,-0.005837,-1.0285,-1.0213,0.4643
335681,11.0,-0.061653,-0.215075,-0.026636,-0.100027,-0.348056,-0.005445,-0.9891,-1.0265,-0.0039,0.00010123,0.00005178,0.00191183,-0.00299083,0.00297021,-0.00423523,-0.1782,0.1804,-9.8404,0.000905,0.002545,0.001609,7.9376,13.5974,21.5906,-24.8374,0.0270,30,-2,-7,-0.100928,-0.361324,-0.026705,-0.107566,-0.388085,-0.006009,-1.0349,-1.0189,0.4643
335692,11.0,-0.062779,-0.219016,-0.026637,-0.100462,-0.349541,-0.004926,-1.0050,-1.0234,-0.0019,0.00012563,0.00004621,0.00191122,-0.00297371,0.00309152,-0.00470092,-0.1889,0.1679,-9.8300,-0.002196,-0.000276,0.003123,7.9376,13.5974,21.5906,-24.8374,0.0270,30,-2,-7,-0.103121,-0.369240,-0.026757,-0.108253,-0.389873,-0.005657,-1.0455,-1.0136,0.4653
335703,11.0,-0.063835,-0.222706,-0.025755,-0.099915,-0.347591,0.005816,-0.9879,-1.0283,-0.0042,0.00009113,0.00005772,0.00191214,-0.00313975,0.00305191,-0.01172387,-0.1873,0.1738,-9.8366,-0.003488,0.002752,0.001135,7.9376,13.5974,21.5906,-24.8374,0.0250,30,-2,-7,-0.104145,-0.372937,-0.025699,-0.107665,-0.387599,0.006137,-1.0300,-1.0183,0.4644
335715,12.0,-0.064912,-0.226471,-0.025638,-0.098486,-0.342445,0.006633,-0.9402,-1.0425,-0.0081,-0.00000113,0.00008557,0.00191457,-0.00326687,0.00265796,-0.01208425,-0.1887,0.1743,-9.7975,-0.002543,0.001137,0.003362,7.2605,13.5902,21.6113,-24.8374,0.0250,30,-2,-7,-0.105169,-0.376632,-0.025590,-0.107140,-0.385498,0.006518,-1.0162,-1.0209,0.4632
335726,11.0,-0.065962,-0.230149,-0.025567,-0.098351,-0.341241,0.006282,-0.9307,-1.0471,-0.0076,-0.00002106,0.00009472,0.00191515,-0.00326837,0.00255885,-0.01208554,-0.2097,0.1734,-9.8504,-0.001125,0.000243,0.004307,7.2605,13.5902,21.6113,-24.7634,0.0250,30,-2,-7,-0.107216,-0.384015,-0.025420,-0.106290,-0.381877,0.006793,-0.9934,-1.0240,0.4577
335737,11.0,-0.067090,-0.234082,-0.026309,-0.098923,-0.343540,-0.003533,-0.9526,-1.0373,-0.0077,0.00002141,0.00008416,0.00191406,-0.00311548,0.00262889,-0.00615592,-0.1836,0.1560,-9.8480,-0.001735,0.007299,-0.001598,7.2605,13.5902,21.6113,-24.7634,0.0270,30,-2,-7,-0.108310,-0.387967,-0.026338,-0.106905,-0.383474,-0.004320,-1.0035,-1.0214,0.4599
335748,11.0,-0.068216,-0.238019,-0.026349,-0.099408,-0.345460,-0.003637,-0.9745,-1.0318,-0.0086,0.00006010,0.00007508,0.00191309,-0.00307360,0.00277281,-0.00615511,-0.1817,0.1708,-9.8226,-0.005773,0.002041,-0.002420,7.2605,13.5902,21.6113,-24.7634,0.0270,30,-2,-7,-0.109408,-0.391919,-0.026383,-0.107202,-0.384981,-0.004621,-1.0120,-1.0148,0.4592
335759,11.0,-0.069271,-0.241701,-0.026358,-0.098770,-0.344115,-0.003395,-0.9621,-1.0343,-0.0072,0.00003066,0.00008443,0.00191385,-0.00311352,0.00266495,-0.00639340,-0.1645,0.1581,-9.8267,-0.001466,0.002838,0.006163,7.2605,13.5902,21.6113,-24.7634,0.0250,30,-2,-7,-0.111601,-0.399829,-0.026442,-0.107960,-0.387405,-0.004557,-1.0252,-1.0096,0.4597
335770,11.0,-0.070324,-0.245381,-0.025623,-0.098455,-0.342782,0.005453,-0.9519,-1.0369,-0.0092,0.00000462,0.00009358,0.00191454,-0.00323302,0.00265272,-0.01194893,-0.1909,0.1721,-9.8341,-0.001703,0.002296,0.000621,7.2605,13.5902,21.6113,-24.7634,0.0250,30,-2,-7,-0.112626,-0.403523,-0.025571,-0.107309,-0.385387,0.005450,-1.0114,-1.0115,0.4604
335781,11.0,-0.071376,-0.249061,-0.025538,-0.098040,-0.341310,0.005886,-0.9424,-1.0409,-0.0094,-0.00001821,0.00010148,0.00191515,-0.00326464,0.00257376,-0.01212715,-0.1772,0.2000,-9.8057,-0.000053,-0.000964,0.002998,7.2605,13.5902,21.6113,-24.7634,0.0250,30,-2,-7,-0.114673,-0.410906,-0.025463,-0.106307,-0.381652,0.005225,-0.9885,-1.0170,0.4563
335792,11.0,-0.072465,-0.252866,-0.025473,-0.098041,-0.341835,0.005951,-0.9485,-1.0391,-0.0102,-0.00000425,0.00009799,0.00191485,-0.00326619,0.00260639,-0.01212682,-0.1685,0.1731,-9.8134,-0.000757,0.000748,0.000340,7.2605,13.5902,21.6113,-24.7634,0.0260,30,-2,-7,-0.115733,-0.414726,-0.025709,-0.106285,-0.381464,0.001895,-0.9881,-1.0171,0.4562
335804,12.0,-0.073572,-0.256733,-0.025724,-0.097200,-0.338930,0.001970,-0.9246,-1.0442,-0.0113,-0.00006697,0.00011664,0.00191644,-0.00328768,0.00235508,-0.00987263,-0.1822,0.1689,-9.8373,-0.000540,0.003185,0.003749,7.2605,13.5902,21.6113,-24.7053,0.0260,30,-2,-7,-0.117851,-0.422366,-0.025662,-0.106409,-0.381477,0.002068,-0.9893,-1.0153,0.4542
335815,11.0,-0.074659,-0.260535,-0.025702,-0.097563,-0.339748,0.002006,-0.9326,-1.0416,-0.0103,-0.00004627,0.00011288,0.00191594,-0.00325216,0.00241128,-0.00987272,-0.1965,0.1685,-9.8133,-0.000518,0.001964,0.002168,7.9408,13.5830,22.5228,-24.7053,0.0260,30,-2,-7,-0.118911,-0.426185,-0.025642,-0.106402,-0.381535,0.001921,-0.9885,-1.0143,0.3339
335826,11.0,-0.075709,-0.264210,-0.025671,-0.097352,-0.338813,0.002107,-0.9290,-1.0442,-0.0113,-0.00006317,0.00011928,0.00191640,-0.00327397,0.00235808,-0.00994222,-0.1879,0.1800,-9.8180,-0.003973,-0.000216,0.001326,7.9408,13.5830,22.5228,-24.7053,0.0250,30,-2,-7,-0.119977,-0.430002,-0.025623,-0.106585,-0.381581,0.001929,-0.9874,-1.0133,0.3335
335837,11.0,-0.076760,-0.267883,-0.025286,-0.097029,-0.338146,0.006546,-0.9249,-1.0471,-0.0107,-0.00007830,0.00012456,0.00191682,-0.00334337,0.00234790,-0.01242472,-0.1741,0.1624,-9.7973,-0.001978,-0.001696,0.003935,7.9408,13.5830,22.5228,-24.7053,0.0250,30,-2,-7,-0.122037,-0.437373,-0.025145,-0.105919,-0.378672,0.006168,-0.9698,-1.0170,0.3321
335848,11.0,-0.077809,-0.271556,-0.025208,-0.097009,-0.337394,0.006454,-0.9207,-1.0484,-0.0105,-0.00009157,0.00013000,0.00191719,-0.00336099,0.00230804,-0.01247626,-0.2019,0.1787,-9.8353,-0.000445,0.001025,0.003131,7.9408,13.5830,22.5228,-24.7053,0.0250,30,-2,-7,-0.123066,-0.441056,-0.025073,-0.105593,-0.377454,0.006376,-0.9622,-1.0193,0.3321
335859,11.0,-0.078897,-0.275356,-0.025138,-0.097123,-0.338214,0.006386,-0.9306,-1.0449,-0.0097,-0.00006357,0.00012311,0.00191657,-0.00335350,0.00235596,-0.01247612,-0.1693,0.1853,-9.8255,-0.001234,0.002081,0.002458,7.9408,13.5830,22.5228,-24.7053,0.0260,30,-2,-7,-0.124095,-0.444738,-0.025010,-0.105465,-0.376243,0.006261,-0.9551,-1.0205,0.3323
335870,11.0,-0.079985,-0.279158,-0.025574,-0.097369,-0.338895,0.000333,-0.9391,-1.0425,-0.0094,-0.00003865,0.00011759,0.00191596,-0.00327483,0.00236920,-0.00904304,-0.1843,0.1906,-9.8285,-0.000968,0.001147,0.001226,7.9408,13.5830,22.5228,-24.6841,0.0260,30,-2,-7,-0.126227,-0.452364,-0.025592,-0.105658,-0.376945,-0.000799,-0.9610,-1.0163,0.3332
335881,11.0,-0.081071,-0.282960,-0.025570,-0.097725,-0.339676,0.000469,-0.9473,-1.0424,-0.0076,-0.00001539,0.00011438,0.00191541,-0.00324062,0.00242081,-0.00904326,-0.1990,0.1736,-9.8033,-0.001754,-0.001253,0.003386,7.9408,13.5830,22.5228,-24.6841,0.0260,30,-2,-7,-0.127293,-0.456177,-0.025600,-0.105824,-0.377283,-0.000850,-0.9629,-1.0149,0.3327
335893,12.0,-0.082142,-0.286704,-0.025563,-0.096649,-0.335412,0.000464,-0.9192,-1.0495,-0.0118,-0.00011693,0.00014575,0.00191814,-0.00332778,0.00213859,-0.00905632,-0.1936,0.1916,-9.8175,-0.002886,0.003364,0.001644,7.9408,13.5830,22.5228,-24.6841,0.0250,30,-2,-7,-0.129388,-0.463672,-0.025240,-0.105917,-0.376427,0.003298,-0.9585,-1.0153,0.3333
335904,11.0,-0.083192,-0.290373,-0.025245,-0.096472,-0.334879,0.004094,-0.9175,-1.0505,-0.0111,-0.00012142,0.00014994,0.00191837,-0.00337510,0.00212508,-0.01113135,-0.1814,0.1879,-9.8190,0.000629,0.000449,0.004033,7.9408,13.5830,22.5228,-24.6841,0.0250,30,-2,-7,-0.130416,-0.467354,-0.025208,-0.105657,-0.375276,0.003240,-0.9530,-1.0175,0.3329
335915,11.0,-0.084242,-0.294041,-0.025200,-0.096267,-0.334365,0.003864,-0.9161,-1.0506,-0.0101,-0.00012564,0.00015337,0.00191853,-0.00338431,0.00211405,-0.01113930,-0.1767,0.1920,-9.8400,0.000281,0.001426,0.003836,7.9424,13.9344,22.0981,-24.6841,0.0250,30,-2,-7,-0.131445,-0.471034,-0.025173,-0.105416,-0.374220,0.003288,-0.9473,-1.0194,0.3332
335926,11.0,-0.085292,-0.297708,-0.025158,-0.095960,-0.334064,0.003729,-0.9159,-1.0496,-0.0090,-0.00012754,0.00015465,0.00191867,-0.00341158,0.00208098,-0.01113932,-0.1630,0.1764,-9.8306,-0.000468,0.002188,0.004607,7.9424,13.9344,22.0981,-24.6841,0.0250,30,-2,-7,-0.133508,-0.478390,-0.025108,-0.104975,-0.372519,0.003133,-0.9380,-1.0200,0.2552
335937,11.0,-0.086378,-0.301505,-0.025598,-0.096306,-0.335271,-0.001981,-0.9273,-1.0470,-0.0068,-0.00008689,0.00014490,0.00191767,-0.00332958,0.00212671,-0.00801490,-0.1824,0.1820,-9.8258,-0.001072,0.000177,0.003581,7.9424,13.9344,22.0981,-24.6841,0.0260,30,-2,-7,-0.134578,-0.482196,-0.025671,-0.105118,-0.373417,-0.003286,-0.9430,-1.0172,0.2565
335948,11.0,-0.087464,-0.305303,-0.025621,-0.096653,-0.336279,-0.002179,-0.9373,-1.0449,-0.0059,-0.00004813,0.00013663,0.00191678,-0.00330021,0.00218636,-0.00801520,-0.1865,0.1901,-9.8325,-0.000064,0.000117,0.002158,7.9424,13.9344,22.0981,-24.7211,0.0260,30,-2,-7,-0.136718,-0.489814,-0.025722,-0.105580,-0.374700,-0.003239,-0.9507,-1.0142,0.2591
335959,11.0,-0.088551,-0.309101,-0.025630,-0.096825,-0.337461,-0.002175,-0.9450,-1.0411,-0.0028,-0.00001494,0.00012829,0.00191597,-0.00328193,0.00226880,-0.00811769,-0.1716,0.1611,-9.8319,0.001087,0.002761,0.005426,7.9424,13.9344,22.0981,-24.7211,0.0260,30,-2,-7,-0.137788,-0.493623,-0.025755,-0.105835,-0.375278,-0.003396,-0.9549,-1.0128,0.2592
335970,11.0,-0.089638,-0.312902,-0.025840,-0.097200,-0.338418,-0.004614,-0.9538,-1.0368,-0.0021,0.00001620,0.00012200,0.00191522,-0.00322567,0.00230761,-0.00693677,-0.1937,0.1729,-9.8397,-0.001901,0.004591,0.001775,7.9424,13.9344,22.0981,-24.7211,0.0260,30,-2,-7,-0.138859,-0.497432,-0.025903,-0.105998,-0.375991,-0.004763,-0.9572,-1.0105,0.2606
335981,11.0,-0.090724,-0.316703,-0.025880,-0.097532,-0.339307,-0.004584,-0.9605,-1.0357,-0.0005,0.00004347,0.00011646,0.00191457,-0.00321430,0.00237244,-0.00701502,-0.1940,0.1690,-9.8241,-0.000234,-0.000360,0.003207,7.9424,13.9344,22.0981,-24.7211,0.0260,30,-2,-7,-0.140999,-0.505054,-0.026001,-0.106624,-0.377065,-0.004958,-0.9627,-1.0069,0.2618
335992,11.0,-0.091811,-0.320508,-0.025930,-0.097820,-0.339935,-0.004500,-0.9707,-1.0357,-0.0004,0.00007054,0.00011290,0.00191396,-0.00318765,0.00240761,-0.00701540,-0.1933,0.1884,-9.8058,-0.006095,-0.001073,0.001122,7.9424,13.9344,22.0981,-24.7211,0.0260,30,-2,-7,-0.142069,-0.508866,-0.026010,-0.106882,-0.377496,-0.004579,-0.9647,-1.0075,0.2625
336003,11.0,-0.092898,-0.324311,-0.025977,-0.098136,-0.340568,-0.004648,-0.9765,-1.0343,0.0003,0.00009371,0.00010943,0.00191342,-0.00318027,0.00245963,-0.00703153,-0.1992,0.1806,-9.8297,-0.000749,0.001181,0.001963,7.9424,13.9344,22.0981,-24.7211,0.0260,30,-2,-7,-0.143139,-0.512679,-0.026055,-0.107124,-0.377792,-0.004522,-0.9691,-1.0079,0.2623
336014,11.0,-0.093985,-0.328116,-0.026031,-0.098282,-0.341279,-0.005110,-0.9828,-1.0340,0.0003,0.00011455,0.00010720,0.00191292,-0.00316352,0.00250596,-0.00703140,-0.1861,0.1672,-9.8559,-0.002659,-0.000159,0.000838,7.2605,13.5902,22.5020,-24.7211,0.0260,30,-2,-7,-0.145282,-0.520305,-0.026131,-0.107507,-0.378380,-0.004699,-0.9718,-1.0055,0.2688
336025,11.0,-0.095073,-0.331921,-0.026072,-0.098538,-0.341945,-0.004945,-0.9884,-1.0327,0.0004,0.00013300,0.00010520,0.00191250,-0.00316115,0.00254739,-0.00713114,-0.1977,0.1639,-9.8160,-0.002357,0.001466,0.001270,7.2605,13.5902,22.5020,-24.7211,0.0260,30,-2,-7,-0.146353,-0.524118,-0.026180,-0.107597,-0.378752,-0.005001,-0.9741,-1.0056,0.2682
336036,11.0,-0.096161,-0.335727,-0.026053,-0.098669,-0.342475,-0.004092,-0.9926,-1.0328,0.0019,0.00014944,0.00010465,0.00191212,-0.00315353,0.00258915,-0.00758571,-0.1884,0.1706,-9.8149,-0.001094,-0.000219,0.003285,7.2605,13.5902,22.5020,-24.7211,0.0260,30,-2,-7,-0.148496,-0.531745,-0.026101,-0.107825,-0.379405,-0.003323,-0.9770,-1.0059,0.2696
336047,11.0,-0.097250,-0.339533,-0.026088,-0.098636,-0.343101,-0.004319,-0.9972,-1.0308,0.0024,0.00016366,0.00010293,0.00191180,-0.00315144,0.00261992,-0.00766158,-0.1728,0.1564,-9.8488,-0.002442,0.002705,0.002191,7.2605,13.5902,22.5020,-24.7211,0.0260,30,-2,-7,-0.149567,-0.535560,-0.026118,-0.107824,-0.379578,-0.003199,-0.9788,-1.0065,0.2697
336058,11.0,-0.098339,-0.343340,-0.026135,-0.098765,-0.343528,-0.004332,-1.0002,-1.0291,0.0023,0.00017597,0.00010248,0.00191151,-0.00313508,0.00264738,-0.00766156,-0.1881,0.1691,-9.8156,-0.000593,0.002819,0.001059,7.2605,13.5902,22.5020,-24.7211,0.0260,30,-2,-7,-0.150639,-0.539374,-0.026151,-0.107793,-0.379827,-0.003417,-0.9796,-1.0056,0.2702
336069,11.0,-0.099428,-0.347149,-0.026070,-0.098884,-0.343823,-0.003207,-1.0054,-1.0275,0.0021,0.00018768,0.00010176,0.00191125,-0.00314673,0.00268315,-0.00835625,-0.1886,0.1797,-9.8341,-0.004452,0.002359,0.001258,7.2605,13.5902,22.5020,-24.7211,0.0260,30,-2,-7,-0.152783,-0.547004,-0.026077,-0.107842,-0.380076,-0.002095,-0.9822,-1.0033,0.2687
336080,11.0,-0.100516,-0.350957,-0.026106,-0.098909,-0.344160,-0.003417,-1.0080,-1.0276,0.0027,0.00019774,0.00010178,0.00191104,-0.00314020,0.00270349,-0.00835613,-0.1809,0.1719,-9.8344,-0.000846,-0.000022,0.002405,7.2605,13.5902,22.5020,-24.7211,0.0260,30,-2,-7,-0.153856,-0.550819,-0.026099,-0.107700,-0.380235,-0.002442,-0.9834,-1.0022,0.2675
336091,11.0,-0.101606,-0.354767,-0.026130,-0.098785,-0.344376,-0.003546,-1.0115,-1.0260,0.0035,0.00020719,0.00010068,0.00191083,-0.00313991,0.00272339,-0.00845255,-0.1653,0.1814,-9.8443,-0.002393,0.002385,0.002912,7.2605,13.5902,22.5020,-24.7211,0.0260,30,-2,-7,-0.154929,-0.554634,-0.026105,-0.107630,-0.380416,-0.002388,-0.9842,-1.0016,0.2672
336102,11.0,-0.102696,-0.358577,-0.026072,-0.098726,-0.344786,-0.002443,-1.0164,-1.0245,0.0040,0.00021424,0.00009892,0.00191063,-0.00315557,0.00276751,-0.00903043,-0.1700,0.1600,-9.8189,-0.005611,0.001908,0.002268,7.2605,13.5902,22.5020,-24.6630,0.0260,30,-2,-7,-0.157072,-0.562266,-0.026065,-0.107573,-0.380553,-0.001846,-0.9857,-1.0009,0.2678
336113,11.0,-0.103784,-0.362387,-0.026104,-0.098750,-0.344758,-0.002543,-1.0177,-1.0250,0.0045,0.00022193,0.00009807,0.00191047,-0.00315346,0.00278146,-0.00900193,-0.1785,0.1995,-9.8196,0.000316,-0.001027,0.002608,6.9243,14.2930,23.8800,-24.6630,0.0260,30,-2,-7,-0.158145,-0.566081,-0.026089,-0.107488,-0.380775,-0.001909,-0.9875,-1.0003,0.2674
336124,11.0,-0.104872,-0.366196,-0.026133,-0.098725,-0.345100,-0.002832,-1.0197,-1.0256,0.0038,0.00022751,0.00009698,0.00191031,-0.00315341,0.00280831,-0.00900150,-0.1743,0.1629,-9.8424,-0.001422,-0.001187,0.000313,6.9243,14.2930,23.8800,-24.6630,0.0260,30,-2,-7,-0.159216,-0.569897,-0.026109,-0.107525,-0.380764,-0.002031,-0.9882,-1.0008,0.3792
336135,11.0,-0.105961,-0.370006,-0.026074,-0.098683,-0.345209,-0.001856,-1.0199,-1.0246,0.0041,0.00023320,0.00009551,0.00191018,-0.00316046,0.00282793,-0.00953623,-0.1713,0.1822,-9.8244,0.001458,0.001275,0.002313,6.9243,14.2930,23.8800,-24.6630,0.0260,30,-2,-7,-0.161346,-0.577532,-0.026066,-0.107457,-0.381042,-0.001626,-0.9890,-1.0000,0.3778
336146,11.0,-0.107050,-0.373816,-0.026094,-0.098915,-0.345414,-0.001793,-1.0218,-1.0223,0.0034,0.00023815,0.00009624,0.00191003,-0.00313397,0.00284063,-0.00953652,-0.1980,0.1717,-9.8105,-0.001365,0.004116,0.000154,6.9243,14.2930,23.8800,-24.6630,0.0260,30,-2,-7,-0.162411,-0.581350,-0.026083,-0.107340,-0.381026,-0.001723,-0.9882,-0.9997,0.3776
336157,11.0,-0.108138,-0.377627,-0.026120,-0.099032,-0.345424,-0.001948,-1.0239,-1.0218,0.0045,0.00024337,0.00009640,0.00190993,-0.00313363,0.00284925,-0.00950048,-0.1893,0.1900,-9.8235,-0.001658,0.000899,0.003579,6.9243,14.2930,23.8800,-24.6630,0.0260,30,-2,-7,-0.164541,-0.588986,-0.026126,-0.107484,-0.381062,-0.001715,-0.9887,-0.9984,0.3790
336168,11.0,-0.109227,-0.381437,-0.026060,-0.099088,-0.345531,-0.001003,-1.0237,-1.0214,0.0048,0.00024801,0.00009744,0.00190985,-0.00313204,0.00286036,-0.00997280,-0.1843,0.1793,-9.8175,0.001860,0.001178,0.002301,6.9243,14.2930,23.8800,-24.7581,0.0260,30,-2,-7,-0.165606,-0.592804,-0.026025,-0.107483,-0.381072,-0.000545,-0.9890,-0.9984,0.3802
336179,11.0,-0.110442,-0.385006,-0.026049,-0.108244,-0.354088,-0.000885,-2.0054,-0.3851,-4.0875,0.00435739,-0.00284482,0.00258875,-0.04904519,-0.06469561,-0.01043870,-0.1914,0.1688,-9.8310,0.000537,-0.000801,0.001881,6.9243,14.2930,23.8800,-24.7581,0.0260,30,-2,-7,-0.166670,-0.596621,-0.026030,-0.107470,-0.381092,-0.000549,-0.9879,-0.9982,0.3807
336190,11.0,-0.111777,-0.388748,-0.026060,-0.110754,-0.353299,-0.001160,-1.9998,-0.3729,-4.0683,0.00429884,-0.00290610,0.00258538,-0.04895950,-0.06497647,-0.01044504,-0.1907,0.1815,-9.8421,-0.001034,-0.000123,0.005743,6.9243,14.2930,23.8800,-24.7581,0.0260,30,-2,-7,-0.168799,-0.604258,-0.025997,-0.107468,-0.381060,-0.000223,-0.9881,-0.9994,0.3822
336201,11.0,-0.113114,-0.392488,-0.026008,-0.112955,-0.352773,-0.000739,-1.9977,-0.3617,-4.0536,0.00424696,-0.00296213,0.00258236,-0.04897342,-0.06530869,-0.01083283,-0.1848,0.1652,-9.8510,-0.004219,-0.000518,0.001617,6.9243,14.2930,23.8800,-24.7581,0.0260,30,-2,-7,-0.169863,-0.608076,-0.026000,-0.107455,-0.381040,-0.000479,-0.9888,-1.0004,0.3836
336212,11.0,-0.114453,-0.396229,-0.026020,-0.114919,-0.352173,-0.001444,-1.9967,-0.3536,-4.0414,0.00419402,-0.00300531,0.00258003,-0.04894226,-0.06558923,-0.01083957,-0.1869,0.1793,-9.8817,-0.006343,-0.001605,0.001525,7.5999,13.9488,20.7206,-24.7581,0.0260,30,-2,-7,-0.170927,-0.611895,-0.025979,-0.107429,-0.381190,-0.000446,-0.9915,-1.0017,0.3834
336223,11.0,-0.115794,-0.399969,-0.026007,-0.116883,-0.351736,-0.001189,-1.9960,-0.3432,-4.0305,0.00414716,-0.00304471,0.00257797,-0.04900401,-0.06593360,-0.01101602,-0.2054,0.1664,-9.8269,-0.004520,0.002482,0.001959,7.5999,13.9488,20.7206,-24.7581,0.0260,30,-2,-7,-0.173056,-0.619532,-0.025996,-0.107582,-0.381306,-0.001240,-0.9949,-1.0025,0.3637
336234,11.0,-0.117136,-0.403708,-0.026000,-0.118562,-0.351255,-0.000923,-1.9935,-0.3373,-4.0198,0.00409820,-0.00307098,0.00257659,-0.04901421,-0.06623264,-0.01113389,-0.2004,0.1743,-9.8147,-0.002218,-0.000836,0.005261,7.5999,13.9488,20.7206,-24.7581,0.0260,30,-2,-7,-0.174122,-0.623350,-0.025978,-0.107709,-0.381399,-0.001010,-0.9964,-1.0026,0.3640
336245,11.0,-0.118479,-0.407446,-0.025975,-0.120059,-0.351077,-0.000810,-1.9925,-0.3312,-4.0107,0.00405436,-0.00309578,0.00257534,-0.04912267,-0.06659468,-0.01135768,-0.1978,0.1508,-9.8498,-0.002777,-0.000763,0.004084,7.5999,13.9488,20.7206,-24.8110,0.0260,30,-2,-7,-0.176252,-0.630986,-0.025947,-0.107870,-0.381623,-0.000626,-0.9982,-1.0049,0.3661
336256,11.0,-0.119825,-0.411184,-0.025984,-0.121101,-0.350728,-0.000978,-1.9897,-0.3284,-4.0053,0.00400558,-0.00311094,0.00257452,-0.04918404,-0.06688965,-0.01136628,-0.1706,0.1699,-9.8338,-0.001213,-0.003185,0.000025,7.5999,13.9488,20.7206,-24.8110,0.0260,30,-2,-7,-0.177317,-0.634804,-0.025954,-0.107923,-0.381792,-0.000845,-0.9992,-1.0065,0.3679
336267,11.0,-0.121173,-0.414923,-0.025961,-0.122024,-0.350608,-0.001010,-1.9924,-0.3235,-4.0002,0.00396361,-0.00312660,0.00257377,-0.04931636,-0.06725413,-0.01157534,-0.1675,0.1539,-9.8607,-0.007808,-0.000334,0.000924,7.5999,13.9488,20.7206,-24.8110,0.0260,30,-2,-7,-0.178382,-0.638623,-0.025981,-0.107795,-0.381839,-0.001094,-0.9997,-1.0088,0.3678
336278,11.0,-0.122521,-0.418662,-0.025972,-0.122969,-0.350293,-0.000948,-1.9930,-0.3205,-3.9982,0.00391660,-0.00313238,0.00257345,-0.04939068,-0.06756063,-0.01158520,-0.1818,0.1712,-9.8129,-0.005627,-0.000511,-0.002179,7.5999,13.9488,20.7206,-24.8110,0.0260,30,-2,-7,-0.180513,-0.646260,-0.025963,-0.107496,-0.382044,-0.001010,-1.0019,-1.0119,0.3679
336289,11.0,-0.123853,-0.422609,-0.025936,-0.117476,-0.339276,-0.000391,-0.8112,-0.8128,-2.4577,-0.00253813,0.00064416,0.00167929,-0.01799152,0.01385170,-0.01097744,-0.1878,0.1788,-9.8125,-0.008027,-0.002958,0.000273,7.5999,13.9488,20.7206,-24.8110,0.0260,30,-2,-7,-0.181578,-0.650080,-0.025910,-0.107379,-0.381981,-0.000358,-1.0049,-1.0138,0.3663
336300,11.0,-0.125108,-0.426368,-0.025970,-0.117239,-0.339314,-0.000721,-0.8145,-0.8180,-2.4618,-0.00252508,0.00066646,0.00168062,-0.01796328,0.01386404,-0.01081778,-0.1776,0.1789,-9.8168,-0.004741,-0.002282,0.003461,7.5999,13.9488,20.7206,-24.8110,0.0260,30,-2,-7,-0.183708,-0.657720,-0.025968,-0.107299,-0.381816,-0.000760,-1.0098,-1.0182,0.3657
336312,12.0,-0.126386,-0.430186,-0.025941,-0.116251,-0.336502,-0.000261,-0.8139,-0.8191,-2.4608,-0.00259180,0.00069549,0.00168234,-0.01851195,0.01274298,-0.01105532,-0.1948,0.1567,-9.8185,-0.007745,0.001443,0.002443,6.9227,14.3002,22.0774,-24.8110,0.0260,30,-2,-7,-0.184772,-0.661540,-0.025926,-0.107257,-0.381784,-0.000087,-1.0128,-1.0206,0.3655
336323,11.0,-0.127638,-0.433943,-0.025943,-0.116425,-0.336801,-0.000175,-0.8174,-0.8244,-2.4663,-0.00257031,0.00071810,0.00168365,-0.01841820,0.01287052,-0.01105411,-0.2080,0.1808,-9.8101,-0.004203,-0.001816,0.002514,6.9227,14.3002,22.0774,-24.8110,0.0260,30,-2,-7,-0.185837,-0.665359,-0.025927,-0.107339,-0.381898,-0.000060,-1.0156,-1.0206,0.4653
336334,11.0,-0.128890,-0.437701,-0.025944,-0.116622,-0.336911,-0.000271,-0.8196,-0.8279,-2.4691,-0.00255125,0.00073684,0.00168463,-0.01839558,0.01302324,-0.01106163,-0.2125,0.1965,-9.8284,-0.002907,-0.000417,0.004373,6.9227,14.3002,22.0774,-24.8110,0.0260,30,-2,-7,-0.187954,-0.673001,-0.025933,-0.107601,-0.381684,0.000088,-1.0184,-1.0239,0.4652
336345,11.0,-0.130145,-0.441457,-0.025948,-0.116560,-0.337171,-0.000465,-0.8221,-0.8306,-2.4748,-0.00253077,0.00075817,0.00168583,-0.01832015,0.01313588,-0.01106085,-0.1879,0.1819,-9.8359,-0.002803,0.001914,0.001300,6.9227,14.3002,22.0774,-24.8110,0.0260,30,-2,-7,-0.189012,-0.676822,-0.025933,-0.107706,-0.381616,0.000054,-1.0199,-1.0259,0.4664
336356,11.0,-0.131398,-0.445214,-0.025902,-0.116594,-0.337488,0.000378,-0.8235,-0.8361,-2.4778,-0.00251326,0.00077622,0.00168675,-0.01830970,0.01327010,-0.01132503,-0.1969,0.1721,-9.7953,-0.001726,-0.003850,0.003554,6.9227,14.3002,22.0774,-24.8110,0.0260,30,-2,-7,-0.190071,-0.680643,-0.025870,-0.107614,-0.381579,0.000746,-1.0215,-1.0274,0.4658
336367,11.0,-0.132654,-0.448970,-0.025952,-0.116465,-0.337854,-0.000614,-0.8254,-0.8397,-2.4840,-0.00249549,0.00079608,0.00168782,-0.01824834,0.01335494,-0.01105434,-0.1810,0.1658,-9.8542,-0.002480,-0.000035,-0.000577,6.9227,14.3002,22.0774,-24.8110,0.0260,30,-2,-7,-0.192189,-0.688283,-0.025900,-0.107590,-0.381636,0.000485,-1.0223,-1.0310,0.4650
336378,11.0,-0.133908,-0.452727,-0.025922,-0.116490,-0.338002,-0.000334,-0.8269,-0.8429,-2.4874,-0.00247963,0.00081253,0.00168863,-0.01824066,0.01346950,-0.01125500,-0.1956,0.1830,-9.8337,-0.002278,-0.000494,0.002012,6.9227,14.3002,22.0774,-24.8110,0.0260,30,-2,-7,-0.193249,-0.692102,-0.025897,-0.107431,-0.381794,0.000205,-1.0226,-1.0327,0.4645
336389,11.0,-0.135165,-0.456486,-0.025920,-0.116349,-0.337649,0.000687,-0.8278,-0.8451,-2.4924,-0.00245942,0.00083146,0.00168966,-0.01817243,0.01355540,-0.01125502,-0.1797,0.2317,-9.7250,-0.000414,0.001906,0.001318,6.9227,14.3002,22.0774,-24.7000,0.0260,30,-2,-7,-0.194309,-0.695922,-0.025896,-0.107370,-0.381878,0.000024,-1.0229,-1.0331,0.4644
336400,11.0,-0.136454,-0.460246,-0.025956,-0.116383,-0.336696,-0.001033,-0.7207,-0.8613,-2.9466,-0.00361725,0.00037289,0.00254808,-0.01498229,0.01958216,-0.01101771,-0.1749,0.1719,-9.9368,-0.004891,0.000065,0.004478,6.9227,14.3002,22.0774,-24.7000,0.0260,30,-2,-7,-0.196430,-0.703566,-0.025956,-0.106974,-0.381147,-0.001374,-1.0247,-1.0314,0.4637
336411,11.0,-0.137737,-0.463994,-0.025966,-0.116434,-0.336522,-0.000775,-0.7221,-0.8629,-2.9494,-0.00359914,0.00037973,0.00254856,-0.01486283,0.01973731,-0.01101692,-0.1687,0.2069,-9.7948,-0.003347,0.000147,0.002440,7.9392,13.5902,21.6113,-24.7000,0.0260,30,-2,-7,-0.197490,-0.707386,-0.025965,-0.106789,-0.381053,-0.001906,-1.0263,-1.0306,0.4640
336422,11.0,-0.139020,-0.467739,-0.025968,-0.116711,-0.337105,-0.000832,-0.7226,-0.8608,-2.9495,-0.00358573,0.00038358,0.00254877,-0.01480317,0.01989927,-0.01105549,-0.1871,0.1309,-9.8324,-0.002902,0.005076,0.004800,7.9392,13.5902,21.6113,-24.7000,0.0260,30,-2,-7,-0.199615,-0.715024,-0.026001,-0.106562,-0.381146,-0.002570,-1.0278,-1.0309,0.3705
336433,11.0,-0.140303,-0.471486,-0.025987,-0.117124,-0.337141,-0.000947,-0.7234,-0.8620,-2.9539,-0.00356917,0.00039426,0.00254946,-0.01468555,0.02001230,-0.01100531,-0.2074,0.1797,-9.8180,-0.002489,0.001715,0.000769,7.9392,13.5902,21.6113,-24.7000,0.0260,30,-2,-7,-0.200680,-0.718840,-0.026021,-0.106558,-0.381709,-0.002533,-1.0284,-1.0283,0.3719
336444,11.0,-0.141584,-0.475233,-0.025993,-0.117978,-0.337321,-0.001189,-0.7240,-0.8622,-2.9573,-0.00355525,0.00040418,0.00255000,-0.01465289,0.02014052,-0.01103494,-0.2553,0.1625,-9.8459,-0.002739,0.002497,0.000945,7.9392,13.5902,21.6113,-24.7000,0.0260,30,-2,-7,-0.202805,-0.726477,-0.026063,-0.107369,-0.381634,-0.002608,-1.0294,-1.0315,0.3700
336455,11.0,-0.142910,-0.479108,-0.026006,-0.119134,-0.338630,-0.001208,-0.7243,-0.8666,-2.9646,-0.00349721,0.00041636,0.00255068,-0.01430784,0.02076661,-0.01103066,-0.2507,0.1866,-9.8189,0.002416,-0.001193,0.000795,7.9392,13.5902,21.6113,-24.7000,0.0270,30,-2,-7,-0.203868,-0.730295,-0.026090,-0.107920,-0.381881,-0.002784,-1.0299,-1.0324,0.3702
336466,11.0,-0.144239,-0.482987,-0.026527,-0.119855,-0.339882,-0.006969,-0.7290,-0.8693,-2.9712,-0.00344417,0.00042576,0.00255107,-0.01403085,0.02133374,-0.00847453,-0.2169,0.1823,-9.8015,-0.005570,0.000257,-0.000289,7.9392,13.5902,21.6113,-24.7898,0.0270,30,-2,-7,-0.204968,-0.734244,-0.026684,-0.108769,-0.383383,-0.008777,-1.0368,-1.0314,0.3705
336477,11.0,-0.145572,-0.486865,-0.026604,-0.120144,-0.341025,-0.007047,-0.7320,-0.8713,-2.9773,-0.00339262,0.00043684,0.00255166,-0.01376709,0.02185659,-0.00847112,-0.1805,0.1827,-9.8229,-0.002497,0.001971,0.001374,7.9392,13.5902,21.6113,-24.7898,0.0270,30,-2,-7,-0.207173,-0.742148,-0.026820,-0.109668,-0.386326,-0.008568,-1.0518,-1.0298,0.3723
336488,11.0,-0.146907,-0.490746,-0.026643,-0.120100,-0.341975,-0.006952,-0.7340,-0.8736,-2.9826,-0.00334690,0.00044321,0.00255191,-0.01357094,0.02237238,-0.00867761,-0.1501,0.1922,-9.8525,-0.002040,0.000024,0.000195,7.9392,13.5902,21.6113,-24.7898,0.0270,30,-2,-7,-0.208277,-0.746103,-0.026928,-0.109795,-0.387454,-0.008890,-1.0575,-1.0287,0.3731
336499,11.0,-0.148242,-0.494626,-0.026870,-0.120084,-0.342802,-0.008859,-0.7345,-0.8752,-2.9878,-0.00330075,0.00045014,0.00255228,-0.01333947,0.02280968,-0.00793481,-0.1519,0.1944,-9.8307,0.000726,0.001316,0.000978,7.9392,13.5902,21.6113,-24.7898,0.0270,30,-2,-7,-0.209382,-0.750059,-0.027019,-0.109665,-0.388384,-0.009166,-1.0631,-1.0283,0.3728
336510,11.0,-0.149560,-0.498566,-0.026935,-0.116215,-0.339426,-0.008338,-0.2865,-1.1474,-2.3895,-0.00733315,0.00467728,0.00069784,-0.00484629,0.04969909,-0.00776434,-0.1491,0.1769,-9.8039,-0.000390,0.001417,0.000929,7.9408,14.3002,21.1866,-24.7898,0.0270,30,-2,-7,-0.211593,-0.757973,-0.027157,-0.109550,-0.390062,-0.009012,-1.0724,-1.0251,0.3719
336521,11.0,-0.150854,-0.502457,-0.027026,-0.116064,-0.340342,-0.008163,-0.2857,-1.1516,-2.3942,-0.00727569,0.00468773,0.00069884,-0.00455686,0.05031632,-0.00776113,-0.1760,0.1762,-9.7998,-0.000185,0.002743,0.002033,7.9408,14.3002,21.1866,-24.7898,0.0270,30,-2,-7,-0.212698,-0.761932,-0.027246,-0.109413,-0.390811,-0.008940,-1.0754,-1.0241,0.3348
336532,11.0,-0.152147,-0.506348,-0.027025,-0.116086,-0.341134,-0.007240,-0.2835,-1.1558,-2.3960,-0.00722490,0.00469545,0.00069950,-0.00432362,0.05093613,-0.00820160,-0.1926,0.1779,-9.8282,0.000899,0.001729,0.004584,7.9408,14.3002,21.1866,-24.7898,0.0270,30,-2,-7,-0.214912,-0.769849,-0.027149,-0.109681,-0.392101,-0.006076,-1.0796,-1.0207,0.3350
336543,11.0,-0.153440,-0.510242,-0.027105,-0.116317,-0.341698,-0.007312,-0.2838,-1.1597,-2.4006,-0.00717036,0.00470674,0.00070052,-0.00403488,0.05148451,-0.00820052,-0.2149,0.1933,-9.8219,-0.002230,0.003397,0.002011,7.9408,14.3002,21.1866,-24.7370,0.0270,30,-2,-7,-0.216018,-0.773808,-0.027210,-0.109957,-0.392622,-0.006219,-1.0818,-1.0187,0.3364
336555,12.0,-0.154752,-0.514184,-0.027172,-0.115544,-0.339129,-0.007201,-0.2759,-1.1633,-2.3975,-0.00721886,0.00473178,0.00070202,-0.00438437,0.05076156,-0.00831414,-0.2183,0.1770,-9.8284,0.001781,0.000966,0.005670,7.9408,14.3002,21.1866,-24.7370,0.0270,30,-2,-7,-0.218230,-0.781730,-0.027148,-0.110818,-0.393451,-0.004414,-1.0863,-1.0158,0.3384
336566,11.0,-0.156043,-0.518076,-0.027110,-0.115789,-0.339892,-0.005673,-0.2743,-1.1708,-2.4021,-0.00715601,0.00474210,0.00070297,-0.00407679,0.05139869,-0.00899273,-0.2135,0.1937,-9.8265,0.001546,-0.002215,0.002369,7.9408,14.3002,21.1866,-24.7370,0.0270,30,-2,-7,-0.219336,-0.785691,-0.027171,-0.111234,-0.393882,-0.004251,-1.0867,-1.0158,0.3395
336577,11.0,-0.157335,-0.521969,-0.027157,-0.115893,-0.340629,-0.005736,-0.2737,-1.1769,-2.4048,-0.00709953,0.00474860,0.00070349,-0.00382802,0.05203795,-0.00907421,-0.2017,0.1889,-9.8406,-0.001193,-0.001280,0.003231,7.9408,14.3002,21.1866,-24.7370,0.0270,30,-2,-7,-0.220443,-0.789652,-0.027215,-0.111506,-0.394161,-0.004371,-1.0873,-1.0172,0.3397
336588,11.0,-0.158673,-0.525993,-0.027220,-0.116458,-0.342767,-0.005718,-0.2768,-1.1813,-2.4101,-0.00699523,0.00474821,0.00070379,-0.00329352,0.05317129,-0.00907334,-0.2022,0.1821,-9.8148,-0.002886,0.002721,0.002667,7.9408,14.3002,21.1866,-24.7370,0.0280,30,-2,-7,-0.221549,-0.793615,-0.027259,-0.111718,-0.394479,-0.004558,-1.0888,-1.0193,0.3413
336599,11.0,-0.160010,-0.530018,-0.027659,-0.116876,-0.344668,-0.010063,-0.2772,-1.1868,-2.4154,-0.00690111,0.00474553,0.00070377,-0.00281207,0.05423113,-0.00729495,-0.1935,0.1834,-9.8140,0.000080,-0.000226,0.000509,7.2653,13.9272,21.2279,-24.7370,0.0280,30,-2,-7,-0.223839,-0.801806,-0.027815,-0.112687,-0.397739,-0.008824,-1.1086,-1.0140,0.3441
336610,11.0,-0.161350,-0.534045,-0.027772,-0.117130,-0.346262,-0.010467,-0.2783,-1.1907,-2.4207,-0.00680807,0.00474245,0.00070389,-0.00235619,0.05519890,-0.00729524,-0.1819,0.1963,-9.8517,-0.000647,0.002556,0.000821,7.2653,13.9272,21.2279,-24.7370,0.0280,30,-2,-7,-0.224984,-0.805903,-0.027880,-0.113064,-0.399185,-0.008500,-1.1154,-1.0127,0.3440
336621,11.0,-0.162650,-0.537951,-0.027864,-0.116132,-0.345428,-0.010146,-0.1945,-1.2407,-2.3996,-0.00780217,0.00541656,0.00058834,-0.00059377,0.05921979,-0.00736639,-0.1651,0.1915,-9.8111,-0.003039,0.002130,0.000177,7.2653,13.9272,21.2279,-24.7370,0.0270,30,-2,-7,-0.227240,-0.813972,-0.027408,-0.112879,-0.400031,-0.002008,-1.1209,-1.0116,0.3683
336633,12.0,-0.163961,-0.541902,-0.027439,-0.115006,-0.342455,-0.004039,-0.1898,-1.2453,-2.3971,-0.00786080,0.00543712,0.00058951,-0.00100131,0.05834531,-0.00991407,-0.1944,0.1727,-9.8359,-0.003788,-0.000718,0.003572,7.2653,13.9272,21.2279,-24.7370,0.0270,30,-2,-7,-0.228349,-0.817941,-0.027410,-0.112540,-0.399713,-0.001697,-1.1196,-1.0115,0.3678
336644,11.0,-0.165254,-0.545798,-0.027467,-0.114970,-0.342928,-0.003932,-0.1880,-1.2486,-2.3987,-0.00781467,0.00543633,0.00058992,-0.00076567,0.05891188,-0.00999554,-0.1870,0.1812,-9.8266,-0.001464,0.002259,0.002149,7.2653,13.9272,21.2279,-24.7370,0.0270,30,-2,-7,-0.229456,-0.821909,-0.027427,-0.112366,-0.399610,-0.001707,-1.1193,-1.0125,0.3687
336655,11.0,-0.166633,-0.549957,-0.027511,-0.116057,-0.345985,-0.003980,-0.1910,-1.2538,-2.4032,-0.00767492,0.00542278,0.00059038,0.00001805,0.06056602,-0.00999846,-0.2097,0.1983,-9.8216,-0.001782,0.002068,0.004377,7.2653,13.9272,21.2279,-24.7370,0.0290,30,-2,-7,-0.231745,-0.830108,-0.028363,-0.112899,-0.402367,-0.011511,-1.1328,-1.0072,0.3685
336666,11.0,-0.168013,-0.554118,-0.028329,-0.117065,-0.348765,-0.012885,-0.1919,-1.2599,-2.4063,-0.00754625,0.00540846,0.00059047,0.00076202,0.06209600,-0.00644414,-0.2130,0.1939,-9.8091,0.000321,-0.000572,0.004382,7.2653,13.9272,21.2279,-24.7370,0.0290,30,-2,-7,-0.232926,-0.834343,-0.028478,-0.113761,-0.404945,-0.011488,-1.1469,-1.0034,0.3707
336678,12.0,-0.169406,-0.558315,-0.028486,-0.116885,-0.347777,-0.013280,-0.1873,-1.2643,-2.4084,-0.00753333,0.00541852,0.00059154,0.00082535,0.06211404,-0.00644575,-0.2160,0.1954,-9.8466,0.000911,0.001305,0.001169,7.2653,13.9272,21.2279,-24.7370,0.0290,30,-2,-7,-0.235288,-0.842818,-0.028680,-0.115472,-0.409297,-0.011140,-1.1682,-0.9977,0.3746
336689,11.0,-0.170745,-0.562350,-0.028596,-0.117287,-0.348998,-0.012828,-0.1889,-1.2679,-2.4112,-0.00745628,0.00541281,0.00059179,0.00120311,0.06301730,-0.00661093,-0.2058,0.1941,-9.8106,-0.004273,0.002268,0.001852,7.2653,13.9272,21.2279,-24.7687,0.0280,30,-2,-7,-0.236433,-0.846928,-0.028292,-0.115787,-0.409580,-0.005907,-1.1686,-0.9972,0.3743
336700,11.0,-0.172084,-0.566384,-0.028327,-0.117498,-0.350254,-0.008161,-0.1890,-1.2740,-2.4149,-0.00738022,0.00540806,0.00059228,0.00155004,0.06383050,-0.00847231,-0.1915,0.1783,-9.8231,-0.001438,-0.001382,0.000975,6.9211,13.9488,22.5020,-24.7687,0.0280,30,-2,-7,-0.238725,-0.855149,-0.028411,-0.116243,-0.410287,-0.005959,-1.1721,-0.9989,0.3752
336711,11.0,-0.173424,-0.570420,-0.028389,-0.117590,-0.351277,-0.007598,-0.1897,-1.2791,-2.4187,-0.00731117,0.00540108,0.00059236,0.00188410,0.06462181,-0.00859698,-0.1813,0.1890,-9.7940,-0.003284,-0.000655,-0.000824,6.9211,13.9488,22.5020,-24.7687,0.0280,30,-2,-7,-0.239871,-0.859260,-0.028426,-0.116295,-0.410518,-0.005380,-1.1722,-1.0007,0.3759
336722,11.0,-0.174809,-0.574586,-0.028474,-0.118193,-0.353685,-0.007785,-0.1923,-1.2820,-2.4236,-0.00719212,0.00538392,0.00059229,0.00248287,0.06589845,-0.00860153,-0.1874,0.1806,-9.8334,-0.002309,0.003531,0.000425,6.9211,13.9488,22.5020,-24.7687,0.0290,30,-2,-7,-0.241019,-0.863371,-0.028479,-0.116216,-0.410745,-0.005196,-1.1738,-1.0017,0.4409
336733,11.0,-0.176199,-0.578740,-0.028778,-0.121528,-0.358749,-0.010506,-0.4447,-1.0958,-2.5913,-0.00369190,0.00213435,0.00187004,-0.00011357,0.05819032,-0.00773627,-0.1880,0.1786,-9.8334,-0.002524,0.003098,-0.000337,6.9211,13.9488,22.5020,-24.7687,0.0290,30,-2,-7,-0.243379,-0.871861,-0.028887,-0.116720,-0.414134,-0.008298,-1.1914,-0.9975,0.4430
336745,12.0,-0.177572,-0.582833,-0.028905,-0.120647,-0.355894,-0.010813,-0.4421,-1.0988,-2.5904,-0.00375742,0.00215734,0.00187109,-0.00049044,0.05723137,-0.00773523,-0.1931,0.1870,-9.8408,-0.003278,-0.001538,0.002472,6.9211,13.9488,22.5020,-24.7687,0.0280,30,-2,-7,-0.244560,-0.876108,-0.028970,-0.116974,-0.415657,-0.008363,-1.1984,-0.9951,0.4433
336756,11.0,-0.178927,-0.586869,-0.028990,-0.120829,-0.356707,-0.010553,-0.4419,-1.0999,-2.5926,-0.00371405,0.00215597,0.00187189,-0.00027562,0.05774889,-0.00789621,-0.1813,0.1811,-9.8298,-0.000036,0.002247,0.001843,6.9211,13.9488,22.5020,-24.7687,0.0280,30,-2,-7,-0.246848,-0.884343,-0.028460,-0.116484,-0.415449,-0.001820,-1.1947,-0.9962,0.4425
336767,11.0,-0.180282,-0.590907,-0.028494,-0.121096,-0.357446,-0.003696,-0.4434,-1.1015,-2.5962,-0.00367151,0.00215766,0.00187311,-0.00009252,0.05820786,-0.01060338,-0.1921,0.1805,-9.8387,-0.002402,0.002146,0.000839,6.9211,13.9488,22.5020,-24.8268,0.0280,30,-2,-7,-0.247992,-0.888460,-0.028426,-0.116333,-0.415283,-0.001330,-1.1922,-0.9965,0.4429
336778,11.0,-0.181637,-0.594945,-0.028493,-0.121279,-0.358258,-0.003535,-0.4451,-1.1033,-2.5966,-0.00363305,0.00215685,0.00187386,0.00008936,0.05865134,-0.01079950,-0.1859,0.1660,-9.8506,-0.003498,0.000987,0.004399,6.9211,13.9488,22.5020,-24.8268,0.0280,30,-2,-7,-0.249135,-0.892577,-0.028440,-0.116335,-0.415157,-0.001521,-1.1904,-0.9970,0.4426
336789,11.0,-0.183036,-0.599114,-0.028532,-0.122045,-0.360284,-0.003561,-0.4482,-1.1054,-2.5987,-0.00354633,0.00215037,0.00187518,0.00055710,0.05959206,-0.01080226,-0.2004,0.1757,-9.8205,-0.001680,0.002128,0.005450,6.9211,13.9488,22.5020,-24.8268,0.0290,30,-2,-7,-0.250277,-0.896693,-0.028456,-0.116344,-0.415065,-0.001673,-1.1886,-0.9976,0.4431
336800,11.0,-0.184435,-0.603286,-0.028770,-0.122851,-0.361982,-0.005808,-0.4511,-1.1070,-2.6022,-0.00346853,0.00214328,0.00187612,0.00095481,0.06047109,-0.00993972,-0.2123,0.1877,-9.8130,-0.002389,0.001968,0.001514,7.2605,14.3074,23.3926,-24.8268,0.0290,30,-2,-7,-0.252635,-0.905191,-0.028811,-0.117128,-0.417757,-0.004764,-1.2008,-0.9959,0.4459
336811,11.0,-0.185835,-0.607458,-0.028833,-0.123546,-0.363558,-0.005758,-0.4526,-1.1108,-2.6076,-0.00339324,0.00214133,0.00187762,0.00134718,0.06123730,-0.00994204,-0.2101,0.1826,-9.8124,0.000232,-0.000342,0.000058,7.2605,14.3074,23.3926,-24.8268,0.0290,30,-2,-7,-0.253815,-0.909443,-0.028799,-0.117556,-0.418830,-0.004101,-1.2059,-0.9950,0.4462
336822,11.0,-0.187238,-0.611633,-0.028841,-0.123934,-0.364785,-0.005124,-0.4537,-1.1121,-2.6122,-0.00332672,0.00213633,0.00187852,0.00165515,0.06197565,-0.01019113,-0.1858,0.2026,-9.8203,-0.000145,0.002116,-0.000929,7.2605,14.3074,23.3926,-24.8268,0.0290,30,-2,-7,-0.256173,-0.917949,-0.028946,-0.118176,-0.420847,-0.004774,-1.2135,-0.9937,0.4873
336833,11.0,-0.188641,-0.615809,-0.028951,-0.124200,-0.366089,-0.006067,-0.4578,-1.1145,-2.6159,-0.00325967,0.00213246,0.00187968,0.00198461,0.06263452,-0.00997069,-0.1773,0.1848,-9.8492,-0.004415,0.001025,0.001307,7.2605,14.3074,23.3926,-24.8268,0.0290,30,-2,-7,-0.257351,-0.922204,-0.028949,-0.118298,-0.421524,-0.004269,-1.2166,-0.9931,0.4858
336845,12.0,-0.190062,-0.620029,-0.029015,-0.125635,-0.367339,-0.006380,-0.7067,-0.9655,-2.6668,0.00051466,-0.00033479,0.00236391,-0.00061260,0.05620956,-0.01007082,-0.1819,0.1598,-9.8544,-0.001901,0.000493,-0.000447,7.2605,14.3074,23.3926,-24.7158,0.0290,30,-2,-7,-0.259710,-0.930716,-0.029019,-0.118358,-0.423005,-0.004427,-1.2219,-0.9917,0.4879
336856,11.0,-0.191515,-0.624336,-0.029086,-0.126506,-0.370384,-0.006453,-0.7128,-0.9657,-2.6714,0.00060751,-0.00034048,0.00236682,-0.00010685,0.05729412,-0.01007161,-0.1785,0.1583,-9.8246,-0.002019,0.003024,0.002480,7.2605,14.3074,23.3926,-24.7158,0.0300,30,-2,-7,-0.260925,-0.935105,-0.029617,-0.118724,-0.425247,-0.010664,-1.2316,-0.9894,0.4879
336868,12.0,-0.192985,-0.628690,-0.029617,-0.126004,-0.369232,-0.011942,-0.7134,-0.9652,-2.6720,0.00057938,-0.00032619,0.00236768,-0.00026076,0.05687571,-0.00816212,-0.1674,0.1963,-9.8405,-0.001819,0.001165,0.001539,7.2605,14.3074,23.3926,-24.7158,0.0300,30,-2,-7,-0.262142,-0.939496,-0.029724,-0.119114,-0.427338,-0.010744,-1.2417,-0.9857,0.4887
336879,11.0,-0.194394,-0.632868,-0.029750,-0.126445,-0.370555,-0.012167,-0.7155,-0.9660,-2.6743,0.00062298,-0.00032281,0.00236992,-0.00002699,0.05731848,-0.00816268,-0.1865,0.1716,-9.8362,0.001122,0.001178,0.003567,7.2605,14.3074,23.3926,-24.7158,0.0290,30,-2,-7,-0.264575,-0.948283,-0.029925,-0.119640,-0.430831,-0.010839,-1.2568,-0.9807,0.4898
336890,11.0,-0.195803,-0.637048,-0.029869,-0.126782,-0.371512,-0.012079,-0.7173,-0.9670,-2.6762,0.00066073,-0.00032122,0.00237162,0.00014342,0.05773433,-0.00822766,-0.1810,0.1947,-9.8240,0.000759,0.000169,0.002777,7.2605,14.3074,23.3926,-24.7158,0.0290,30,-2,-7,-0.265755,-0.952548,-0.029401,-0.119583,-0.430828,-0.004033,-1.2532,-0.9807,0.4902
336901,11.0,-0.197212,-0.641229,-0.029449,-0.127284,-0.372536,-0.005830,-0.7200,-0.9683,-2.6783,0.00069614,-0.00031500,0.00237393,0.00029515,0.05808759,-0.01054331,-0.2010,0.1778,-9.8291,-0.000179,0.000576,0.003895,7.2621,14.3002,22.0774,-24.8057,0.0290,30,-2,-7,-0.268114,-0.961078,-0.029484,-0.119616,-0.430490,-0.004266,-1.2466,-0.9818,0.4915
336912,11.0,-0.198665,-0.645540,-0.029478,-0.128366,-0.374916,-0.005633,-0.7232,-0.9699,-2.6809,0.00077317,-0.00031897,0.00237638,0.00065672,0.05894746,-0.01070131,-0.2178,0.1704,-9.8401,0.001573,-0.000057,0.003819,7.2621,14.3002,22.0774,-24.8057,0.0300,30,-2,-7,-0.269293,-0.965343,-0.029465,-0.119725,-0.430376,-0.003659,-1.2446,-0.9830,0.4921
336923,11.0,-0.200120,-0.649856,-0.029541,-0.129239,-0.376936,-0.005916,-0.7296,-0.9721,-2.6855,0.00084622,-0.00031708,0.00237952,0.00103165,0.05968386,-0.01070071,-0.2089,0.1847,-9.8434,-0.003086,0.000151,0.002131,7.2621,14.3002,22.0774,-24.8057,0.0300,30,-2,-7,-0.270507,-0.969739,-0.029792,-0.120355,-0.431828,-0.007053,-1.2491,-0.9823,0.5326
336934,11.0,-0.201576,-0.654173,-0.029790,-0.129844,-0.378947,-0.008235,-0.7358,-0.9740,-2.6893,0.00090931,-0.00031768,0.00238187,0.00132554,0.06034672,-0.00994274,-0.1891,0.1662,-9.8370,-0.004116,-0.000726,0.001163,7.2621,14.3002,22.0774,-24.8057,0.0300,30,-2,-7,-0.272935,-0.978538,-0.029895,-0.121080,-0.434361,-0.007082,-1.2602,-0.9802,0.5320
336945,11.0,-0.202991,-0.658362,-0.029881,-0.129926,-0.379104,-0.008400,-0.7404,-0.9737,-2.6922,0.00092125,-0.00030563,0.00238405,0.00137722,0.06037710,-0.00994367,-0.1896,0.1927,-9.8322,-0.004553,0.002883,0.001378,7.2621,14.3002,22.0774,-24.8057,0.0290,30,-2,-7,-0.274149,-0.982940,-0.029967,-0.121328,-0.435482,-0.007233,-1.2662,-0.9805,0.5317
336956,11.0,-0.204407,-0.662552,-0.029925,-0.129608,-0.378089,-0.007767,-0.6530,-0.9957,-2.7156,-0.00050786,0.00001316,0.00274786,0.00175162,0.06157912,-0.01014043,-0.1824,0.1820,-9.8123,-0.002235,-0.000637,0.002303,7.2621,14.3002,22.0774,-24.8057,0.0290,30,-2,-7,-0.276507,-0.991482,-0.029383,-0.120777,-0.434235,-0.000034,-1.2595,-0.9834,0.5329
336967,11.0,-0.205821,-0.666738,-0.029456,-0.129756,-0.378144,-0.001365,-0.6511,-0.9993,-2.7183,-0.00049483,0.00002469,0.00275089,0.00178061,0.06165619,-0.01241814,-0.1977,0.1952,-9.8209,0.004323,-0.002866,0.002420,7.2621,14.3002,22.0774,-24.8057,0.0290,30,-2,-7,-0.277685,-0.995752,-0.029334,-0.120544,-0.433781,0.000606,-1.2553,-0.9852,0.5330
