timestamp_ms,dt_ms,pos_x,pos_y,pos_z,vel_x,vel_y,vel_z,roll_deg,pitch_deg,yaw_deg,gyro_bias_x,gyro_bias_y,gyro_bias_z,accel_bias_x,accel_bias_y,accel_bias_z,raw_accel_x,raw_accel_y,raw_accel_z,raw_gyro_x,raw_gyro_y,raw_gyro_z,raw_mag_x,raw_mag_y,raw_mag_z,raw_baro_alt,raw_tof,raw_flow_squal,raw_flow_dx,raw_flow_dy,dev_pos_x,dev_pos_y,dev_pos_z,dev_vel_x,dev_vel_y,dev_vel_z,dev_roll_deg,dev_pitch_deg,dev_yaw_deg
14553,10.0,0.000142,0.000505,-0.377873,0.012770,0.051670,-0.006906,-0.0052,-0.0536,0.0000,0.00000000,0.00000000,0.00000000,0.00057628,0.02974172,0.00000000,-0.2953,0.2470,-10.4062,-0.029653,-0.087068,0.064240,2.6249,-14.3757,13.5139,28.4811,0.3780,168,-1,1,0.003976,-0.002592,-0.431416,0.016278,-0.001679,-0.668516,-0.1242,-0.2142,0.0866
14564,11.0,-0.001437,0.000421,-0.377977,-0.073699,0.019927,-0.012094,-0.2587,0.5503,0.0000,0.00000037,-0.00000096,0.00000000,0.00154280,0.03011301,-0.00000084,-0.2537,0.0707,-10.2856,-0.054976,0.054057,0.102397,2.6249,-14.3757,13.5139,28.4811,0.3790,171,-2,0,0.003965,-0.002093,-0.438133,0.012007,0.005783,-0.674971,-0.1336,-0.2615,0.1330
14575,11.0,-0.002962,0.000285,-0.374222,-0.101157,0.005044,0.159075,-0.5120,1.1019,0.0000,0.00000099,-0.00000224,0.00000000,0.00229465,0.03047755,-0.00010119,-0.2156,-0.2198,-9.8095,-0.072939,0.191070,0.119120,3.4686,-13.6030,13.1479,28.4811,0.3790,171,0,0,0.001083,-0.002252,-0.409237,-0.023499,0.002558,-0.260324,-0.1533,-0.0548,0.4089
14586,11.0,-0.004621,0.000233,-0.378803,-0.119925,-0.002900,-0.024597,-0.6014,1.6821,0.0000,0.00000126,-0.00000418,0.00000000,0.00312485,0.03059676,0.00007030,-0.1623,-0.4129,-9.2339,-0.036476,0.200626,0.086330,3.4686,-13.6030,13.1479,28.4811,0.3790,168,0,0,0.000112,-0.002349,-0.411839,-0.033139,-0.001548,-0.260032,-0.1917,0.0773,0.5520
14597,11.0,-0.005618,0.000228,-0.378788,-0.115703,-0.008286,-0.008940,-0.5404,1.3726,0.0000,0.00000088,-0.00000205,0.00000000,0.00241164,0.03046401,-0.00002649,-0.1773,-0.5184,-8.9615,-0.013752,0.111369,0.040452,3.4686,-13.6030,13.1479,28.4811,0.3770,167,0,0,-0.001821,-0.002440,-0.416758,-0.049173,-0.011070,-0.246741,-0.2274,0.3270,0.6896
14608,11.0,-0.004881,0.000169,-0.378840,-0.068343,-0.012892,0.000598,-0.4778,-1.2703,0.0000,0.00000030,0.00001633,0.00000000,-0.00257887,0.03030055,-0.00013599,-0.1663,-0.4549,-8.8846,-0.031994,-0.045825,-0.027177,3.4686,-13.6030,13.1479,28.4811,0.3770,170,1,0,-0.001699,-0.002429,-0.392122,-0.044586,-0.015434,0.046634,-0.2045,0.4027,0.7303
14619,11.0,-0.003049,0.000077,-0.377098,-0.001939,-0.014881,0.038023,-0.4361,-5.1397,0.0000,-0.00000040,0.00004865,0.00000000,-0.00974792,0.03011121,-0.00116304,-0.2066,-0.2183,-9.1901,-0.039092,-0.196296,-0.095301,3.4686,-13.6030,13.1479,28.4811,0.3770,167,1,0,-0.000961,-0.002452,-0.391506,-0.034108,-0.019084,0.056923,-0.2208,0.3668,0.7301
14630,11.0,-0.000890,-0.000020,-0.376688,0.058249,-0.012811,0.038037,-0.4281,-8.1612,0.0000,-0.00000044,0.00007421,0.00000000,-0.01632022,0.02990487,-0.00101561,-0.2255,0.1848,-9.8147,-0.032464,-0.302133,-0.099041,3.4686,-13.6030,13.1479,28.3648,0.3790,172,0,0,0.001751,-0.002539,-0.390022,-0.004378,-0.020447,0.070331,-0.2638,0.0852,0.6587
14641,11.0,0.001117,-0.000155,-0.375995,0.106936,-0.009826,0.039490,-0.4941,-10.3554,0.0000,-0.00000007,0.00009849,0.00000000,-0.02035992,0.02994340,-0.00125047,-0.2296,0.4203,-10.2095,-0.048250,-0.272604,-0.040840,3.4686,-13.6030,13.1479,28.3648,0.3790,172,0,0,0.003347,-0.002587,-0.383076,0.010906,-0.017654,0.135738,-0.2804,-0.1049,0.6167
14654,13.0,0.001355,-0.000334,-0.373501,0.091483,-0.008529,0.058496,-0.7112,-8.3553,0.0000,0.00000196,0.00006825,0.00000000,-0.01644329,0.03018059,-0.00552539,-0.2651,0.4194,-10.5049,-0.067928,-0.107359,0.050204,3.4686,-13.6030,13.1479,28.3648,0.3790,171,-2,0,0.005967,-0.002767,-0.380283,0.031240,-0.009973,0.127960,-0.3425,-0.4116,0.5942
14665,11.0,0.000870,0.000064,-0.372741,0.059585,0.006230,0.052972,0.0309,-5.8898,0.0000,-0.00001150,0.00002588,0.00000000,-0.01187448,0.02874824,-0.00668026,-0.3252,0.2093,-10.4017,-0.038000,0.037146,0.110647,1.7703,-13.2132,12.4273,28.3648,0.3790,170,-1,1,0.005400,-0.002896,-0.379037,0.020022,-0.007370,0.121116,-0.3812,-0.4388,0.6594
14676,11.0,-0.000093,0.000051,-0.372215,0.019701,0.003901,0.046834,-0.1041,-3.3541,0.0000,-0.00000906,-0.00002460,0.00000000,-0.00728724,0.02898496,-0.00734072,-0.3272,0.0259,-10.1856,-0.016891,0.098033,0.106264,1.7703,-13.2132,12.4273,28.3648,0.3790,167,-1,0,0.004844,-0.002427,-0.378422,0.009667,-0.000064,0.108681,-0.3963,-0.4122,0.7401
14687,11.0,-0.000663,0.000032,-0.375801,-0.003372,-0.000157,-0.003743,-0.1366,-1.9575,0.0000,-0.00000710,-0.00005743,0.00000000,-0.00450063,0.02905174,0.00851122,-0.3807,-0.2543,-9.8671,-0.017402,0.103675,0.055830,1.7703,-13.2132,12.4273,28.3648,0.3790,166,0,0,0.003328,-0.002500,-0.376325,-0.012495,-0.003142,0.102056,-0.4183,-0.2567,0.7654
14698,11.0,-0.001000,-0.000016,-0.375839,-0.011406,-0.004605,-0.002198,-0.1489,-1.5445,0.0000,-0.00000807,-0.00006783,0.00000000,-0.00376190,0.02920081,0.00841037,-0.3194,-0.3354,-9.6293,-0.028291,0.053996,0.011896,1.7703,-13.2132,12.4273,28.3648,0.3790,168,0,0,0.002829,-0.002525,-0.375106,-0.019530,-0.006608,0.104112,-0.4284,-0.1859,0.8139
14709,11.0,-0.000632,-0.000019,-0.375650,0.001503,-0.006339,0.002910,-0.0726,-2.1225,0.0000,-0.00001057,-0.00004908,0.00000000,-0.00495321,0.02904757,0.00742879,-0.2928,-0.2625,-9.5758,0.000650,0.013411,-0.039679,1.7703,-13.2132,12.4273,28.3648,0.3790,168,1,0,0.002499,-0.002562,-0.374057,-0.023719,-0.010498,0.105597,-0.4447,-0.1383,0.8391
14720,11.0,-0.000030,0.000128,-0.377431,0.015350,-0.001199,-0.016435,0.2356,-2.5513,0.0000,-0.00001934,-0.00003573,0.00000000,-0.00603309,0.02855617,0.01928115,-0.1920,-0.0280,-9.6482,0.089034,-0.023738,-0.119617,1.7703,-13.2132,12.4273,28.3648,0.3790,167,1,0,0.003516,-0.002484,-0.376034,-0.012761,-0.013729,0.071129,-0.4194,-0.1549,0.7893
14731,11.0,0.000028,0.000284,-0.377480,0.015254,0.004145,-0.014242,0.4381,-2.4513,0.0000,-0.00002559,-0.00004045,0.00000000,-0.00579508,0.02819755,0.01824109,-0.1818,0.1237,-9.7285,0.085830,-0.016284,-0.093894,1.7703,-13.2132,12.4273,28.3648,0.3770,173,0,0,0.003572,-0.002363,-0.375314,-0.012226,-0.012435,0.072917,-0.3648,-0.1686,0.7310
14742,11.0,-0.000126,0.000290,-0.377638,0.009516,0.005162,-0.013177,0.3511,-2.1185,0.0000,-0.00001960,-0.00005703,0.00000000,-0.00522509,0.02810630,0.01815960,-0.1940,0.2143,-9.6789,-0.002695,0.029443,-0.050939,1.7703,-13.2132,12.4273,28.3648,0.3770,171,0,0,0.003550,-0.002173,-0.375211,-0.012755,-0.007133,0.061205,-0.2747,-0.1747,0.6485
14753,11.0,-0.000403,0.000215,-0.377099,0.002455,0.003890,-0.002763,0.2044,-1.8122,0.0000,-0.00001313,-0.00007343,0.00000000,-0.00464359,0.02838461,0.01235218,-0.2462,0.1567,-9.5511,-0.044028,0.049744,0.002938,1.7703,-13.2132,12.4273,28.3648,0.3770,167,0,0,0.003382,-0.002198,-0.374442,-0.014628,-0.005472,0.064432,-0.2785,-0.1487,0.6362
14764,11.0,-0.000401,0.000192,-0.377104,0.002764,0.001996,0.001873,0.1474,-1.7888,0.0000,-0.00001013,-0.00007485,0.00000000,-0.00458600,0.02850612,0.01234528,-0.2143,-0.0524,-9.3732,-0.017884,0.002749,0.047193,2.6323,-13.6053,11.6757,28.3648,0.3770,172,0,0,0.003027,-0.002315,-0.373095,-0.018437,-0.005226,0.070982,-0.3189,-0.0926,0.6857
14775,11.0,0.000089,0.000138,-0.376896,0.013004,-0.000956,0.008331,0.0805,-2.1450,0.0000,-0.00000665,-0.00005119,0.00000000,-0.00547170,0.02862917,0.01094647,-0.2581,-0.1324,-9.3940,-0.032753,-0.066310,-0.005530,2.6323,-13.6053,11.6757,28.3886,0.3780,177,0,0,0.003110,-0.002334,-0.375814,-0.017512,-0.006585,0.038662,-0.3275,-0.1042,0.7164
14786,11.0,0.001085,0.000038,-0.377298,0.030874,-0.002986,0.004329,-0.0033,-2.7323,0.0000,-0.00000184,-0.00000726,0.00000000,-0.00690429,0.02880191,0.01620459,-0.2937,-0.0082,-9.6177,-0.049930,-0.132299,-0.066008,2.6323,-13.6053,11.6757,28.3886,0.3780,170,0,0,0.003498,-0.002376,-0.375408,-0.013720,-0.008366,0.042667,-0.3473,-0.1506,0.6627
14797,11.0,0.002314,-0.000057,-0.377129,0.050549,-0.002504,0.004980,-0.0713,-3.3509,0.0000,0.00000242,0.00004416,0.00000000,-0.00840291,0.02892409,0.01526039,-0.3043,0.2060,-9.8793,-0.041400,-0.161895,-0.077034,2.6323,-13.6053,11.6757,28.3886,0.3780,168,0,0,0.004977,-0.002504,-0.374341,-0.000443,-0.009309,0.047178,-0.4013,-0.3288,0.5948
14808,11.0,0.003199,-0.000113,-0.377092,0.060495,0.000279,0.001207,-0.1101,-3.5897,0.0000,0.00000554,0.00006366,0.00000000,-0.00886992,0.02899989,0.01535632,-0.2524,0.3824,-10.1461,-0.019462,-0.109472,-0.055760,2.6323,-13.6053,11.6757,28.3886,0.3760,171,0,0,0.005822,-0.002561,-0.375145,0.006628,-0.007490,0.032226,-0.4221,-0.4323,0.5512
14819,11.0,0.003476,-0.000151,-0.375990,0.057114,0.003212,0.010291,-0.1538,-3.4090,0.0000,0.00000958,0.00003636,0.00000000,-0.00863873,0.02907578,0.00384375,-0.2596,0.4307,-10.1791,-0.013242,-0.019872,-0.024593,2.6323,-13.6053,11.6757,28.3886,0.3760,172,0,0,0.006431,-0.002600,-0.374718,0.010835,-0.004656,0.030313,-0.4331,-0.5021,0.5215
14830,11.0,0.003031,-0.000188,-0.375895,0.039950,0.004977,0.008243,-0.2218,-2.8147,0.0000,0.00001860,-0.00004445,0.00000000,-0.00731820,0.02906303,0.00345955,-0.2641,0.3900,-9.9760,-0.017614,0.084082,0.012246,2.6323,-13.6053,11.6757,28.3886,0.3770,172,0,0,0.006567,-0.002673,-0.375605,0.006815,0.001036,0.007670,-0.4505,-0.4992,0.5300
14841,11.0,0.002231,-0.000198,-0.375651,0.019100,0.006483,0.011535,-0.2643,-2.1633,0.0000,0.00002443,-0.00013926,0.00000000,-0.00580393,0.02916717,0.00141562,-0.2695,0.3403,-9.6575,-0.005950,0.126984,0.011152,2.6323,-13.6053,11.6757,28.3886,0.3770,168,0,0,0.006095,-0.002715,-0.375533,-0.000527,0.003027,0.006676,-0.4617,-0.4268,0.5703
14853,12.0,0.001653,-0.000161,-0.376191,0.004985,0.007891,0.008315,-0.2841,-1.7474,0.0000,0.00002959,-0.00020469,0.00000000,-0.00461583,0.02918560,0.00830032,-0.3041,0.2780,-9.3623,0.011181,0.087627,-0.000622,2.6323,-13.6053,11.6757,28.3886,0.3770,168,0,0,0.004849,-0.002740,-0.375190,-0.016645,0.006145,0.013077,-0.4610,-0.2513,0.6470
14864,11.0,0.001695,-0.000193,-0.375951,0.004283,0.007467,0.015368,-0.3483,-1.7457,0.0000,0.00004013,-0.00020525,0.00000000,-0.00464050,0.02935185,0.00706146,-0.3394,0.2420,-9.2853,-0.020957,-0.001225,0.020049,3.0541,-13.9916,12.7742,28.3886,0.3750,175,0,0,0.004471,-0.002735,-0.375036,-0.021412,0.006901,0.017636,-0.4577,-0.1998,0.6708
14875,11.0,0.002364,-0.000267,-0.375753,0.014281,0.006741,0.019986,-0.4362,-2.0356,0.0000,0.00005478,-0.00015105,0.00000000,-0.00535863,0.02954806,0.00724253,-0.3585,0.2815,-9.3777,-0.040009,-0.085868,0.013104,3.0541,-13.9916,12.7742,28.3886,0.3750,170,0,0,0.004446,-0.002761,-0.374828,-0.022188,0.007065,0.022809,-0.4697,-0.1937,0.6891
14886,11.0,0.003515,-0.000264,-0.374992,0.031237,0.007743,0.027039,-0.4615,-2.4948,0.0000,0.00006159,-0.00005947,0.00000000,-0.00658804,0.02971921,0.00224357,-0.3426,0.3166,-9.7345,-0.000622,-0.156297,0.017726,3.0541,-13.9916,12.7742,28.3886,0.3750,173,0,0,0.005475,-0.002846,-0.374290,-0.012591,0.007839,0.030101,-0.5143,-0.3216,0.6609
14897,11.0,0.004666,-0.000258,-0.374705,0.045675,0.007965,0.024789,-0.4958,-2.8602,0.0000,0.00007220,0.00001630,0.00000000,-0.00745399,0.02972806,0.00246587,-0.3360,0.2703,-10.0073,-0.002235,-0.150729,0.049919,3.0541,-13.9916,12.7742,28.3886,0.3760,170,0,0,0.006295,-0.002835,-0.373789,-0.005073,0.008915,0.032680,-0.5156,-0.4258,0.6500
14908,11.0,0.005434,-0.000347,-0.374301,0.052097,0.005458,0.022620,-0.5840,-2.9989,0.0000,0.00009005,0.00004226,0.00000000,-0.00773568,0.02992566,0.00100938,-0.3110,0.1540,-10.1717,-0.049980,-0.087387,0.081243,3.0541,-13.9916,12.7742,28.3886,0.3760,172,0,0,0.007094,-0.002825,-0.374978,0.001666,0.009441,0.014827,-0.5211,-0.5275,0.6565
14919,11.0,0.005036,-0.000462,-0.374844,0.038769,-0.000619,0.009738,-0.6825,-2.6849,0.0000,0.00010834,-0.00006423,0.00000000,-0.00667445,0.02990247,0.00807557,-0.2941,-0.1802,-10.1463,-0.067501,0.002939,0.116421,3.0541,-13.9916,12.7742,28.3886,0.3760,173,-1,0,0.007432,-0.002951,-0.374619,0.000793,0.005870,0.008681,-0.5849,-0.6078,0.7784
14930,11.0,0.004232,-0.000600,-0.374636,0.020892,-0.008470,0.008763,-0.7592,-2.2788,0.0000,0.00011888,-0.00020311,0.00000000,-0.00573588,0.02999667,0.00661138,-0.3018,-0.4258,-10.0205,-0.076638,0.056442,0.085088,3.0541,-13.9916,12.7742,28.3886,0.3760,169,-1,0,0.006898,-0.003042,-0.374549,-0.006613,0.001019,0.005381,-0.6269,-0.5851,0.8786
14941,11.0,0.003906,-0.000768,-0.374542,0.013225,-0.015724,0.008439,-0.8157,-2.0784,0.0000,0.00011900,-0.00026925,0.00000000,-0.00533513,0.03020121,0.00647517,-0.2888,-0.4559,-9.8348,-0.083762,0.061887,-0.005555,3.0541,-13.9916,12.7742,28.3886,0.3760,170,0,0,0.005884,-0.003248,-0.375329,-0.018466,-0.011593,-0.006041,-0.7194,-0.4921,1.0028
14952,11.0,0.004016,-0.000789,-0.375062,0.013204,-0.017290,0.001743,-0.7724,-2.0257,0.0000,0.00009812,-0.00027508,0.00000000,-0.00512641,0.02998073,0.01211772,-0.3035,-0.2164,-9.7461,-0.003273,0.063407,-0.117461,3.0541,-13.9916,12.7742,28.3886,0.3760,170,1,0,0.005613,-0.003345,-0.375238,-0.021298,-0.016854,-0.004130,-0.7588,-0.4492,0.9949
14963,11.0,0.003435,-0.000593,-0.375041,0.002223,-0.011525,0.002237,-0.6040,-1.7946,0.0000,0.00005046,-0.00036589,0.00000000,-0.00458972,0.02967216,0.01195539,-0.3394,0.1508,-9.7436,0.109164,0.066999,-0.148252,3.0541,-13.9916,12.7742,28.3886,0.3750,170,0,0,0.005837,-0.003342,-0.375276,-0.018718,-0.018857,-0.003504,-0.7571,-0.4170,0.9364
14974,11.0,0.003344,-0.000394,-0.374861,0.000764,-0.004066,0.004692,-0.4568,-1.7207,0.0000,0.00001043,-0.00038072,0.00000000,-0.00455192,0.02945855,0.01052619,-0.2836,0.3846,-9.7360,0.110609,0.071520,-0.092958,3.0357,-13.5996,11.6955,28.3886,0.3750,169,1,0,0.004951,-0.003062,-0.374989,-0.028380,-0.012222,0.001298,-0.6166,-0.3200,0.7944
14985,11.0,0.003011,-0.000422,-0.374815,-0.005027,-0.001080,0.005574,-0.4636,-1.6112,0.0000,0.00001302,-0.00042526,0.00000000,-0.00428572,0.02936214,0.01056120,-0.3675,0.3844,-9.6978,-0.005310,0.046702,0.001542,3.0357,-13.5996,11.6955,28.3886,0.3750,165,0,0,0.005067,-0.002931,-0.374972,-0.026392,-0.007277,0.001966,-0.5544,-0.2850,0.7365
14996,11.0,0.003357,-0.000626,-0.374626,-0.000290,-0.002704,0.009134,-0.5683,-1.6791,0.0000,0.00004074,-0.00036853,0.00000000,-0.00460520,0.02950982,0.00958437,-0.3899,0.2251,-9.5974,-0.093819,0.040799,0.073564,3.0357,-13.5996,11.6955,28.3886,0.3750,172,1,0,0.004811,-0.002947,-0.374759,-0.029258,-0.004303,0.005085,-0.5521,-0.2516,0.7465
15007,11.0,0.003408,-0.000695,-0.374507,-0.000443,-0.006048,0.012378,-0.5957,-1.6930,0.0000,0.00004396,-0.00035993,0.00000000,-0.00464723,0.02952590,0.00959425,-0.3768,-0.1504,-9.5009,-0.035579,-0.001321,0.115984,3.0357,-13.5996,11.6955,28.3886,0.3770,166,0,0,0.005121,-0.003186,-0.376131,-0.026469,-0.004990,-0.006115,-0.6483,-0.2199,0.8463
15018,11.0,0.003396,-0.000594,-0.375622,-0.001258,-0.008759,0.000444,-0.5253,-1.6935,0.0000,0.00001299,-0.00036223,0.00000000,-0.00427932,0.02932512,0.02040284,-0.3539,-0.3786,-9.5188,0.043168,-0.004294,0.034871,3.0357,-13.5996,11.6955,28.3886,0.3770,168,0,0,0.005140,-0.003212,-0.376048,-0.026457,-0.007770,-0.001663,-0.6613,-0.2207,0.9165
15029,11.0,0.003344,-0.000471,-0.375601,-0.002338,-0.010633,0.003374,-0.4345,-1.6873,0.0000,-0.00002922,-0.00036713,0.00000000,-0.00423790,0.02930783,0.02039535,-0.3396,-0.3819,-9.5203,0.056244,-0.001130,-0.031676,3.0357,-13.5996,11.6955,28.3886,0.3750,168,0,0,0.005129,-0.003148,-0.376050,-0.026541,-0.010927,0.001340,-0.6393,-0.2223,0.9556
15040,11.0,0.003310,-0.000340,-0.375399,-0.003429,-0.009404,0.007631,-0.3416,-1.6898,0.0000,-0.00006973,-0.00036742,0.00000000,-0.00428246,0.02912723,0.01908191,-0.3826,-0.1200,-9.5643,0.066315,-0.005073,-0.116559,3.0357,-13.5996,11.6955,28.3886,0.3750,167,0,0,0.005029,-0.002959,-0.375226,-0.027521,-0.015472,0.014247,-0.5630,-0.2202,0.9217
15051,11.0,0.003452,-0.000230,-0.375042,-0.002131,-0.006212,0.012547,-0.2652,-1.7443,0.0000,-0.00010230,-0.00033546,0.00000000,-0.00443162,0.02894799,0.01692757,-0.4099,0.1107,-9.6167,0.059771,-0.027961,-0.110185,3.0357,-13.5996,11.6955,28.3886,0.3750,166,0,0,0.004991,-0.002862,-0.375071,-0.028098,-0.015451,0.016717,-0.5193,-0.2231,0.8644
15062,11.0,0.003991,-0.000250,-0.374784,0.004952,-0.004314,0.014870,-0.2592,-1.8938,0.0000,-0.00010881,-0.00024119,0.00000000,-0.00484231,0.02891686,0.01600490,-0.3680,0.1954,-9.7024,-0.001996,-0.072103,-0.032904,2.6213,-13.2155,12.4196,28.3886,0.3750,169,0,0,0.005239,-0.002727,-0.374500,-0.026157,-0.011226,0.022473,-0.4522,-0.2674,0.7642
15073,11.0,0.005378,-0.000400,-0.374624,0.022395,-0.004557,0.014234,-0.3213,-2.1967,0.0000,-0.00008828,-0.00001043,0.00000000,-0.00566055,0.02893123,0.01614776,-0.4146,0.1903,-9.8398,-0.064923,-0.100002,0.001826,2.6213,-13.2155,12.4196,28.3886,0.3750,164,1,0,0.005630,-0.002747,-0.374618,-0.022315,-0.009462,0.019791,-0.4562,-0.3187,0.7531
15084,11.0,0.006340,-0.000521,-0.374511,0.032556,-0.005470,0.011689,-0.3673,-2.3942,0.0000,-0.00007565,0.00011639,0.00000000,-0.00607069,0.02897697,0.01647891,-0.3497,0.0908,-9.9836,-0.053326,-0.116126,0.012043,2.6213,-13.2155,12.4196,28.3886,0.3750,170,0,0,0.007403,-0.002918,-0.374233,-0.005986,-0.008726,0.018195,-0.5288,-0.4759,0.7138
15095,11.0,0.006935,-0.000531,-0.374405,0.036953,-0.005484,0.007654,-0.3590,-2.4795,0.0000,-0.00008572,0.00015873,0.00000000,-0.00619219,0.02894857,0.01650138,-0.3150,0.0255,-10.1560,-0.001598,-0.073053,-0.008957,2.6213,-13.2155,12.4196,28.3886,0.3730,170,0,0,0.008012,-0.002975,-0.373370,-0.001212,-0.008871,0.023502,-0.5529,-0.5474,0.7244
15106,11.0,0.005804,-0.000473,-0.374213,0.017717,-0.004574,0.005126,-0.3199,-2.2186,0.0000,-0.00010853,-0.00013595,0.00000000,-0.00550159,0.02888136,0.01528131,-0.2976,0.0266,-10.1658,0.029948,0.005178,-0.028583,2.6213,-13.2155,12.4196,28.4467,0.3730,169,-2,0,0.008382,-0.002972,-0.373153,0.000952,-0.008984,0.019995,-0.5513,-0.5900,0.7257
15117,11.0,0.005075,-0.000383,-0.373377,0.006526,-0.002663,0.012350,-0.2713,-2.0048,0.0000,-0.00013278,-0.00032142,0.00000000,-0.00540855,0.02873955,0.00897914,-0.2687,0.0917,-9.9837,0.045807,0.094449,-0.046185,2.6213,-13.2155,12.4196,28.4467,0.3730,168,0,0,0.007068,-0.002912,-0.372688,-0.014962,-0.008168,0.014747,-0.5107,-0.5343,0.7266
15128,11.0,0.003947,-0.000285,-0.373137,-0.008690,-0.000396,0.014616,-0.2213,-1.7240,0.0000,-0.00015726,-0.00056211,0.00000000,-0.00487313,0.02867499,0.00806543,-0.2704,0.1318,-9.7014,0.048848,0.144466,-0.041951,2.6213,-13.2155,12.4196,28.4467,0.3740,167,0,0,0.006461,-0.002855,-0.372547,-0.021298,-0.006936,0.013448,-0.4797,-0.4570,0.7144
15139,11.0,0.002936,-0.000250,-0.372952,-0.020858,0.000394,0.018783,-0.2044,-1.5024,0.0000,-0.00016511,-0.00074827,0.00000000,-0.00441985,0.02865345,0.00798435,-0.2973,0.0909,-9.4187,0.017451,0.130227,-0.015583,2.6213,-13.2155,12.4196,28.4467,0.3740,168,0,0,0.005687,-0.002800,-0.373314,-0.028959,-0.005495,0.004618,-0.4481,-0.3601,0.7080
15150,11.0,0.002605,-0.000295,-0.373275,-0.022834,-0.001262,0.018278,-0.2244,-1.4606,0.0000,-0.00015687,-0.00076889,0.00000000,-0.00420638,0.02868621,0.01230075,-0.3106,-0.0385,-9.2398,-0.023279,0.043348,0.006893,2.6213,-13.2155,12.4196,28.4467,0.3740,165,0,0,0.004399,-0.002783,-0.373018,-0.040101,-0.004975,0.013867,-0.4295,-0.1986,0.7272
15161,11.0,0.003528,-0.000400,-0.373043,-0.009230,-0.004040,0.023887,-0.2683,-1.6574,0.0000,-0.00013963,-0.00051907,0.00000000,-0.00487427,0.02873462,0.01238505,-0.4038,-0.0906,-9.2804,-0.051373,-0.044549,-0.008997,2.6213,-13.6019,13.1516,28.4467,0.3730,168,1,0,0.004216,-0.002822,-0.372851,-0.040409,-0.006277,0.019534,-0.4445,-0.1766,0.7409
15172,11.0,0.005102,-0.000496,-0.372633,0.012082,-0.005835,0.028798,-0.3025,-1.9723,0.0000,-0.00012987,-0.00015714,0.00000000,-0.00586370,0.02876147,0.01148955,-0.3130,-0.0366,-9.4878,-0.044165,-0.129860,-0.044427,2.6213,-13.6019,13.1516,28.4467,0.3730,168,1,0,0.004966,-0.002876,-0.372844,-0.031449,-0.008045,0.022562,-0.4725,-0.2140,0.7376
15183,11.0,0.006159,-0.000508,-0.372559,0.024310,-0.004482,0.025166,-0.2970,-2.1843,0.0000,-0.00013841,0.00004561,0.00000000,-0.00633568,0.02866945,0.01333487,-0.3122,0.1486,-9.8681,0.000132,-0.138119,-0.075562,2.6213,-13.6019,13.1516,28.4124,0.3730,170,0,0,0.006858,-0.002958,-0.372214,-0.011016,-0.009519,0.029096,-0.5144,-0.3962,0.6316
15194,11.0,0.006731,-0.000486,-0.372192,0.029270,-0.000743,0.023309,-0.2777,-2.2710,0.0000,-0.00015061,0.00011350,0.00000000,-0.00651345,0.02864219,0.01251574,-0.2874,0.3577,-10.0806,0.018952,-0.074178,-0.088752,2.6213,-13.6019,13.1516,28.4124,0.3730,168,0,0,0.007549,-0.002953,-0.371750,-0.004677,-0.008183,0.030201,-0.5111,-0.4848,0.5906
15206,12.0,0.006676,-0.000498,-0.371935,0.024734,0.004466,0.019472,-0.2793,-2.2063,0.0000,-0.00014213,0.00001722,0.00000000,-0.00633233,0.02865687,0.01248976,-0.3492,0.5510,-10.1092,0.004803,0.015579,-0.076187,2.6213,-13.6019,13.1516,28.4124,0.3730,171,0,0,0.008184,-0.002932,-0.372192,-0.001066,-0.001704,0.014859,-0.4899,-0.5617,0.5006
15217,11.0,0.005604,-0.000532,-0.372202,0.007674,0.008123,0.011818,-0.3000,-1.9870,0.0000,-0.00011607,-0.00030634,0.00000000,-0.00566310,0.02868550,0.01584843,-0.3862,0.5388,-9.9823,-0.009332,0.072089,-0.000756,2.6213,-13.6019,13.1516,28.4124,0.3730,171,-1,0,0.008082,-0.002947,-0.371918,-0.004363,0.002364,0.013522,-0.4875,-0.5421,0.4770
15228,11.0,0.005188,-0.000599,-0.372074,0.000238,0.008905,0.011415,-0.3431,-1.8861,0.0000,-0.00007089,-0.00042627,0.00000000,-0.00543203,0.02866995,0.01581903,-0.4543,0.3526,-9.8193,-0.031004,0.061424,0.081697,2.6213,-13.6019,13.1516,28.4124,0.3720,168,0,0,0.007198,-0.002986,-0.371792,-0.015969,0.005696,0.011599,-0.4940,-0.4803,0.5138
15239,11.0,0.005335,-0.000759,-0.371802,0.001175,0.004407,0.014002,-0.4259,-1.9087,0.0000,-0.00000854,-0.00038862,0.00000000,-0.00552894,0.02878498,0.01477108,-0.4123,-0.0352,-9.7072,-0.082509,-0.006888,0.110108,2.6213,-13.6019,13.1516,28.4124,0.3720,167,0,0,0.006750,-0.003112,-0.371662,-0.023230,0.006027,0.010469,-0.5459,-0.4102,0.6444
15250,11.0,0.005798,-0.000854,-0.371717,0.006600,-0.000047,0.013261,-0.4712,-1.9970,0.0000,0.00001865,-0.00027325,0.00000000,-0.00567897,0.02896901,0.01530202,-0.3539,-0.1619,-9.7829,-0.051698,-0.053124,0.046828,2.6213,-13.6019,13.1516,28.4705,0.3720,170,0,0,0.006866,-0.003217,-0.371553,-0.022590,0.002557,0.011382,-0.5966,-0.4174,0.7117
15261,11.0,0.006168,-0.000772,-0.371491,0.011368,-0.001588,0.012422,-0.4391,-2.0646,0.0000,-0.00000678,-0.00019765,0.00000000,-0.00581188,0.02894558,0.01463944,-0.2503,-0.1394,-9.9714,0.032426,-0.052660,-0.019329,2.1994,-13.2155,11.3216,28.4705,0.3720,169,0,0,0.007434,-0.003289,-0.371156,-0.016597,-0.004023,0.012836,-0.6403,-0.4853,0.7589
15273,12.0,0.006040,-0.000728,-0.371360,0.009115,-0.001838,0.009426,-0.4155,-2.0197,0.0000,-0.00002835,-0.00027310,0.00000000,-0.00580128,0.02898831,0.01462651,-0.2731,0.0104,-10.0425,0.020456,0.016713,-0.043835,2.1994,-13.2155,11.3216,28.4705,0.3710,168,0,0,0.007642,-0.003228,-0.370908,-0.014124,-0.005675,0.012389,-0.6178,-0.5151,0.7508
15284,11.0,0.005285,-0.000761,-0.370922,-0.000489,-0.001575,0.011754,-0.4253,-1.8564,0.0000,-0.00002493,-0.00050615,0.00000000,-0.00559637,0.02903009,0.01217065,-0.2592,0.1425,-9.9458,-0.013365,0.101708,-0.040406,2.1994,-13.2155,11.3216,28.4705,0.3710,168,0,0,0.007554,-0.003199,-0.370796,-0.015130,-0.006188,0.010043,-0.6044,-0.5045,0.6421
15295,11.0,0.004203,-0.000750,-0.370783,-0.013482,-0.000598,0.013567,-0.4190,-1.6463,0.0000,-0.00002913,-0.00080226,0.00000000,-0.00521019,0.02894675,0.01211633,-0.2897,0.1629,-9.6280,0.007504,0.140577,0.001647,2.1994,-13.2155,11.3216,28.4705,0.3700,172,0,0,0.006497,-0.003247,-0.370465,-0.026279,-0.005372,0.009871,-0.6115,-0.3604,0.6383
15306,11.0,0.003414,-0.000744,-0.370488,-0.022220,-0.001599,0.019554,-0.4163,-1.5122,0.0000,-0.00003471,-0.00097850,0.00000000,-0.00498479,0.02894973,0.01122984,-0.3605,-0.0149,-9.3794,0.000703,0.101503,0.052071,2.1994,-13.2155,11.3216,28.4705,0.3700,172,0,0,0.005771,-0.003247,-0.370126,-0.033270,-0.004662,0.014273,-0.6043,-0.2661,0.6614
15317,11.0,0.003244,-0.000819,-0.370034,-0.022551,-0.005092,0.027496,-0.4454,-1.5046,0.0000,-0.00002323,-0.00095535,0.00000000,-0.00507073,0.02898779,0.00978953,-0.3713,-0.1749,-9.2952,-0.039514,0.024776,0.049251,2.1994,-13.2155,11.3216,28.4705,0.3700,170,0,0,0.004835,-0.003265,-0.369655,-0.041353,-0.007074,0.023773,-0.6071,-0.1468,0.7460
15328,11.0,0.004393,-0.000884,-0.369592,-0.006223,-0.007594,0.032891,-0.4647,-1.6983,0.0000,-0.00002485,-0.00055623,0.00000000,-0.00574343,0.02899522,0.00900699,-0.3180,-0.1307,-9.4356,-0.031667,-0.075506,-0.013720,2.1994,-13.2155,11.3216,28.3780,0.3690,169,1,0,0.005412,-0.003311,-0.369167,-0.033798,-0.009861,0.031282,-0.6322,-0.1620,0.7689
15339,11.0,0.005196,-0.000854,-0.369224,0.004048,-0.007499,0.034067,-0.4404,-1.8566,0.0000,-0.00006367,-0.00030310,0.00000000,-0.00613442,0.02901898,0.00903558,-0.3215,-0.0197,-9.6892,0.016459,-0.108951,-0.058330,2.1994,-13.2155,11.3216,28.3780,0.3690,170,0,0,0.006326,-0.003339,-0.368725,-0.023106,-0.011776,0.036397,-0.6502,-0.2214,0.7644
15350,11.0,0.005797,-0.000796,-0.368727,0.011280,-0.005771,0.034682,-0.4062,-1.9652,0.0000,-0.00010503,-0.00013951,0.00000000,-0.00640790,0.02896273,0.00818814,-0.2783,0.1077,-9.8769,0.031671,-0.083299,-0.057377,2.1994,-13.2155,11.3216,28.3780,0.3690,168,0,0,0.007317,-0.003279,-0.367792,-0.012902,-0.011500,0.040316,-0.6244,-0.3553,0.7123
15361,11.0,0.005744,-0.000822,-0.368357,0.009184,-0.003497,0.032531,-0.4081,-1.9412,0.0000,-0.00010878,-0.00019270,0.00000000,-0.00633018,0.02885692,0.00818126,-0.3456,0.2796,-9.9901,-0.004858,0.009660,-0.037409,2.1958,-12.4417,12.4235,28.3780,0.3700,172,0,0,0.007551,-0.003259,-0.367396,-0.011354,-0.009465,0.038906,-0.6109,-0.3852,0.6915
15372,11.0,0.005428,-0.000868,-0.367854,0.004068,-0.001701,0.033063,-0.4197,-1.8711,0.0000,-0.00010267,-0.00032045,0.00000000,-0.00620434,0.02886630,0.00711637,-0.3516,0.2839,-9.9136,-0.015343,0.045403,-0.000431,2.1958,-12.4417,12.4235,28.3780,0.3700,172,0,0,0.007549,-0.003274,-0.368876,-0.012651,-0.007377,0.017087,-0.6106,-0.3846,0.6780
15383,11.0,0.005026,-0.000892,-0.368756,-0.001986,-0.001092,0.018363,-0.4262,-1.7936,0.0000,-0.00009998,-0.00045723,0.00000000,-0.00570844,0.02879506,0.01553632,-0.3933,0.1663,-9.7777,-0.008615,0.055163,0.043990,2.1958,-12.4417,12.4235,28.3780,0.3700,174,0,0,0.007075,-0.003345,-0.368416,-0.020046,-0.003993,0.016552,-0.6265,-0.3154,0.6319
15394,11.0,0.004863,-0.000912,-0.368414,-0.003961,-0.001909,0.021357,-0.4328,-1.7654,0.0000,-0.00009874,-0.00050152,0.00000000,-0.00568532,0.02880013,0.01461856,-0.3356,0.0302,-9.6646,-0.009901,0.022814,0.052169,2.1958,-12.4417,12.4235,28.3199,0.3680,168,0,0,0.006798,-0.003366,-0.368021,-0.023971,-0.003515,0.019255,-0.6312,-0.2759,0.6705
15405,11.0,0.004994,-0.000981,-0.368171,-0.001981,-0.004235,0.022703,-0.4557,-1.7901,0.0000,-0.00009241,-0.00044469,0.00000000,-0.00574635,0.02893724,0.01462465,-0.3155,-0.0712,-9.6690,-0.034070,-0.013064,0.032188,2.1958,-12.4417,12.4235,28.3199,0.3680,169,0,0,0.006623,-0.003407,-0.367714,-0.025854,-0.005822,0.020675,-0.6485,-0.2510,0.7437
15416,11.0,0.005299,-0.001050,-0.367753,0.002478,-0.006471,0.025383,-0.4779,-1.8428,0.0000,-0.00008850,-0.00033952,0.00000000,-0.00591186,0.02894725,0.01355757,-0.2551,-0.0844,-9.7258,-0.033544,-0.035977,-0.006290,2.1958,-12.4417,12.4235,28.3199,0.3680,170,0,0,0.006760,-0.003449,-0.367326,-0.024002,-0.008022,0.023905,-0.6674,-0.2676,0.7636
15427,11.0,0.005405,-0.001067,-0.367473,0.003522,-0.007302,0.025531,-0.4746,-1.8577,0.0000,-0.00011415,-0.00031373,0.00000000,-0.00594823,0.02902394,0.01355936,-0.3112,-0.0351,-9.7790,-0.006588,-0.012642,-0.023840,2.1958,-12.4417,12.4235,28.3199,0.3700,172,0,0,0.006954,-0.003489,-0.367083,-0.021279,-0.009889,0.024779,-0.6852,-0.2909,0.7677
15438,11.0,0.005266,-0.001016,-0.367019,0.001885,-0.007095,0.027601,-0.4458,-1.8316,0.0000,-0.00016055,-0.00037427,0.00000000,-0.00591757,0.02897255,0.01239906,-0.2777,-0.0215,-9.7960,0.025357,0.014893,-0.023399,2.1958,-12.4417,12.4235,28.3199,0.3700,173,0,0,0.007057,-0.003489,-0.368521,-0.019974,-0.011307,0.006461,-0.6817,-0.3068,0.7596
15449,11.0,0.004984,-0.000954,-0.368408,-0.001208,-0.006243,0.008078,-0.4105,-1.7830,0.0000,-0.00021645,-0.00048087,0.00000000,-0.00547499,0.02895654,0.02325637,-0.2693,0.0228,-9.7604,0.031868,0.032443,-0.035939,2.1958,-12.4417,12.4235,28.3780,0.3700,168,0,0,0.006945,-0.003452,-0.368456,-0.021004,-0.011374,0.006515,-0.6621,-0.2948,0.7563
15460,11.0,0.004647,-0.000903,-0.368198,-0.004789,-0.005405,0.010205,-0.3832,-1.7282,0.0000,-0.00025823,-0.00059326,0.00000000,-0.00537209,0.02890824,0.02247710,-0.2829,0.0433,-9.7182,0.025953,0.040288,-0.045508,3.0541,-13.6053,11.6757,28.3780,0.3690,170,0,0,0.006752,-0.003412,-0.368199,-0.022825,-0.011026,0.009036,-0.6404,-0.2714,0.7471
15471,11.0,0.004350,-0.000859,-0.368081,-0.007372,-0.003901,0.011141,-0.3596,-1.6841,0.0000,-0.00029097,-0.00068026,0.00000000,-0.00529521,0.02880983,0.02246988,-0.2684,0.1221,-9.6984,0.024305,0.034492,-0.031424,3.0541,-13.6053,11.6757,28.3780,0.3690,166,0,0,0.006325,-0.003353,-0.368454,-0.026332,-0.009649,0.006515,-0.6047,-0.2219,0.7203
15482,11.0,0.004081,-0.000804,-0.368347,-0.009528,-0.002673,0.007938,-0.3330,-1.6485,0.0000,-0.00032654,-0.00074691,0.00000000,-0.00513952,0.02877347,0.02496147,-0.2844,0.0962,-9.6512,0.027974,0.029877,-0.021685,3.0541,-13.6053,11.6757,28.3780,0.3690,162,0,0,0.006123,-0.003324,-0.368383,-0.027724,-0.008470,0.007620,-0.5871,-0.1999,0.7039
15493,11.0,0.003904,-0.000786,-0.368252,-0.010247,-0.002291,0.009390,-0.3227,-1.6289,0.0000,-0.00034331,-0.00077376,0.00000000,-0.00511914,0.02874020,0.02495938,-0.2699,0.0677,-9.6493,0.009702,0.020095,-0.012453,3.0541,-13.6053,11.6757,28.3780,0.3700,162,0,0,0.005936,-0.003289,-0.368300,-0.029033,-0.007414,0.008952,-0.5674,-0.1789,0.7003
15504,11.0,0.003998,-0.000891,-0.367988,-0.008100,-0.004101,0.012829,-0.3595,-1.6506,0.0000,-0.00031599,-0.00069789,0.00000000,-0.00523724,0.02877075,0.02399085,-0.3084,-0.0017,-9.6351,-0.048526,-0.007026,-0.016468,3.0541,-13.6053,11.6757,28.3780,0.3700,168,0,0,0.005741,-0.003298,-0.369152,-0.029511,-0.007813,0.001561,-0.5661,-0.1587,0.7088
15515,11.0,0.004270,-0.001006,-0.368933,-0.004117,-0.005983,0.000729,-0.3958,-1.6993,0.0000,-0.00029905,-0.00056504,0.00000000,-0.00516931,0.02887733,0.03074159,-0.3115,-0.0149,-9.7188,-0.052619,-0.029317,-0.034914,3.0541,-13.6053,11.6757,28.3780,0.3700,168,0,0,0.005788,-0.003359,-0.368977,-0.028370,-0.008970,0.004849,-0.5901,-0.1639,0.7106
15526,11.0,0.004564,-0.001080,-0.368809,0.000032,-0.006522,0.002229,-0.4159,-1.7490,0.0000,-0.00029676,-0.00043944,0.00000000,-0.00533166,0.02887842,0.03000537,-0.2790,0.0534,-9.7679,-0.031209,-0.034870,-0.050572,3.0541,-13.6053,11.6757,28.3780,0.3690,167,0,0,0.006136,-0.003497,-0.368928,-0.023819,-0.011146,0.005718,-0.6443,-0.2054,0.6846
15537,11.0,0.004438,-0.000963,-0.368792,-0.000675,-0.002938,0.000815,-0.3643,-1.7325,0.0000,-0.00035805,-0.00049155,0.00000000,-0.00533058,0.02867200,0.03000136,-0.2324,0.2360,-9.9049,0.060940,0.007303,-0.077643,3.0541,-13.6053,11.6757,28.4573,0.3690,168,0,0,0.006239,-0.003501,-0.368775,-0.022285,-0.010177,0.006546,-0.6413,-0.2196,0.6556
15548,11.0,0.003831,-0.000753,-0.368741,-0.006838,0.002436,0.000425,-0.2800,-1.6422,0.0000,-0.00044494,-0.00072238,0.00000000,-0.00510747,0.02858248,0.02970358,-0.2214,0.3380,-9.8615,0.103831,0.064001,-0.057530,3.0541,-13.6053,11.6757,28.4573,0.3690,169,0,0,0.006167,-0.003434,-0.368714,-0.022513,-0.007693,0.005612,-0.6073,-0.2158,0.6206
15559,11.0,0.002834,-0.000631,-0.368731,-0.017326,0.005977,0.001441,-0.2380,-1.4904,0.0000,-0.00046837,-0.00107931,0.00000000,-0.00475431,0.02840071,0.02968808,-0.2550,0.3152,-9.6832,0.059246,0.120957,-0.002712,2.6213,-13.6019,12.7856,28.4573,0.3690,167,0,0,0.005300,-0.003193,-0.368766,-0.030132,-0.000109,0.002822,-0.4903,-0.1193,0.5895
15570,11.0,0.001951,-0.000628,-0.368573,-0.025433,0.006748,0.006479,-0.2429,-1.3632,0.0000,-0.00044055,-0.00134836,0.00000000,-0.00448994,0.02843026,0.02892218,-0.2546,0.2139,-9.4525,0.000664,0.112696,0.023919,2.6213,-13.6019,12.7856,28.4573,0.3690,164,0,0,0.004625,-0.003131,-0.368731,-0.036332,0.002413,0.004163,-0.4576,-0.0364,0.6088
15581,11.0,0.001593,-0.000640,-0.368706,-0.027042,0.005556,0.008381,-0.2555,-1.3285,0.0000,-0.00040745,-0.00137773,0.00000000,-0.00442179,0.02845728,0.03029419,-0.2957,0.0492,-9.3591,-0.009792,0.044306,0.042246,2.6213,-13.6019,12.7856,28.4573,0.3690,165,0,0,0.003556,-0.003138,-0.368447,-0.044380,0.003247,0.012626,-0.4562,0.0953,0.6173
15592,11.0,0.002273,-0.000638,-0.368497,-0.016594,0.003257,0.013695,-0.2628,-1.4156,0.0000,-0.00038778,-0.00098910,0.00000000,-0.00488745,0.02848902,0.02972624,-0.3111,-0.0862,-9.3961,-0.005769,-0.017723,0.022008,2.6213,-13.6019,12.7856,28.4573,0.3690,165,1,0,0.003397,-0.003686,-0.368107,-0.044235,-0.003923,0.019174,-0.4704,0.1128,0.6538
15603,11.0,0.003368,-0.001225,-0.368332,-0.002185,-0.006395,0.016414,-0.3164,-1.5580,0.0000,-0.00015396,-0.00047683,0.00000000,-0.00546906,0.02894908,0.02974068,-0.2818,-0.1653,-9.5301,-0.014686,-0.069343,-0.006301,2.6213,-13.6019,12.7856,28.4573,0.3690,161,1,-1,0.003996,-0.003677,-0.368597,-0.036118,-0.005331,0.015992,-0.4725,0.0897,0.6610
15614,11.0,0.004036,-0.001252,-0.368459,0.005983,-0.008202,0.013241,-0.3202,-1.6650,0.0000,-0.00017685,-0.00019778,0.00000000,-0.00573982,0.02890418,0.03156773,-0.2568,-0.1417,-9.7356,-0.013082,-0.086125,-0.043549,2.6213,-13.6019,12.7856,28.4573,0.3690,167,0,0,0.005796,-0.004767,-0.368090,-0.015719,-0.020489,0.022557,-0.5051,-0.0237,0.6573
15625,11.0,0.004514,-0.001273,-0.368319,0.011192,-0.008305,0.012293,-0.3174,-1.7336,0.0000,-0.00021161,-0.00003327,0.00000000,-0.00597628,0.02894772,0.03157118,-0.2501,-0.0047,-9.8621,-0.006476,-0.060547,-0.083728,2.6213,-13.6019,12.7856,28.4573,0.3710,166,0,0,0.006231,-0.004781,-0.367862,-0.011634,-0.020919,0.023070,-0.5066,-0.0796,0.6362
15636,11.0,0.004085,-0.001288,-0.368072,0.005382,-0.006764,0.011840,-0.3119,-1.7020,0.0000,-0.00024172,-0.00026381,0.00000000,-0.00576469,0.02892169,0.03083683,-0.2513,0.1479,-9.9501,-0.000383,-0.017220,-0.093080,2.6213,-13.6019,12.7856,28.4573,0.3710,161,-1,0,0.006563,-0.004795,-0.369580,-0.008923,-0.020226,0.002088,-0.5067,-0.1220,0.5977
15647,11.0,0.003850,-0.001315,-0.369527,0.002033,-0.003522,-0.007843,-0.3129,-1.6591,0.0000,-0.00024889,-0.00038818,0.00000000,-0.00542273,0.02873972,0.03994612,-0.2955,0.3462,-9.8822,-0.002838,0.031855,-0.066949,2.6213,-13.6019,12.7856,28.4573,0.3710,165,0,0,0.006125,-0.004836,-0.369563,-0.015362,-0.015659,-0.000279,-0.5004,-0.1218,0.5183
15658,11.0,0.003469,-0.001271,-0.369521,-0.003062,0.000767,-0.006940,-0.2895,-1.5994,0.0000,-0.00027589,-0.00055848,0.00000000,-0.00528382,0.02871667,0.03938429,-0.3316,0.4056,-9.7844,0.029212,0.046145,-0.018563,3.4649,-12.8292,12.0536,28.4573,0.3700,169,0,0,0.005951,-0.004859,-0.369414,-0.018098,-0.012112,0.000741,-0.4978,-0.0975,0.4934
15669,11.0,0.003145,-0.001181,-0.369596,-0.007575,0.004292,-0.006774,-0.2566,-1.5557,0.0000,-0.00029894,-0.00067801,0.00000000,-0.00513568,0.02859210,0.03938044,-0.3911,0.3302,-9.7472,0.046098,0.035825,0.017737,3.4649,-12.8292,12.0536,28.4573,0.3700,170,0,0,0.005706,-0.004848,-0.369751,-0.021547,-0.008155,-0.003045,-0.4818,-0.0659,0.4898
15680,11.0,0.003237,-0.001218,-0.369699,-0.006402,0.001825,-0.006415,-0.2765,-1.5747,0.0000,-0.00026597,-0.00059993,0.00000000,-0.00519799,0.02861932,0.03956714,-0.3520,-0.0724,-9.6979,-0.022811,-0.009501,0.081964,3.4649,-12.8292,12.0536,28.4573,0.3700,171,0,0,0.005355,-0.004762,-0.369695,-0.026874,-0.002958,-0.001027,-0.4332,-0.0250,0.6000
15691,11.0,0.003527,-0.001370,-0.369767,-0.002600,-0.004033,-0.005796,-0.3345,-1.6187,0.0000,-0.00021048,-0.00044040,0.00000000,-0.00531641,0.02884530,0.03956982,-0.3079,-0.3026,-9.7112,-0.078453,-0.027264,0.065790,3.4649,-12.8292,12.0536,28.4573,0.3710,166,0,0,0.005395,-0.004777,-0.369701,-0.026725,-0.004310,-0.000052,-0.4407,-0.0305,0.6524
15702,11.0,0.003255,-0.000872,-0.369707,-0.004642,-0.002330,-0.004239,-0.3183,-1.6218,0.0000,-0.00046226,-0.00054979,0.00000000,-0.00524592,0.02864612,0.03885549,-0.2086,-0.3560,-9.7637,-0.041589,-0.034307,-0.027358,3.4649,-12.8292,12.0536,28.4573,0.3710,165,-1,1,0.005780,-0.004940,-0.370444,-0.022342,-0.012652,-0.005745,-0.5171,-0.0718,0.7277
15713,11.0,0.003280,-0.000791,-0.370352,-0.002582,-0.003470,-0.011632,-0.2838,-1.6301,0.0000,-0.00053379,-0.00052908,0.00000000,-0.00535245,0.02888433,0.04218942,-0.1666,-0.1504,-9.8098,0.033524,-0.009565,-0.119770,3.4649,-12.8292,12.0536,28.4573,0.3710,166,0,0,0.005399,-0.004435,-0.370377,-0.025645,-0.010350,-0.003924,-0.5230,-0.0816,0.7117
15724,11.0,0.002872,-0.000618,-0.370389,-0.005481,-0.000568,-0.011114,-0.2165,-1.5761,0.0000,-0.00062728,-0.00070389,0.00000000,-0.00522908,0.02881245,0.04164501,-0.1431,0.1238,-9.8240,0.082175,0.040033,-0.156253,3.4649,-12.8292,12.0536,28.4573,0.3700,166,0,0,0.005424,-0.004389,-0.370416,-0.023947,-0.011611,-0.003929,-0.5020,-0.0901,0.6596
15735,11.0,0.001830,-0.000440,-0.370503,-0.015172,0.005611,-0.009516,-0.1501,-1.4267,0.0000,-0.00068975,-0.00115578,0.00000000,-0.00492182,0.02858195,0.04164165,-0.1164,0.4620,-9.6216,0.090040,0.120892,-0.094617,3.4649,-12.8292,12.0536,28.4573,0.3700,166,0,0,0.004771,-0.004189,-0.370090,-0.027878,-0.006256,0.000305,-0.4039,-0.0204,0.5151
15746,11.0,0.000795,-0.000281,-0.370136,-0.024636,0.010214,-0.000083,-0.0959,-1.2872,0.0000,-0.00072411,-0.00155190,0.00000000,-0.00463973,0.02854835,0.03917508,-0.1909,0.3914,-9.3843,0.076632,0.120979,-0.003871,3.4649,-12.8292,12.0536,28.4573,0.3700,165,0,0,0.004084,-0.004085,-0.370079,-0.033272,-0.001222,0.002021,-0.3488,0.0604,0.4768
15757,11.0,0.000818,-0.000786,-0.370105,-0.021596,0.004271,0.005744,-0.1221,-1.2669,0.0000,-0.00043909,-0.00141705,0.00000000,-0.00476672,0.02882139,0.03917750,-0.2445,0.1539,-9.2377,0.028285,0.063775,0.068907,3.0504,-13.6041,12.4119,28.4573,0.3710,165,1,-1,0.003340,-0.004458,-0.370503,-0.037177,-0.000351,0.004489,-0.2762,0.2013,0.5094
15768,11.0,0.001815,-0.001367,-0.369887,-0.008318,-0.005012,0.012948,-0.1707,-1.3887,0.0000,-0.00015721,-0.00084885,0.00000000,-0.00535561,0.02911431,0.03849121,-0.2917,-0.1559,-9.2470,-0.008919,-0.056603,0.078106,3.0504,-13.6041,12.4119,28.4573,0.3710,170,1,-1,0.003650,-0.004975,-0.370429,-0.032601,-0.005882,0.010328,-0.2756,0.2183,0.5565
15779,11.0,0.003079,-0.001973,-0.370353,0.006223,-0.014523,0.008846,-0.2189,-1.5853,0.0000,0.00008878,-0.00022146,0.00000000,-0.00592804,0.02934795,0.04187823,-0.3278,-0.2538,-9.4753,-0.017727,-0.162520,0.029526,3.0504,-13.6041,12.4119,28.4573,0.3710,164,0,-1,0.004424,-0.005516,-0.370175,-0.023876,-0.013068,0.017338,-0.2882,0.1784,0.6008
15790,11.0,0.004800,-0.002014,-0.370174,0.025032,-0.015315,0.007664,-0.2190,-1.8400,0.0000,0.00002724,0.00055241,0.00000000,-0.00664557,0.02928879,0.04135129,-0.2914,-0.1411,-9.9760,-0.014478,-0.220402,-0.055180,3.0504,-13.6041,12.4119,28.4573,0.3710,164,0,0,0.006178,-0.006086,-0.369571,-0.007009,-0.021921,0.024576,-0.3120,-0.0445,0.6236
15801,11.0,0.005603,-0.001495,-0.370123,0.031510,-0.006700,0.001733,-0.1797,-1.9869,0.0000,-0.00029770,0.00080208,0.00000000,-0.00683309,0.02904292,0.04135081,-0.2960,0.1415,-10.3033,-0.013970,-0.173634,-0.110024,3.0504,-13.6041,12.4119,28.4573,0.3690,169,-1,1,0.007303,-0.006100,-0.369115,0.003132,-0.021825,0.024828,-0.3159,-0.1880,0.5962
15812,11.0,0.005492,-0.000921,-0.369327,0.026840,0.003552,0.003466,-0.1278,-1.9906,0.0000,-0.00060254,0.00057995,0.00000000,-0.00679362,0.02886432,0.03697992,-0.3165,0.3362,-10.4771,0.010766,-0.056854,-0.094279,3.0504,-13.6041,12.4119,28.4811,0.3690,169,-1,1,0.007683,-0.005590,-0.368890,0.004445,-0.013901,0.020081,-0.3100,-0.2925,0.5419
15823,11.0,0.004810,-0.000267,-0.369326,0.016152,0.014748,-0.003253,-0.0598,-1.8658,0.0000,-0.00089233,0.00009829,0.00000000,-0.00658373,0.02873314,0.03697786,-0.3181,0.4551,-10.3784,0.040054,0.086568,-0.026325,3.0504,-13.6041,12.4119,28.4811,0.3730,167,0,1,0.007025,-0.004503,-0.368488,-0.007677,0.004584,0.007982,-0.2676,-0.3189,0.4681
15834,11.0,0.003463,-0.000235,-0.369261,-0.001457,0.015977,-0.004253,-0.0624,-1.6461,0.0000,-0.00082064,-0.00065599,0.00000000,-0.00629729,0.02875584,0.03635390,-0.3462,0.3023,-9.9817,0.011673,0.175032,0.029467,3.0504,-13.6041,12.4119,28.4811,0.3730,167,0,0,0.006511,-0.003912,-0.371116,-0.014657,0.013752,-0.025709,-0.2347,-0.2537,0.4710
15846,12.0,0.002888,-0.000780,-0.371267,-0.008771,0.009003,-0.024913,-0.1136,-1.5049,0.0000,-0.00044231,-0.00092869,0.00000000,-0.00589116,0.02877763,0.04662333,-0.3668,0.1716,-9.5804,0.004296,0.147791,0.049279,3.0504,-13.6041,12.4119,28.4811,0.3730,165,1,-1,0.005326,-0.004443,-0.371674,-0.028866,0.009219,-0.028689,-0.2391,-0.0351,0.5554
15858,12.0,0.002501,-0.001301,-0.371454,-0.012994,0.002027,-0.020268,-0.1440,-1.4540,0.0000,-0.00012921,-0.00106562,0.00000000,-0.00583121,0.02894557,0.04613196,-0.3454,0.0658,-9.4610,0.019831,0.044951,0.029560,3.4723,-12.8314,13.1441,28.4811,0.3690,167,0,-1,0.005158,-0.004977,-0.370288,-0.030835,0.003459,-0.007929,-0.2470,0.0498,0.6003
15869,11.0,0.003530,-0.001288,-0.371667,-0.000035,0.001003,-0.018370,-0.1415,-1.5729,0.0000,-0.00013103,-0.00047920,0.00000000,-0.00613508,0.02901168,0.04613615,-0.2874,-0.0369,-9.5874,0.002950,-0.059381,0.027901,3.4723,-12.8314,13.1441,28.4811,0.3690,161,1,0,0.005367,-0.005466,-0.370274,-0.028074,-0.002279,-0.000125,-0.2372,0.0773,0.6515
15880,11.0,0.004234,-0.001301,-0.370130,0.008262,-0.000868,0.001446,-0.1473,-1.6780,0.0000,-0.00012997,-0.00012619,0.00000000,-0.00656714,0.02913442,0.03721602,-0.2489,-0.1030,-9.7944,-0.009682,-0.089370,0.026226,3.4723,-12.8314,13.1441,28.4811,0.3690,163,0,0,0.005685,-0.005455,-0.370266,-0.024394,-0.003109,0.001831,-0.2347,0.0327,0.7269
15891,11.0,0.004655,-0.001305,-0.370125,0.012984,-0.001944,-0.000550,-0.1466,-1.7313,0.0000,-0.00014544,0.00002730,0.00000000,-0.00681128,0.02927311,0.03722254,-0.2028,-0.0578,-9.9531,-0.003558,-0.052456,0.001511,3.4723,-12.8314,13.1441,28.4467,0.3730,168,0,0,0.006128,-0.005455,-0.370246,-0.019402,-0.004431,0.002087,-0.2393,-0.0255,0.7451
15902,11.0,0.003761,-0.000681,-0.370015,0.002529,0.004792,-0.001187,-0.0911,-1.6352,0.0000,-0.00047540,-0.00050299,0.00000000,-0.00656063,0.02911193,0.03655313,-0.1821,-0.0026,-9.9689,0.016613,0.037924,-0.024247,3.4723,-12.8314,13.1441,28.4467,0.3730,167,-1,1,0.006487,-0.004897,-0.372062,-0.015169,0.000135,-0.018608,-0.2274,-0.0748,0.7526
15913,11.0,0.002727,-0.000585,-0.371583,-0.009032,0.004772,-0.019539,-0.0635,-1.4813,0.0000,-0.00049600,-0.00104853,0.00000000,-0.00609369,0.02904564,0.04441593,-0.2402,-0.0033,-9.7980,0.039058,0.126392,-0.009856,3.4723,-12.8314,13.1441,28.4467,0.3730,167,0,0,0.005669,-0.004328,-0.372121,-0.023701,0.005429,-0.018735,-0.2043,-0.0320,0.7542
15924,11.0,0.001591,-0.000514,-0.371691,-0.020565,0.003986,-0.016639,-0.0440,-1.3204,0.0000,-0.00050899,-0.00157992,0.00000000,-0.00580987,0.02904375,0.04390157,-0.2344,-0.0574,-9.6062,0.027856,0.141599,0.007401,3.4723,-12.8314,13.1441,28.4467,0.3680,168,0,0,0.005055,-0.004276,-0.372310,-0.029644,0.004813,-0.019130,-0.1823,0.0449,0.7640
15935,11.0,0.001524,-0.001674,-0.371850,-0.019165,-0.010772,-0.012301,-0.1293,-1.2789,0.0000,0.00010434,-0.00149719,0.00000000,-0.00586164,0.02943016,0.04389159,-0.2614,-0.0736,-9.3689,-0.007023,0.081572,-0.011307,3.4723,-12.8314,13.1441,28.4467,0.3680,168,1,-2,0.003666,-0.004214,-0.369551,-0.041953,0.002057,0.015760,-0.1538,0.2208,0.7986
15946,11.0,0.001686,-0.001694,-0.369672,-0.015752,-0.009817,0.018192,-0.1247,-1.3184,0.0000,0.00005209,-0.00130069,0.00000000,-0.00627798,0.02942124,0.03241051,-0.2958,0.0350,-9.4196,-0.003465,-0.023043,-0.036780,3.4723,-12.8314,13.1441,28.4467,0.3680,165,0,0,0.003846,-0.005297,-0.369372,-0.038304,-0.010918,0.020161,-0.1775,0.2564,0.8082
15957,11.0,0.002369,-0.002301,-0.369460,-0.006169,-0.014922,0.020257,-0.1618,-1.4310,0.0000,0.00031713,-0.00085921,0.00000000,-0.00659289,0.02950737,0.03240561,-0.2363,0.1028,-9.5873,-0.003585,-0.089247,-0.019905,2.6213,-13.2155,12.4196,28.4467,0.3730,167,0,-1,0.004142,-0.005863,-0.371257,-0.032990,-0.015440,0.001830,-0.1883,0.2095,0.7948
15968,11.0,0.003074,-0.002338,-0.369114,0.003219,-0.012092,0.021177,-0.1576,-1.5390,0.0000,0.00025542,-0.00046017,0.00000000,-0.00687937,0.02946313,0.03176047,-0.1887,0.1922,-9.8299,-0.005574,-0.090722,0.003881,2.6213,-13.2155,12.4196,28.4467,0.3730,163,0,0,0.004609,-0.005875,-0.371232,-0.026924,-0.013349,0.003279,-0.1884,0.1462,0.7931
15980,12.0,0.003371,-0.002346,-0.371073,0.007066,-0.009238,-0.006687,-0.1440,-1.5805,0.0000,0.00019873,-0.00033603,0.00000000,-0.00680657,0.02926632,0.04258053,-0.1910,0.1754,-9.9698,0.010231,-0.038802,0.025577,2.6213,-13.2155,12.4196,28.4467,0.3730,167,0,0,0.005069,-0.005891,-0.371073,-0.021128,-0.011006,0.004487,-0.1907,0.0845,0.8004
15991,11.0,0.003266,-0.002300,-0.371061,0.005862,-0.007161,-0.007639,-0.1180,-1.5613,0.0000,0.00012264,-0.00043468,0.00000000,-0.00675915,0.02922001,0.04208413,-0.1999,0.0949,-9.9597,0.026089,0.010208,0.045522,2.6213,-13.2155,12.4196,28.4467,0.3680,167,0,0,0.005338,-0.005872,-0.369147,-0.017702,-0.006885,0.021559,-0.1726,0.0486,0.8036
16002,11.0,0.002718,-0.002323,-0.371145,-0.000702,-0.007806,-0.007702,-0.1180,-1.4739,0.0000,0.00008080,-0.00076137,0.00000000,-0.00658680,0.02932153,0.04208640,-0.2402,-0.0759,-9.7709,-0.009255,0.072679,0.050905,2.6213,-13.2155,12.4196,28.4467,0.3680,166,0,0,0.005081,-0.005852,-0.368936,-0.020639,-0.006312,0.020558,-0.1593,0.0822,0.8468
16013,11.0,0.002362,-0.002370,-0.369318,-0.004627,-0.009155,0.016014,-0.1284,-1.4203,0.0000,0.00005475,-0.00094330,0.00000000,-0.00665049,0.02929945,0.03284158,-0.2560,-0.1234,-9.6213,-0.021062,0.048865,0.024007,2.6213,-13.2155,12.4196,28.4467,0.3680,166,0,0,0.004371,-0.005888,-0.368363,-0.028194,-0.008204,0.023251,-0.1665,0.1764,0.9269
16024,11.0,0.002391,-0.002367,-0.369132,-0.004137,-0.009883,0.017807,-0.1176,-1.4283,0.0000,-0.00001533,-0.00089751,0.00000000,-0.00664384,0.02939018,0.03284190,-0.2852,-0.1348,-9.6105,0.002264,-0.004390,0.006001,2.6213,-13.2155,12.4196,28.4467,0.3730,171,0,0,0.004128,-0.004816,-0.371010,-0.030373,0.002267,-0.006245,-0.1549,0.2015,0.9461
16035,11.0,0.002723,-0.002355,-0.368807,-0.000206,-0.009600,0.019762,-0.1037,-1.4807,0.0000,-0.00008346,-0.00069433,0.00000000,-0.00678571,0.02934124,0.03221583,-0.2816,-0.0557,-9.7335,0.008649,-0.044050,-0.016956,2.6213,-13.2155,12.4196,28.4467,0.3730,169,0,0,0.004122,-0.004804,-0.370962,-0.030106,0.000260,-0.003207,-0.1540,0.2006,0.9628
16046,11.0,0.003141,-0.002351,-0.370931,0.004603,-0.007988,-0.008804,-0.0916,-1.5413,0.0000,-0.00013981,-0.00047198,0.00000000,-0.00673184,0.02929420,0.04341531,-0.2561,0.0836,-9.9004,0.007753,-0.054629,-0.022408,2.6213,-13.2155,12.4196,28.4467,0.3730,168,0,0,0.004543,-0.004761,-0.371011,-0.025221,-0.001121,-0.002224,-0.1423,0.1397,0.9706
16057,11.0,0.002716,-0.002329,-0.370947,-0.000537,-0.006016,-0.010600,-0.0748,-1.5230,0.0000,-0.00019663,-0.00073080,0.00000000,-0.00659421,0.02925977,0.04293595,-0.2559,0.1171,-10.0332,0.015610,-0.021550,0.011199,2.2067,-13.6041,13.8763,28.4467,0.3690,163,-1,0,0.004784,-0.004745,-0.369749,-0.022494,-0.000603,0.010608,-0.1373,0.1062,0.9715
16068,11.0,0.002549,-0.002348,-0.371078,-0.002143,-0.005658,-0.013293,-0.0752,-1.4978,0.0000,-0.00022195,-0.00081936,0.00000000,-0.00655182,0.02923112,0.04293676,-0.2540,0.0256,-10.0088,-0.005692,0.022121,0.050101,2.2067,-13.6041,13.8763,28.4467,0.3690,163,0,0,0.004335,-0.004736,-0.369654,-0.027362,0.000061,0.008378,-0.1285,0.1028,0.9914
16079,11.0,0.001986,-0.002449,-0.369874,-0.008030,-0.008548,0.001317,-0.1079,-1.4118,0.0000,-0.00020552,-0.00111451,0.00000000,-0.00651358,0.02918934,0.03650796,-0.2467,-0.1941,-9.8742,-0.048095,0.079359,0.070760,2.2067,-13.6041,13.8763,28.4467,0.3690,167,0,0,0.004020,-0.004780,-0.369386,-0.029555,-0.001473,0.006038,-0.1471,0.1424,0.9708
16090,11.0,0.001324,-0.002524,-0.369853,-0.015104,-0.012334,0.002630,-0.1262,-1.3177,0.0000,-0.00024003,-0.00142580,0.00000000,-0.00631192,0.02933418,0.03650947,-0.3042,-0.3428,-9.6503,-0.036863,0.088931,0.049144,2.2067,-13.6041,13.8763,28.5049,0.3740,167,0,0,0.003634,-0.004844,-0.369328,-0.032989,-0.004598,0.005572,-0.1734,0.1945,1.0250
16101,11.0,0.000814,-0.002564,-0.369706,-0.019465,-0.015607,0.006248,-0.1311,-1.2528,0.0000,-0.00030621,-0.00161360,0.00000000,-0.00621196,0.02929352,0.03600527,-0.2734,-0.3706,-9.5559,-0.020387,0.066037,-0.001081,2.2067,-13.6041,13.8763,28.5049,0.3740,167,0,0,0.002827,-0.004926,-0.372463,-0.039841,-0.011997,-0.021942,-0.2061,0.2956,1.0941
16112,11.0,0.000660,-0.002559,-0.371963,-0.019325,-0.015120,-0.018627,-0.1096,-1.2459,0.0000,-0.00042803,-0.00157663,0.00000000,-0.00597153,0.02953700,0.04694268,-0.2683,-0.0984,-9.5530,0.007726,0.015847,-0.094364,2.2067,-13.6041,13.8763,28.5049,0.3740,168,0,0,0.002550,-0.004385,-0.372555,-0.041252,-0.008682,-0.017744,-0.1984,0.3265,1.0797
16123,11.0,0.000624,-0.002522,-0.372079,-0.017881,-0.011778,-0.016184,-0.0792,-1.2579,0.0000,-0.00053664,-0.00147753,0.00000000,-0.00604277,0.02945576,0.04655293,-0.2688,0.1497,-9.6258,0.027511,-0.001990,-0.089902,2.2067,-13.6041,13.8763,28.5049,0.3690,169,0,0,0.002428,-0.004376,-0.372719,-0.041058,-0.009550,-0.015137,-0.1921,0.3353,1.0447
16134,11.0,0.000606,-0.002472,-0.372251,-0.016321,-0.007409,-0.015052,-0.0486,-1.2725,0.0000,-0.00061762,-0.00137478,0.00000000,-0.00608008,0.02923771,0.04655149,-0.2637,0.2721,-9.6568,0.034171,-0.005224,-0.047246,2.2067,-13.6041,13.8763,28.5049,0.3690,169,0,0,0.002355,-0.004315,-0.370313,-0.039211,-0.005292,0.014147,-0.1567,0.3318,0.9850
16145,11.0,0.000429,-0.002492,-0.370438,-0.016532,-0.005481,0.009415,-0.0495,-1.2590,0.0000,-0.00063400,-0.00137337,0.00000000,-0.00626892,0.02899475,0.03746297,-0.2441,0.1608,-9.6233,-0.002810,0.020932,0.049490,2.2067,-13.6041,13.8763,28.5049,0.3690,174,0,0,0.002278,-0.003747,-0.370164,-0.038535,0.003179,0.015557,-0.1308,0.3340,0.9920
16156,11.0,0.000258,-0.002561,-0.370323,-0.016635,-0.007521,0.011551,-0.0666,-1.2441,0.0000,-0.00064774,-0.00136488,0.00000000,-0.00624681,0.02915951,0.03746269,-0.2394,-0.1538,-9.5757,-0.031642,0.024086,0.085297,3.0431,-13.2155,12.7856,28.5049,0.3730,168,0,0,0.002168,-0.003749,-0.369868,-0.038382,0.003823,0.018725,-0.1315,0.3432,1.0300
16167,11.0,0.000302,-0.002661,-0.370088,-0.014030,-0.011348,0.015495,-0.0964,-1.2587,0.0000,-0.00064944,-0.00123822,0.00000000,-0.00634757,0.02914588,0.03702783,-0.2095,-0.3119,-9.5126,-0.048244,-0.001340,0.040231,3.0431,-13.2155,12.7856,28.5392,0.3730,168,0,0,0.001992,-0.003824,-0.371631,-0.037523,-0.001865,0.002375,-0.1687,0.3612,1.1525
16178,11.0,0.000540,-0.002682,-0.371542,-0.009353,-0.013442,-0.001116,-0.0890,-1.3024,0.0000,-0.00074279,-0.00102000,0.00000000,-0.00637477,0.02947309,0.04448104,-0.1912,-0.2756,-9.5473,-0.009885,-0.031383,-0.046275,3.0431,-13.2155,12.7856,28.5392,0.3730,166,0,0,0.002026,-0.003873,-0.371500,-0.035583,-0.005941,0.006333,-0.1947,0.3571,1.1874
16189,11.0,0.000860,-0.002662,-0.371476,-0.004401,-0.014168,0.001161,-0.0696,-1.3571,0.0000,-0.00084497,-0.00078357,0.00000000,-0.00655828,0.02938048,0.04414540,-0.2088,-0.2093,-9.6343,0.011336,-0.044777,-0.071633,3.0431,-13.2155,12.7856,28.5392,0.3690,165,0,0,0.002152,-0.003891,-0.371423,-0.032695,-0.009038,0.009045,-0.2056,0.3385,1.1767
16200,11.0,0.001201,-0.002732,-0.371462,0.000408,-0.013146,0.001391,-0.0794,-1.4066,0.0000,-0.00088848,-0.00057190,0.00000000,-0.00679664,0.02927874,0.04414482,-0.1958,0.0474,-9.7431,-0.023879,-0.041622,-0.063779,3.0431,-13.2155,12.7856,28.5392,0.3690,168,0,0,0.002561,-0.003853,-0.369611,-0.026227,-0.011376,0.027937,-0.1917,0.2786,1.1373
16211,11.0,0.001513,-0.002836,-0.369995,0.004316,-0.011155,0.018178,-0.1029,-1.4483,0.0000,-0.00089439,-0.00040090,0.00000000,-0.00704608,0.02907116,0.03762035,-0.2052,0.1948,-9.7746,-0.037229,-0.035301,-0.047109,3.0431,-13.2155,12.7856,28.5392,0.3690,168,0,0,0.002784,-0.003883,-0.369328,-0.023242,-0.010962,0.028581,-0.2017,0.2501,1.1192
16222,11.0,0.001932,-0.002894,-0.369802,0.008441,-0.009119,0.016984,-0.1113,-1.5039,0.0000,-0.00091744,-0.00018962,0.00000000,-0.00718566,0.02891616,0.03761750,-0.2629,0.1749,-9.8774,-0.017256,-0.050615,0.002796,3.0431,-13.2155,12.7856,28.5392,0.3720,168,0,0,0.003233,-0.003988,-0.370622,-0.018610,-0.008049,0.008290,-0.2360,0.1941,1.1057
16233,11.0,0.002398,-0.003577,-0.369522,0.013252,-0.015195,0.016064,-0.1737,-1.5612,0.0000,-0.00058234,0.00002145,0.00000000,-0.00732960,0.02911893,0.03713522,-0.2105,0.0952,-9.9683,-0.039608,-0.053182,0.045642,3.0431,-13.2155,12.7856,28.5049,0.3720,169,0,-1,0.003504,-0.004019,-0.370460,-0.016394,-0.006804,0.008308,-0.2463,0.1603,1.1244
16244,11.0,0.002729,-0.003719,-0.370722,0.015998,-0.015916,-0.002634,-0.2042,-1.5921,0.0000,-0.00061657,0.00012016,0.00000000,-0.00737730,0.02936918,0.04317005,-0.2173,-0.0409,-10.0314,-0.057727,-0.032553,0.030708,3.0431,-13.2155,12.7856,28.5049,0.3720,171,0,0,0.003811,-0.004621,-0.370385,-0.013654,-0.012413,0.006682,-0.2777,0.1271,1.1642
16255,11.0,0.002377,-0.003687,-0.370684,0.011353,-0.014876,-0.004172,-0.1767,-1.5293,0.0000,-0.00074039,-0.00018897,0.00000000,-0.00720753,0.02929427,0.04280417,-0.1595,-0.0603,-9.9945,0.020909,0.044417,-0.010500,3.0394,-13.6007,12.7894,28.5049,0.3690,171,0,0,0.004108,-0.004756,-0.369457,-0.011647,-0.013574,0.011442,-0.3271,0.1001,1.2224
16266,11.0,0.001528,-0.003565,-0.370735,0.001429,-0.012579,-0.005067,-0.1167,-1.3986,0.0000,-0.00091777,-0.00076832,0.00000000,-0.00706527,0.02932634,0.04281232,-0.1672,-0.0306,-9.8473,0.061873,0.102258,-0.039230,3.0394,-13.6007,12.7894,28.5049,0.3690,164,0,0,0.003884,-0.004739,-0.369352,-0.014340,-0.013457,0.009548,-0.3122,0.1284,1.2303
16278,12.0,0.000460,-0.003499,-0.369689,-0.010358,-0.010553,0.008381,-0.0749,-1.2376,0.0000,-0.00104042,-0.00139629,0.00000000,-0.00675068,0.02916995,0.03800845,-0.2056,0.0131,-9.7088,0.041111,0.131519,-0.054561,3.0394,-13.6007,12.7894,28.5049,0.3690,167,0,0,0.002716,-0.004619,-0.369055,-0.026860,-0.011476,0.010298,-0.2406,0.2723,1.1823
16290,12.0,-0.000206,-0.003533,-0.369561,-0.016653,-0.009612,0.012979,-0.0720,-1.1452,0.0000,-0.00109467,-0.00170739,0.00000000,-0.00654431,0.02913746,0.03800964,-0.2290,0.0322,-9.3860,-0.005475,0.082572,-0.016950,3.0394,-13.6007,12.7894,28.4124,0.3710,169,0,0,0.002036,-0.004618,-0.368940,-0.033687,-0.010405,0.012527,-0.2284,0.3590,1.1674
16301,11.0,-0.000245,-0.003559,-0.369248,-0.015407,-0.009595,0.019675,-0.0718,-1.1507,0.0000,-0.00114234,-0.00162368,0.00000000,-0.00661185,0.02909132,0.03737420,-0.2286,-0.0434,-9.3155,-0.009128,0.004334,0.015702,3.0394,-13.6007,12.7894,28.4124,0.3710,167,0,0,0.001286,-0.004655,-0.370060,-0.039475,-0.009739,0.007228,-0.2287,0.4499,1.1801
16312,11.0,0.000324,-0.003038,-0.370065,-0.007341,-0.004680,0.011115,-0.0481,-1.2401,0.0000,-0.00151204,-0.00120205,0.00000000,-0.00688614,0.02886696,0.04189097,-0.2174,-0.1642,-9.4420,-0.029561,-0.070130,0.003946,3.0394,-13.6007,12.7894,28.4124,0.3710,171,0,1,0.001357,-0.004670,-0.369816,-0.037230,-0.010353,0.013419,-0.2333,0.4375,1.2031
16323,11.0,0.001040,-0.003152,-0.369825,0.002058,-0.007299,0.014275,-0.0837,-1.3434,0.0000,-0.00148166,-0.00074639,0.00000000,-0.00723788,0.02887367,0.04141096,-0.1694,-0.1494,-9.5972,-0.052888,-0.085311,-0.027441,3.0394,-13.6007,12.7894,28.4124,0.3690,169,0,0,0.001679,-0.004153,-0.369663,-0.032415,-0.005965,0.017156,-0.2381,0.3927,1.2202
16335,12.0,0.001453,-0.003240,-0.369654,0.006654,-0.007878,0.014309,-0.1053,-1.3991,0.0000,-0.00148595,-0.00052747,0.00000000,-0.00744281,0.02891085,0.04141051,-0.2135,-0.0081,-9.7639,-0.034007,-0.047025,-0.068039,3.0394,-13.6007,12.7894,28.4124,0.3690,168,0,0,0.002517,-0.004264,-0.368838,-0.021574,-0.009447,0.025251,-0.2909,0.2865,1.2166
16346,11.0,0.001477,-0.003235,-0.369079,0.006293,-0.005636,0.018535,-0.0939,-1.3981,0.0000,-0.00153331,-0.00055557,0.00000000,-0.00743878,0.02884588,0.03963182,-0.2306,0.1647,-9.8224,0.008739,-0.003580,-0.081830,3.0394,-13.6007,12.7894,28.4124,0.3690,169,0,0,0.002754,-0.004303,-0.368585,-0.019033,-0.009677,0.025381,-0.3059,0.2559,1.1926
16357,11.0,0.001308,-0.003195,-0.368879,0.003648,-0.002144,0.017875,-0.0737,-1.3710,0.0000,-0.00157212,-0.00069274,0.00000000,-0.00733552,0.02864953,0.03963176,-0.2469,0.2757,-9.8270,0.025106,0.018598,-0.075494,3.0541,-13.6053,13.1404,28.4124,0.3710,171,0,0,0.002823,-0.004315,-0.368156,-0.018639,-0.008521,0.027148,-0.3063,0.2481,1.1602
16368,11.0,0.001064,-0.003204,-0.368543,0.000267,0.001699,0.019582,-0.0701,-1.3333,0.0000,-0.00156803,-0.00085620,0.00000000,-0.00722884,0.02864375,0.03902729,-0.2628,0.3971,-9.7625,0.005035,0.030814,-0.035547,3.0541,-13.6053,13.1404,28.4124,0.3710,163,0,0,0.002587,-0.004282,-0.369659,-0.022428,-0.002655,0.007045,-0.2773,0.2741,1.1023
16379,11.0,0.001004,-0.003256,-0.369734,-0.001367,0.003134,0.003791,-0.0878,-1.3219,0.0000,-0.00151283,-0.00088820,0.00000000,-0.00709890,0.02860992,0.04494069,-0.3244,0.2577,-9.7178,-0.019708,0.011095,0.029152,3.0541,-13.6053,13.1404,28.4124,0.3710,168,0,0,0.002418,-0.004287,-0.369448,-0.024848,0.000462,0.008910,-0.2724,0.2952,1.0915
16389,10.0,0.000574,-0.003330,-0.369588,-0.006462,0.002939,0.005866,-0.1118,-1.3034,0.0000,-0.00144893,-0.00112929,0.00000000,-0.00693984,0.02865037,0.04449048,-0.2782,0.1465,-9.6787,-0.031237,-0.014395,0.068992,3.0541,-13.6053,13.1404,28.4124,0.3690,165,-1,0,0.002343,-0.004319,-0.369356,-0.026444,0.002186,0.009589,-0.2814,0.3060,1.0910
16400,11.0,0.000898,-0.003282,-0.369527,-0.002109,0.001555,0.005237,-0.0966,-1.3566,0.0000,-0.00147403,-0.00089753,0.00000000,-0.00708401,0.02878314,0.04448933,-0.2381,-0.1052,-9.8203,0.017065,-0.045359,0.014440,3.0541,-13.6053,13.1404,28.4124,0.3690,166,0,0,0.001993,-0.004385,-0.368871,-0.030110,0.001063,0.014004,-0.3077,0.2905,1.1811
16411,11.0,0.001069,-0.003155,-0.370162,0.000062,0.001365,-0.004791,-0.0548,-1.3872,0.0000,-0.00154127,-0.00078380,0.00000000,-0.00711706,0.02872499,0.04733399,-0.2441,-0.0908,-9.9524,0.053157,-0.030054,-0.036380,3.0541,-13.6053,13.1404,28.4124,0.3710,165,0,0,0.002196,-0.004352,-0.368732,-0.027434,-0.000478,0.013893,-0.2990,0.2593,1.2012
16422,11.0,0.000627,-0.003054,-0.370224,-0.003820,0.002225,-0.006561,-0.0210,-1.3230,0.0000,-0.00158715,-0.00106721,0.00000000,-0.00721509,0.02862030,0.04734190,-0.1406,0.0286,-9.9232,0.044865,0.049760,-0.078328,3.0541,-13.6053,13.1404,28.4124,0.3710,164,0,0,0.002289,-0.004192,-0.369823,-0.025085,-0.001969,-0.002325,-0.2380,0.2327,1.1795
16433,11.0,-0.000419,-0.003514,-0.370161,-0.014017,-0.001428,-0.005206,-0.0156,-1.1789,0.0000,-0.00129635,-0.00166108,0.00000000,-0.00684723,0.02880914,0.04675762,-0.1322,0.2049,-9.7890,0.057103,0.125023,-0.103053,3.0541,-13.6053,13.1404,28.4124,0.3710,165,0,-1,0.001937,-0.004133,-0.369723,-0.027795,-0.001406,-0.001909,-0.2098,0.2737,1.1464
16444,11.0,-0.001837,-0.003385,-0.370601,-0.028243,0.003716,-0.007160,0.0327,-0.9900,0.0000,-0.00135475,-0.00240237,0.00000000,-0.00631142,0.02856045,0.04840156,-0.2104,0.3740,-9.5167,0.066524,0.170518,-0.094777,3.0541,-13.6053,13.1404,28.4124,0.3710,166,0,0,0.000402,-0.004548,-0.369751,-0.041356,-0.001260,-0.000027,-0.1434,0.4580,1.0648
16455,11.0,-0.002220,-0.003994,-0.370560,-0.029842,0.000119,-0.000609,-0.0145,-0.9075,0.0000,-0.00096282,-0.00244172,0.00000000,-0.00628695,0.02886029,0.04802032,-0.2438,0.3796,-9.2614,-0.008908,0.121826,-0.031059,1.7885,-13.9916,12.7742,28.4705,0.3680,173,1,-1,-0.000500,-0.004498,-0.368550,-0.049152,0.002341,0.016157,-0.1092,0.5676,1.0399
16466,11.0,-0.002483,-0.004144,-0.370529,-0.029564,0.001342,0.006244,-0.0639,-0.8857,0.0000,-0.00086463,-0.00240238,0.00000000,-0.00631916,0.02894360,0.04802031,-0.1951,0.3142,-9.1369,-0.062460,0.038857,-0.000826,1.7885,-13.9916,12.7742,28.4705,0.3680,173,0,0,-0.000590,-0.005060,-0.368363,-0.047950,-0.000876,0.021447,-0.1228,0.6363,1.0266
16477,11.0,-0.001046,-0.004223,-0.369012,-0.011040,0.002880,0.027351,-0.0890,-1.0649,0.0000,-0.00081318,-0.00137093,0.00000000,-0.00728007,0.02915210,0.04221307,-0.2692,0.2892,-9.3461,-0.031303,-0.110899,0.009481,1.7885,-13.9916,12.7742,28.4705,0.3680,166,1,0,-0.000199,-0.005218,-0.367671,-0.039866,0.002405,0.034936,-0.1881,0.6425,0.8668
