timestamp_ms,dt_ms,pos_x,pos_y,pos_z,vel_x,vel_y,vel_z,roll_deg,pitch_deg,yaw_deg,gyro_bias_x,gyro_bias_y,gyro_bias_z,accel_bias_x,accel_bias_y,accel_bias_z,raw_accel_x,raw_accel_y,raw_accel_z,raw_gyro_x,raw_gyro_y,raw_gyro_z,raw_mag_x,raw_mag_y,raw_mag_z,raw_baro_alt,raw_tof,raw_flow_squal,raw_flow_dx,raw_flow_dy,dev_pos_x,dev_pos_y,dev_pos_z,dev_vel_x,dev_vel_y,dev_vel_z,dev_roll_deg,dev_pitch_deg,dev_yaw_deg
14539,10.0,-0.000080,-0.000154,-0.341200,-0.006475,-0.012132,-0.000844,-0.0159,0.0229,-0.0060,0.00000000,0.00000000,0.01476452,-0.02616627,0.07205386,0.00000000,0.2785,0.7286,-9.8091,-0.035042,0.043760,0.004251,28.5665,5.6133,37.6871,-46.0443,0.3410,221,0,0,-0.002857,-0.001763,-0.354623,0.168369,0.147042,-0.325865,-0.7837,-0.3150,-1.6539
14550,11.0,-0.000144,-0.000273,-0.341208,-0.003181,0.000260,-0.000523,-2.1850,0.4939,-0.0356,0.00000402,-0.00000086,0.01476455,-0.02690949,0.06841853,-0.00000131,0.1552,0.6137,-9.8271,-0.005132,0.027643,0.004771,28.5665,5.6133,37.6871,-46.0443,0.3410,221,0,0,-0.002984,-0.002014,-0.362486,0.173181,0.154275,-0.327112,-0.8155,-0.2790,-1.6607
14561,11.0,-0.000179,-0.000277,-0.345160,0.000165,0.008606,-0.170730,-3.6630,1.0218,-0.0714,0.00001149,-0.00000350,0.01476454,-0.02793658,0.06551099,-0.00009122,0.1575,0.6233,-9.7978,0.017309,0.005597,-0.002818,28.5665,5.6133,37.6871,-46.0443,0.3420,221,0,0,-0.003001,-0.002023,-0.365722,0.174230,0.156839,-0.326868,-0.8144,-0.2697,-1.6637
14573,12.0,-0.000179,-0.000187,-0.341386,0.003211,0.025313,-0.002542,-6.2258,1.4721,-0.1291,0.00004406,-0.00000916,0.01476478,-0.02888037,0.06017695,-0.00112520,0.1691,0.7680,-9.7454,0.055834,-0.001924,0.008827,28.5665,5.6133,37.6871,-46.0443,0.3420,221,0,0,-0.002936,-0.001842,-0.368060,0.174852,0.163196,-0.319761,-0.7724,-0.2666,-1.6527
14584,11.0,-0.000146,0.000072,-0.341801,0.003704,0.021963,-0.012398,-6.2392,1.5762,-0.1290,0.00004516,-0.00001205,0.01476456,-0.02911632,0.06008573,-0.00108796,0.1892,0.7897,-9.7710,0.045151,-0.010246,0.008913,28.5665,5.6133,37.6871,-46.0231,0.3420,217,0,0,-0.002590,-0.001343,-0.368739,0.143110,0.166259,-0.300832,-0.3526,-0.1723,-0.6733
14595,11.0,-0.000105,0.000290,-0.341944,0.003421,0.010424,-0.013237,-5.3213,1.5313,-0.0620,0.00000456,-0.00001044,0.01476339,-0.02907068,0.06187174,-0.00017079,0.2479,0.8803,-9.8521,0.020319,-0.020597,0.005092,28.5665,5.6133,37.6871,-46.0231,0.3420,219,0,0,-0.002557,-0.001143,-0.373073,0.145364,0.171688,-0.302163,-0.3271,-0.1825,-0.6742
14606,11.0,-0.000064,0.000391,-0.340069,0.003382,0.004647,0.021674,-4.9337,1.4323,-0.0065,-0.00002155,-0.00000446,0.01476277,-0.02888432,0.06268629,-0.00061790,0.3232,0.8568,-9.9062,0.012385,-0.023362,0.019104,28.5665,5.6133,37.6871,-46.0231,0.3410,223,0,0,-0.002445,-0.001121,-0.372078,0.146662,0.183751,-0.291060,-0.2840,-0.2086,-0.6313
14617,11.0,-0.000027,0.000534,-0.339839,0.001388,0.054682,0.020125,-8.7402,1.1952,-0.6394,0.00035084,0.00001436,0.01477901,-0.02837878,0.05439506,-0.00305164,0.2918,0.7981,-9.8951,0.005328,-0.000766,0.025791,28.5665,5.6133,37.6871,-46.0231,0.3410,222,0,1,-0.002432,-0.001115,-0.376170,0.150279,0.189518,-0.293637,-0.2782,-0.2259,-0.6260
14628,11.0,-0.000021,0.001003,-0.339989,-0.002587,0.010329,0.014642,-6.4913,0.9741,-0.5196,0.00005226,0.00004753,0.01477414,-0.02788648,0.05947345,0.00214579,0.1948,0.6931,-9.8616,-0.012733,0.032979,0.021029,28.5665,5.6133,37.6871,-46.0231,0.3410,220,0,0,-0.002420,-0.000357,-0.379087,0.152952,0.195424,-0.294179,-0.2729,-0.2306,-0.6110
14639,11.0,-0.000061,0.001076,-0.339772,-0.006831,0.000579,0.017394,-6.2463,0.7888,-0.5177,0.00000752,0.00008720,0.01477592,-0.02716130,0.05993554,0.00248341,0.1253,0.6586,-9.6085,-0.021233,0.071954,0.009656,27.8902,6.3227,38.5962,-46.0231,0.3420,221,0,0,-0.002459,-0.000489,-0.378583,0.152727,0.204185,-0.282902,-0.2668,-0.1882,-0.5540
14650,11.0,-0.000134,0.001052,-0.339762,-0.006080,-0.005548,0.018435,-6.1930,0.8396,-0.5437,-0.00000737,0.00008187,0.01477547,-0.02727413,0.06018405,0.00298808,0.1325,0.6619,-9.4778,-0.023645,0.044725,-0.000968,27.8902,6.3227,38.5962,-46.0231,0.3420,219,0,0,-0.002541,-0.000531,-0.381383,0.153637,0.207955,-0.280539,-0.2784,-0.1508,-0.5502
14661,11.0,-0.000182,0.000959,-0.339545,-0.000167,-0.012821,0.020823,-6.0536,1.0703,-0.5836,-0.00004777,0.00001409,0.01477041,-0.02833693,0.06057166,0.00319899,0.1586,0.7271,-9.5782,-0.018052,-0.033214,-0.002108,27.8902,6.3227,38.5962,-46.0231,0.3420,216,0,0,-0.002645,-0.000694,-0.388036,0.156147,0.215917,-0.275519,-0.3024,-0.1189,-0.5571
14671,10.0,-0.000169,0.000801,-0.339861,0.004104,-0.020612,0.015409,-5.8638,1.1863,-0.5633,-0.00011283,-0.00003647,0.01476494,-0.02894576,0.06118152,0.00491199,0.2247,0.7872,-9.7636,-0.023114,-0.075598,0.006680,27.8902,6.3227,38.5962,-46.0760,0.3420,217,0,0,-0.002560,-0.000934,-0.383552,0.153649,0.220955,-0.260136,-0.2906,-0.1367,-0.5139
14682,11.0,-0.000120,0.000575,-0.339701,0.004846,-0.018240,0.014034,-6.0883,1.1593,-0.5807,-0.00003216,-0.00004173,0.01476663,-0.02897516,0.06044112,0.00470320,0.2122,0.8097,-9.8942,-0.014326,-0.062785,0.000893,27.8902,6.3227,38.5962,-46.0760,0.3420,215,0,0,-0.002489,-0.001188,-0.386157,0.153527,0.224762,-0.259577,-0.3267,-0.0889,-0.6130
14693,11.0,-0.000076,0.000374,-0.339730,0.001784,-0.015879,0.011029,-6.3316,1.0111,-0.6128,0.00006793,0.00001630,0.01477361,-0.02859671,0.05972141,0.00527748,0.2102,0.7794,-9.8858,-0.020724,-0.019744,0.004525,27.8902,6.3227,38.5962,-46.0760,0.3420,215,0,0,-0.002445,-0.001397,-0.388742,0.155412,0.229700,-0.260000,-0.3351,-0.1298,-0.6152
14704,11.0,-0.000073,0.000200,-0.339739,-0.003633,-0.013342,0.009779,-6.5730,0.7950,-0.7126,0.00017941,0.00013507,0.01478679,-0.02769478,0.05872512,0.00561216,0.2612,0.7926,-9.7717,-0.032053,0.042090,-0.010396,27.8902,6.3227,38.5962,-46.0760,0.3420,211,0,0,-0.002484,-0.001716,-0.394832,0.159486,0.238828,-0.262464,-0.3629,-0.1463,-0.6253
14715,11.0,-0.000110,0.000066,-0.339754,-0.003477,-0.007472,0.009126,-6.9206,0.7735,-0.7715,0.00037443,0.00015579,0.01479393,-0.02754642,0.05727320,0.00579119,0.2176,0.7806,-9.7231,-0.014404,0.030011,-0.001192,27.8902,6.3227,38.5962,-46.0760,0.3420,211,0,0,-0.002480,-0.001932,-0.389164,0.157463,0.244814,-0.246539,-0.3587,-0.1160,-0.5917
14726,11.0,-0.000131,-0.000017,-0.339658,0.000247,-0.004714,0.008977,-7.1760,0.8252,-0.8443,0.00054199,0.00011452,0.01479682,-0.02772263,0.05592638,0.00523057,0.2626,0.7395,-9.7930,0.000687,-0.010894,0.003304,27.5452,7.0612,38.9704,-46.0760,0.3420,214,0,0,-0.002568,-0.002036,-0.394058,0.161410,0.253925,-0.244699,-0.3716,-0.0884,-0.5982
14737,11.0,-0.000115,-0.000070,-0.340018,0.003361,-0.002171,0.003938,-7.4139,0.8502,-0.8877,0.00072034,0.00007817,0.01479967,-0.02798827,0.05474412,0.00809440,0.2458,0.7891,-9.8651,0.011857,-0.034068,0.012482,27.5452,7.0612,38.9704,-46.0760,0.3430,214,0,0,-0.002492,-0.002139,-0.388985,0.159685,0.259797,-0.230175,-0.3488,-0.0890,-0.5575
14748,11.0,-0.000078,-0.000101,-0.339984,0.002869,-0.001145,0.002648,-7.6119,0.7946,-0.9148,0.00088701,0.00011227,0.01480667,-0.02776945,0.05367991,0.00746000,0.2107,0.7665,-9.8982,0.009035,-0.017821,0.006000,27.5452,7.0612,38.9704,-46.0601,0.3430,212,0,0,-0.002466,-0.002145,-0.391285,0.161840,0.264470,-0.230574,-0.3418,-0.1084,-0.5545
14759,11.0,-0.000054,-0.000137,-0.340106,0.000101,-0.004711,0.000248,-7.6805,0.6758,-0.9695,0.00094318,0.00022093,0.01481750,-0.02730281,0.05333908,0.00864536,0.2676,0.8346,-9.8776,-0.009057,0.010204,0.001924,27.5452,7.0612,38.9704,-46.0601,0.3430,212,0,0,-0.002463,-0.002165,-0.396774,0.166161,0.273559,-0.233689,-0.3373,-0.1276,-0.5620
14770,11.0,-0.000061,-0.000232,-0.339998,-0.002504,-0.013431,0.001371,-7.6222,0.5819,-1.0141,0.00086592,0.00032253,0.01482436,-0.02669859,0.05355323,0.00777964,0.2278,0.8339,-9.7668,-0.031962,0.018417,-0.003220,27.5452,7.0612,38.9704,-46.0601,0.3430,214,0,0,-0.002495,-0.002226,-0.399107,0.168586,0.278658,-0.234078,-0.3425,-0.1221,-0.5642
14781,11.0,-0.000085,-0.000400,-0.340094,-0.002275,-0.016403,0.000643,-7.6997,0.5592,-1.0320,0.00092933,0.00034817,0.01482808,-0.02659127,0.05314228,0.00884932,0.1858,0.8712,-9.7482,-0.029848,0.004320,0.003435,27.5452,7.0612,38.9704,-46.0601,0.3430,212,0,0,-0.002454,-0.002430,-0.393079,0.166487,0.285986,-0.217435,-0.3318,-0.1028,-0.5226
14791,10.0,-0.000101,-0.000562,-0.340087,-0.000739,-0.014311,0.001547,-7.8923,0.5594,-1.0325,0.00114927,0.00034212,0.01483268,-0.02654364,0.05162114,0.00809758,0.2016,0.7714,-9.6895,-0.017605,-0.007792,0.012872,27.5452,7.0612,38.9704,-46.0601,0.3430,212,0,0,-0.002542,-0.002781,-0.399224,0.173397,0.291807,-0.221773,-0.4583,0.0776,-1.1342
14802,11.0,-0.000102,-0.000729,-0.340001,0.000632,-0.014341,0.002630,-8.0428,0.5511,-1.0137,0.00133070,0.00033712,0.01483562,-0.02653610,0.05078124,0.00665318,0.1793,0.8326,-9.7363,-0.015756,-0.020758,0.011701,27.5452,7.0612,38.9704,-46.0601,0.3430,215,0,0,-0.002563,-0.002875,-0.401437,0.174783,0.296041,-0.220559,-0.4665,0.0770,-1.1365
14813,11.0,-0.000082,-0.000886,-0.339978,0.002858,-0.011623,0.002083,-8.2483,0.5233,-1.0736,0.00161580,0.00033950,0.01484550,-0.02640448,0.04929267,0.00570767,0.2811,0.8294,-9.8278,-0.004203,-0.034220,0.018223,27.5452,7.0612,38.9704,-46.0601,0.3430,215,0,0,-0.002482,-0.003156,-0.397129,0.173493,0.307947,-0.202457,-0.4563,0.0677,-1.1010
14824,11.0,-0.000040,-0.001013,-0.340101,0.004580,-0.008583,-0.000724,-8.4757,0.4652,-1.1884,0.00196128,0.00037368,0.01486234,-0.02629431,0.04797009,0.00647846,0.3183,0.7868,-9.9276,0.004941,-0.041502,0.030584,26.8689,6.3373,37.6643,-46.0601,0.3430,217,0,0,-0.002471,-0.003217,-0.399163,0.176077,0.312469,-0.202765,-0.4572,0.0500,-1.0998
14835,11.0,0.000019,-0.000894,-0.340195,0.006035,0.047185,-0.003620,-9.7982,0.3850,-1.5123,0.00410983,0.00041787,0.01493243,-0.02589505,0.04080062,0.00030650,0.2353,0.7524,-9.9529,0.017466,-0.034114,0.031612,26.8689,6.3373,37.6643,-46.0601,0.3440,212,0,1,-0.002461,-0.003237,-0.402065,0.179257,0.316372,-0.205569,-0.4557,0.0289,-1.0970
14846,11.0,0.000075,-0.000520,-0.340347,0.003014,0.015552,-0.005714,-9.3700,0.3039,-1.5706,0.00339095,0.00054494,0.01492837,-0.02558083,0.04282313,0.00477086,0.1652,0.7457,-9.9478,0.018223,-0.001845,0.016717,26.8689,6.3373,37.6643,-46.0601,0.3440,214,0,0,-0.002291,-0.002417,-0.396893,0.178139,0.328121,-0.190397,-0.4059,0.0141,-1.0392
14857,11.0,-0.000082,-0.000185,-0.340433,-0.043923,0.058452,-0.007362,-10.3591,-0.6776,-1.6064,0.00522971,0.00234599,0.01510626,-0.01909751,0.03661669,-0.00351451,0.2416,0.7742,-9.9020,0.014216,0.017231,0.012752,26.8689,6.3373,37.6643,-46.0601,0.3440,217,-1,1,-0.002302,-0.002296,-0.399645,0.179838,0.331779,-0.193412,-0.3967,0.0172,-1.0447
14868,11.0,-0.000428,0.000269,-0.339174,-0.011889,0.016762,0.004569,-9.7950,-0.1163,-1.6378,0.00414751,0.00126316,0.01500242,-0.02238690,0.04134585,-0.01723253,0.2240,0.7567,-9.9228,0.011844,0.009329,0.010020,26.8689,6.3373,37.6643,-46.0601,0.3430,217,0,0,-0.003017,-0.001402,-0.401575,0.181105,0.336688,-0.194295,-0.3853,0.0303,-1.0456
14880,12.0,-0.000527,0.000385,-0.339123,-0.002466,0.001808,0.003819,-9.7424,0.0095,-1.7172,0.00405140,0.00098533,0.01498428,-0.02321358,0.04090834,-0.01668637,0.1780,0.6975,-9.9270,0.006232,-0.000248,0.011216,26.8689,6.3373,37.6643,-46.0601,0.3430,215,0,0,-0.002855,-0.001288,-0.396674,0.169059,0.348816,-0.178915,-0.3117,0.2585,-1.0340
14891,11.0,-0.000544,0.000379,-0.339184,-0.000594,-0.000878,0.001968,-9.9013,0.0175,-1.6678,0.00440283,0.00098918,0.01498952,-0.02321197,0.03968496,-0.01651469,0.1665,0.6832,-9.9364,0.007118,0.009374,0.008843,26.8689,6.3373,37.6643,-46.1500,0.3430,215,0,0,-0.002873,-0.001228,-0.398490,0.170162,0.352257,-0.180153,-0.3084,0.2660,-1.0425
14902,11.0,-0.000544,0.000367,-0.339044,0.000253,0.001907,0.002118,-10.1374,0.0069,-1.6087,0.00497879,0.00104657,0.01500327,-0.02278798,0.03726224,-0.02060334,0.1867,0.6934,-9.9379,0.016254,0.013364,0.006313,26.8689,6.3373,37.6643,-46.1500,0.3440,221,0,0,-0.002818,-0.001114,-0.393928,0.168350,0.362456,-0.166240,-0.2738,0.2995,-1.0261
14913,11.0,-0.000538,0.000377,-0.339101,0.000424,0.002904,0.001418,-10.3456,-0.0170,-1.5608,0.00550894,0.00113693,0.01501870,-0.02243849,0.03532865,-0.02141011,0.1908,0.7137,-9.8460,0.016949,0.014911,0.000482,26.8689,6.3373,37.6643,-46.1500,0.3440,220,0,0,-0.002845,-0.000955,-0.396117,0.169829,0.365827,-0.168296,-0.2631,0.3144,-1.0365
14923,10.0,-0.000540,0.000170,-0.339063,-0.000989,-0.050861,0.003279,-9.6124,-0.0768,-1.9501,0.00363508,0.00120322,0.01500476,-0.02219624,0.04226011,-0.01468825,0.1316,0.7955,-9.7275,0.016357,0.010978,-0.002406,27.5491,7.0467,39.0164,-46.1500,0.3440,219,0,-1,-0.002869,-0.000814,-0.397827,0.170995,0.369408,-0.168770,-0.2538,0.3301,-1.0511
14934,11.0,-0.000546,-0.000438,-0.339605,-0.000529,-0.059458,-0.000410,-9.6214,-0.1052,-1.9657,0.00368725,0.00128362,0.01501241,-0.02203521,0.04141317,-0.00638137,0.1982,0.7951,-9.6764,0.024194,0.007316,0.002376,27.5491,7.0467,39.0164,-46.1500,0.3450,219,0,-1,-0.002839,-0.002160,-0.393375,0.169171,0.380563,-0.151572,-0.2141,0.3623,-1.0506
14945,11.0,-0.000537,-0.000919,-0.339634,0.002067,-0.015891,-0.000715,-10.4423,-0.1134,-1.8030,0.00607006,0.00133345,0.01506067,-0.02155405,0.03156972,-0.01357724,0.1826,0.7972,-9.7788,0.018978,-0.009441,0.005262,27.5491,7.0467,39.0164,-46.1500,0.3450,222,0,0,-0.002851,-0.002019,-0.394911,0.170594,0.384962,-0.150757,-0.2023,0.3717,-1.0637
14956,11.0,-0.000515,-0.001085,-0.339744,0.001331,-0.010600,-0.001862,-10.6979,-0.1507,-1.6979,0.00681459,0.00146074,0.01507951,-0.02107156,0.02890050,-0.01466951,0.1285,0.8427,-9.8423,0.001063,-0.007194,0.002346,27.5491,7.0467,39.0164,-46.1500,0.3450,218,0,0,-0.002863,-0.001848,-0.398511,0.172501,0.393708,-0.151986,-0.1902,0.3738,-1.0925
14967,11.0,-0.000514,-0.001441,-0.338949,-0.002292,-0.063264,0.006686,-10.0661,-0.2380,-1.9028,0.00483553,0.00168552,0.01506381,-0.01997117,0.03622184,-0.01946793,0.2010,0.8279,-9.7814,-0.015275,0.011283,0.000226,27.5491,7.0467,39.0164,-46.1500,0.3440,218,0,-1,-0.002793,-0.002675,-0.391786,0.169591,0.401841,-0.135702,-0.1718,0.3867,-1.0748
14979,12.0,-0.000541,-0.002073,-0.338965,-0.003210,-0.029392,0.006138,-10.7594,-0.2749,-1.7450,0.00701917,0.00191068,0.01511955,-0.01899030,0.02824094,-0.02506835,0.1714,0.7973,-9.7769,-0.023703,0.025080,0.012438,27.5491,7.0467,39.0164,-46.1500,0.3440,219,0,0,-0.002867,-0.003481,-0.393688,0.171211,0.405403,-0.136625,-0.1847,0.3995,-1.0932
14990,11.0,-0.000576,-0.002380,-0.338896,-0.003726,-0.022601,0.008024,-11.0439,-0.2972,-1.6730,0.00792670,0.00206317,0.01514598,-0.01813544,0.02381130,-0.02817238,0.1608,0.7431,-9.6770,-0.027205,0.024007,0.006249,27.5491,7.0467,39.0164,-46.1500,0.3440,219,0,0,-0.002921,-0.003635,-0.396924,0.163251,0.416081,-0.136917,-0.1344,0.6371,-1.2979
15002,12.0,-0.000608,-0.002645,-0.338764,-0.001707,-0.016182,0.010659,-11.3407,-0.2960,-1.5792,0.00893820,0.00211127,0.01516540,-0.01784855,0.01963199,-0.03194163,0.1689,0.7285,-9.6631,-0.009147,0.007395,0.008858,27.5491,7.0467,39.0164,-46.1500,0.3450,219,0,0,-0.002989,-0.003689,-0.398332,0.163807,0.419603,-0.135769,-0.1516,0.6599,-1.3145
15013,11.0,-0.000607,-0.002819,-0.338643,0.002081,-0.011839,0.012260,-11.5823,-0.2911,-1.5235,0.00984591,0.00205293,0.01517776,-0.01784811,0.01507324,-0.03510647,0.1732,0.6949,-9.7354,0.008714,-0.027039,0.007824,27.5491,7.0467,39.0164,-46.1500,0.3450,219,0,0,-0.002921,-0.003751,-0.391398,0.160586,0.427537,-0.117808,-0.1380,0.6842,-1.2969
15024,11.0,-0.000566,-0.002948,-0.338611,0.005654,-0.008102,0.011002,-11.8264,-0.3115,-1.4809,0.01079607,0.00201962,0.01519405,-0.01791896,0.01198573,-0.03693730,0.1953,0.7358,-9.9169,0.023310,-0.051571,0.005645,27.2061,7.4195,38.0845,-46.1500,0.3450,217,0,0,-0.002919,-0.003626,-0.394356,0.162218,0.433357,-0.117834,-0.1336,0.6719,-1.3305
15035,11.0,-0.000494,-0.002830,-0.337696,0.007035,0.042583,0.016826,-12.7060,-0.3976,-1.6181,0.01428174,0.00217383,0.01529873,-0.01680934,0.00261967,-0.05890170,0.2319,0.7912,-9.9675,0.020421,-0.038088,-0.003675,27.2061,7.4195,38.0845,-46.1500,0.3440,215,0,1,-0.002784,-0.003577,-0.388549,0.160118,0.440456,-0.104801,-0.1054,0.6584,-1.3231
15046,11.0,-0.000431,-0.002552,-0.337588,0.002924,0.003053,0.016365,-12.3783,-0.4888,-1.5314,0.01292430,0.00256804,0.01528826,-0.01577148,0.00625054,-0.05331726,0.2719,0.8254,-9.9276,0.002462,-0.005006,0.002859,27.2061,7.4195,38.0845,-46.1288,0.3440,216,0,0,-0.002739,-0.002627,-0.390756,0.162896,0.448944,-0.108135,-0.0909,0.6411,-1.3676
15057,11.0,-0.000412,-0.002591,-0.337405,-0.000855,-0.009899,0.017033,-12.3982,-0.5881,-1.6495,0.01297584,0.00295937,0.01532824,-0.01431746,0.00542722,-0.05384575,0.2302,0.8306,-9.8538,-0.010605,0.023367,-0.003951,27.2061,7.4195,38.0845,-46.1288,0.3440,216,0,0,-0.002779,-0.002574,-0.392505,0.164862,0.452821,-0.110676,-0.0949,0.6494,-1.3904
15068,11.0,-0.000426,-0.002724,-0.337592,-0.002575,-0.011785,0.015125,-12.5786,-0.6399,-1.6846,0.01369747,0.00323512,0.01536796,-0.01336470,0.00269378,-0.05183045,0.1781,0.7944,-9.7731,-0.007520,0.033056,0.004608,27.2061,7.4195,38.0845,-46.1288,0.3460,215,0,0,-0.002838,-0.002546,-0.393668,0.166283,0.456940,-0.111358,-0.1048,0.6710,-1.4157
15079,11.0,-0.000447,-0.002864,-0.337415,-0.001794,-0.010527,0.017760,-12.7785,-0.6552,-1.6653,0.01457751,0.00336642,0.01539583,-0.01260269,-0.00144821,-0.05503745,0.1679,0.7979,-9.6650,0.001558,0.020738,0.008034,27.2061,7.4195,38.0845,-46.1288,0.3460,210,0,0,-0.002885,-0.002558,-0.389089,0.166791,0.476239,-0.096994,0.0664,0.7398,-1.6660
15090,11.0,-0.000460,-0.003006,-0.337308,-0.000776,-0.012885,0.020074,-12.9453,-0.6735,-1.6251,0.01530070,0.00348484,0.01541738,-0.01207453,-0.00443034,-0.05635149,0.1656,0.7870,-9.6206,-0.000763,0.006230,0.011505,27.2061,7.4195,38.0845,-46.1288,0.3440,213,0,0,-0.002927,-0.002437,-0.390102,0.167490,0.480317,-0.095643,0.0671,0.7613,-1.6875
15101,11.0,-0.000465,-0.003195,-0.336241,-0.000557,-0.019739,0.030531,-13.0537,-0.6945,-1.5670,0.01576814,0.00360521,0.01543138,-0.01117035,-0.00665992,-0.06791712,0.1169,0.7305,-9.6632,-0.012815,-0.005608,0.010303,27.2061,7.4195,38.0845,-46.1288,0.3440,210,0,0,-0.002895,-0.002344,-0.385717,0.165897,0.491443,-0.080020,0.0737,0.7890,-1.7076
15112,11.0,-0.000463,-0.003448,-0.335978,0.000490,-0.024096,0.032442,-13.2256,-0.7213,-1.4807,0.01649888,0.00372558,0.01544837,-0.01066182,-0.00950971,-0.06945362,0.1617,0.6883,-9.7154,-0.014213,-0.019491,0.004322,27.2061,7.4195,38.0845,-46.1288,0.3440,210,0,0,-0.002929,-0.002341,-0.387171,0.166375,0.493948,-0.080063,0.0607,0.7918,-1.7348
15125,13.0,-0.000440,-0.003766,-0.335548,0.002880,-0.015879,0.035406,-13.5604,-0.7295,-1.2957,0.01816606,0.00380677,0.01547411,-0.01001521,-0.01703184,-0.07520620,0.1495,0.6919,-9.7185,0.014230,-0.025948,0.007467,28.2254,6.3373,38.1073,-46.2239,0.3440,212,0,0,-0.002947,-0.002355,-0.388023,0.166916,0.496624,-0.079289,0.0504,0.7901,-1.7608
15136,11.0,-0.000180,-0.003903,-0.334858,0.052181,-0.004008,0.039421,-13.9136,-0.2375,-1.6123,0.02010087,0.00095298,0.01533652,-0.01985907,-0.02321946,-0.08320627,0.2044,0.6380,-9.8547,0.047893,-0.034794,0.015421,28.2254,6.3373,38.1073,-46.2239,0.3440,212,1,0,-0.002813,-0.002083,-0.383181,0.165678,0.505429,-0.065369,0.0821,0.7816,-1.7879
15147,11.0,0.000255,-0.003956,-0.334434,0.020705,-0.002021,0.039753,-14.1288,-0.6843,-1.4943,0.02131432,0.00317221,0.01552129,-0.01263746,-0.02795440,-0.08831287,0.2342,0.6895,-9.9441,0.045342,-0.045005,0.012391,28.2254,6.3373,38.1073,-46.2239,0.3440,213,0,0,-0.002057,-0.001823,-0.383900,0.167235,0.507418,-0.065882,0.1031,0.7702,-1.8103
15158,11.0,0.000436,-0.004010,-0.334067,0.009317,-0.004946,0.039211,-14.3125,-0.8913,-1.4929,0.02230933,0.00414782,0.01561815,-0.00980211,-0.03056435,-0.09129660,0.2036,0.7261,-9.9874,0.031453,-0.022255,0.006185,28.2254,6.3373,38.1073,-46.2239,0.3440,214,0,0,-0.001973,-0.001327,-0.385674,0.169933,0.512812,-0.069537,0.1423,0.7421,-1.8583
15169,11.0,0.000510,-0.004116,-0.333041,0.002263,-0.012349,0.045103,-14.4271,-1.0476,-1.6376,0.02292904,0.00486170,0.01570112,-0.00734667,-0.03259097,-0.10026803,0.2209,0.8028,-9.9319,0.004502,0.013702,-0.009169,28.2254,6.3373,38.1073,-46.2239,0.3430,216,0,0,-0.001862,-0.001153,-0.380005,0.168551,0.519501,-0.058660,0.1686,0.7457,-1.8666
15180,11.0,0.000511,-0.004528,-0.332567,-0.003746,-0.070074,0.046872,-13.9408,-1.2049,-2.0471,0.02022125,0.00540043,0.01572437,-0.00582133,-0.02486431,-0.09129880,0.1474,0.8969,-9.8456,-0.016920,0.030620,-0.012341,28.2254,6.3373,38.1073,-46.2239,0.3430,212,0,-1,-0.001899,-0.001017,-0.380963,0.170067,0.522882,-0.060738,0.1659,0.7604,-1.9041
15191,11.0,0.000477,-0.005193,-0.332066,-0.003136,-0.043334,0.048677,-14.4502,-1.2874,-2.2102,0.02297155,0.00570894,0.01582850,-0.00436488,-0.03424350,-0.10008276,0.2209,0.9663,-9.7220,-0.030411,0.009872,0.000419,28.2254,6.3373,38.1073,-46.1288,0.3430,214,0,0,-0.002208,-0.001697,-0.383230,0.191039,0.518199,-0.063520,-0.1051,0.4956,-1.7957
15202,11.0,0.000456,-0.005661,-0.332250,-0.001034,-0.037711,0.045142,-14.7439,-1.3225,-2.1614,0.02447237,0.00585954,0.01586896,-0.00385099,-0.03997625,-0.09739411,0.1556,0.9160,-9.6902,-0.024364,-0.020465,0.015200,28.2254,6.3373,38.1073,-46.1288,0.3440,214,0,0,-0.002177,-0.001821,-0.378053,0.190480,0.526089,-0.051144,-0.1180,0.5095,-1.8075
15213,11.0,0.000461,-0.006095,-0.331753,0.001749,-0.037948,0.046676,-14.9737,-1.3583,-2.0873,0.02566515,0.00595096,0.01589606,-0.00324477,-0.04463846,-0.10138439,0.1618,0.8266,-9.8499,-0.018682,-0.049132,0.025515,28.2254,6.3373,38.1073,-46.1288,0.3440,214,0,0,-0.002227,-0.002054,-0.379816,0.193010,0.533593,-0.050939,-0.1656,0.4883,-1.8510
15223,10.0,0.000494,-0.006243,-0.331433,0.004751,0.015450,0.045138,-15.8480,-1.4363,-2.1095,0.03064950,0.00618217,0.01603093,-0.00225207,-0.05791415,-0.11584210,0.2342,0.7222,-9.9943,-0.016285,-0.048204,0.015531,28.2254,6.3373,38.1073,-46.1288,0.3440,220,0,1,-0.002222,-0.002178,-0.380393,0.194298,0.536290,-0.051567,-0.1877,0.4633,-1.8681
15234,11.0,0.000542,-0.006246,-0.330025,0.002684,-0.018263,0.053742,-15.7030,-1.5269,-2.1157,0.02972683,0.00659121,0.01604292,-0.00071851,-0.05650157,-0.12261048,0.2225,0.6772,-10.0736,-0.005176,-0.026121,0.014145,27.8863,7.0539,38.5504,-46.1288,0.3420,218,0,0,-0.002108,-0.001541,-0.375858,0.194132,0.541677,-0.043186,-0.1954,0.4422,-1.8723
15246,12.0,0.000569,-0.006504,-0.329469,0.000255,-0.018683,0.054044,-16.0025,-1.5779,-1.9472,0.03139823,0.00712347,0.01610002,0.00083689,-0.06082492,-0.12748493,0.1611,0.6309,-9.9976,0.009880,0.014119,0.010007,27.8863,7.0539,38.5504,-46.1288,0.3420,219,0,0,-0.002126,-0.001539,-0.376890,0.197547,0.544250,-0.048494,-0.2219,0.4236,-1.9197
15257,11.0,0.000367,-0.006472,-0.328916,-0.045613,0.037401,0.055084,-16.9006,-2.0280,-1.2451,0.03674725,0.01088991,0.01642237,0.01336206,-0.07821822,-0.14793979,0.1858,0.6316,-9.8947,0.018808,0.039706,0.003389,27.8863,7.0539,38.5504,-46.1288,0.3420,220,-1,1,-0.002167,-0.001407,-0.378112,0.198955,0.544738,-0.051822,-0.2299,0.4362,-1.9495
15268,11.0,0.000012,-0.006262,-0.328209,-0.014435,-0.001909,0.059784,-16.7376,-1.7435,-1.3938,0.03566940,0.00900443,0.01626822,0.00687074,-0.07486506,-0.14340101,0.2092,0.6625,-9.8339,0.014751,0.030489,-0.003512,27.8863,7.0539,38.5504,-46.1077,0.3430,220,0,0,-0.002890,-0.000427,-0.378675,0.199631,0.546635,-0.052796,-0.2276,0.4629,-1.9745
15279,11.0,-0.000097,-0.006394,-0.327531,-0.004413,-0.021613,0.063575,-16.7750,-1.6855,-1.3968,0.03580480,0.00860545,0.01623877,0.00581365,-0.07686106,-0.14386962,0.1841,0.7446,-9.7913,-0.001695,0.000579,-0.008869,27.8863,7.0539,38.5504,-46.1077,0.3430,219,0,0,-0.002910,-0.000163,-0.374965,0.203297,0.553161,-0.043726,-0.2014,0.4641,-2.0508
15290,11.0,-0.000124,-0.006688,-0.326933,-0.000768,-0.029554,0.066115,-16.9504,-1.7233,-1.4240,0.03679157,0.00871828,0.01627202,0.00627101,-0.08018626,-0.14619927,0.2218,0.7884,-9.7772,-0.004685,-0.010932,-0.006731,27.8863,7.0539,38.5504,-46.1077,0.3420,221,0,0,-0.002932,-0.000122,-0.375461,0.204764,0.554987,-0.043670,-0.2155,0.4651,-2.0916
15301,11.0,-0.000125,-0.007054,-0.326542,-0.000093,-0.033877,0.065870,-17.1580,-1.8246,-1.5797,0.03805804,0.00907233,0.01634886,0.00785601,-0.08560203,-0.14763235,0.2469,0.8019,-9.8495,-0.009527,-0.008097,0.004846,27.8863,7.0539,38.5504,-46.1077,0.3420,220,0,0,-0.002904,-0.000126,-0.372114,0.207119,0.561303,-0.035084,-0.2412,0.4590,-2.1574
15312,11.0,-0.000119,-0.007449,-0.325910,0.000108,-0.034015,0.067533,-17.4266,-1.9440,-1.7659,0.03972700,0.00949933,0.01644533,0.00937433,-0.09054095,-0.15259628,0.2626,0.7615,-9.8842,-0.005240,-0.004648,0.011890,27.8863,7.0539,38.5504,-46.1077,0.3420,218,0,0,-0.002945,-0.000140,-0.373242,0.209494,0.563123,-0.037191,-0.2614,0.4573,-2.1900
15323,11.0,-0.000114,-0.007839,-0.325168,0.000068,-0.032527,0.070336,-17.7049,-2.0427,-1.8857,0.04153707,0.00991886,0.01653519,0.01131382,-0.09761596,-0.15927371,0.2215,0.7101,-9.8785,0.000633,-0.001615,0.009621,27.5511,6.3227,38.5962,-46.1077,0.3420,219,0,0,-0.002973,-0.000132,-0.373677,0.211736,0.564815,-0.038070,-0.2803,0.4567,-2.2207
15334,11.0,-0.000109,-0.008202,-0.325411,0.000074,-0.028844,0.065092,-18.0471,-2.0774,-1.7454,0.04367564,0.01033383,0.01659506,0.01268670,-0.10525139,-0.15725315,0.1472,0.6913,-9.8055,0.010954,0.002090,0.009326,27.5511,6.3227,38.5962,-46.1077,0.3430,219,0,0,-0.002999,-0.000099,-0.374120,0.213647,0.566000,-0.039097,-0.2958,0.4580,-2.2512
15346,12.0,-0.000100,-0.008554,-0.324612,0.000116,-0.022169,0.070942,-18.3809,-2.1200,-1.6731,0.04594913,0.01076796,0.01666856,0.01485677,-0.11491130,-0.16590962,0.1647,0.8024,-9.6236,0.024257,0.013901,0.006918,27.5511,6.3227,38.5962,-46.1447,0.3430,218,0,0,-0.002968,0.000110,-0.370917,0.214468,0.570261,-0.030660,-0.3087,0.4697,-2.3085
15357,11.0,-0.000085,-0.008805,-0.323919,0.002186,-0.019473,0.075567,-18.6613,-2.1525,-1.5965,0.04786410,0.01103010,0.01672080,0.01600002,-0.12204532,-0.17200617,0.1729,0.8226,-9.6233,0.035030,-0.009585,0.011611,27.5511,6.3227,38.5962,-46.1447,0.3430,220,0,0,-0.002992,0.000505,-0.372236,0.217185,0.573867,-0.028496,-0.3106,0.4846,-2.3773
15369,12.0,-0.000040,-0.009139,-0.323767,0.004542,-0.033195,0.073947,-18.8133,-2.2517,-1.6464,0.04883524,0.01130864,0.01677332,0.01734326,-0.12744808,-0.16877562,0.1969,0.8054,-9.7491,0.011667,-0.054562,0.007827,27.5511,6.3227,38.5962,-46.1447,0.3430,216,0,0,-0.002911,0.000665,-0.368770,0.217215,0.577635,-0.019475,-0.3062,0.4776,-2.4038
15380,11.0,0.000016,-0.009579,-0.323025,0.004778,-0.044807,0.076770,-18.9832,-2.3899,-1.7405,0.04983763,0.01174559,0.01684531,0.01885721,-0.13046028,-0.17181429,0.2177,0.8085,-9.8590,-0.006313,-0.063103,-0.000828,27.5511,6.3227,38.5962,-46.1447,0.3430,220,0,0,-0.002877,0.000698,-0.369013,0.218738,0.579402,-0.018879,-0.3159,0.4497,-2.4378
15391,11.0,0.000054,-0.010360,-0.322135,0.000467,-0.102206,0.080372,-18.6506,-2.5792,-1.9558,0.04732529,0.01245508,0.01687997,0.02121847,-0.12555866,-0.16416299,0.2117,0.7504,-9.9848,-0.024195,-0.035588,0.000998,27.5511,6.3227,38.5962,-46.1447,0.3430,218,0,-1,-0.002779,0.000639,-0.370341,0.218313,0.565576,-0.022639,-0.6333,0.4584,-2.4046
15402,11.0,0.000051,-0.011366,-0.322400,-0.002530,-0.071144,0.072184,-19.3610,-2.6957,-1.8819,0.05193570,0.01332740,0.01703812,0.02381871,-0.13832946,-0.16997348,0.2113,0.6534,-9.9900,-0.040037,0.002685,-0.003731,27.5511,6.3227,38.5962,-46.1447,0.3420,216,0,0,-0.002769,-0.000282,-0.366428,0.218854,0.567095,-0.016288,-0.6676,0.4425,-2.4407
15413,11.0,0.000016,-0.012137,-0.321616,-0.005347,-0.063126,0.075017,-19.7911,-2.7780,-1.8134,0.05465373,0.01409503,0.01714626,0.02688257,-0.14816314,-0.18031043,0.2017,0.6184,-9.9652,-0.043986,0.026178,-0.006995,27.5511,6.3227,38.5962,-46.1447,0.3420,216,0,0,-0.002828,-0.000462,-0.366649,0.220550,0.566809,-0.018333,-0.7109,0.4415,-2.4811
15424,11.0,-0.000040,-0.012801,-0.320898,-0.005746,-0.051059,0.079051,-20.2657,-2.7730,-1.5644,0.05768031,0.01466232,0.01721592,0.02893875,-0.15773450,-0.19054283,0.1496,0.6968,-9.7469,-0.018616,0.038832,-0.001787,28.5645,7.0539,38.1073,-46.1447,0.3420,211,0,0,-0.003018,-0.000778,-0.367785,0.223307,0.564787,-0.021986,-0.8066,0.4748,-2.5728
15435,11.0,-0.000080,-0.013101,-0.320090,-0.001704,0.011103,0.083724,-21.2444,-2.5606,-0.7280,0.06449150,0.01497034,0.01725302,0.03080665,-0.18383217,-0.21618915,0.1357,0.7132,-9.6686,0.014666,0.023627,0.013478,28.5645,7.0539,38.1073,-46.1447,0.3420,213,0,1,-0.003045,-0.000821,-0.364814,0.223282,0.565781,-0.015116,-0.8396,0.4991,-2.6110
15445,10.0,-0.000081,-0.013143,-0.319359,0.001210,-0.019946,0.088897,-21.2070,-2.6253,-0.8140,0.06410065,0.01511748,0.01727106,0.03133782,-0.18259187,-0.21355627,0.1382,0.7462,-9.7212,0.029580,-0.014679,0.009216,28.5645,7.0539,38.1073,-46.1447,0.3420,216,0,0,-0.003065,0.000187,-0.365171,0.224951,0.566151,-0.012705,-0.8656,0.5250,-2.6754
15456,11.0,-0.000049,-0.013429,-0.318373,0.004084,-0.028720,0.094569,-21.4024,-2.6981,-0.8314,0.06552488,0.01538554,0.01732880,0.03279936,-0.18882017,-0.21946917,0.2070,0.8258,-9.7605,0.037417,-0.033259,0.016316,28.5645,7.0539,38.1073,-46.1447,0.3420,211,0,0,-0.003058,0.000336,-0.365992,0.226074,0.566174,-0.013253,-0.8713,0.5163,-2.7091
15468,12.0,0.000013,-0.013839,-0.317462,0.004710,-0.033523,0.097976,-21.6910,-2.8473,-0.9583,0.06760003,0.01592608,0.01744216,0.03472795,-0.19499071,-0.22580373,0.2236,0.8287,-9.8446,0.033629,-0.031346,0.020987,28.5645,7.0539,38.1073,-46.1447,0.3420,211,0,0,-0.002967,0.000492,-0.362637,0.226530,0.568313,-0.005810,-0.8707,0.5002,-2.7360
15479,11.0,0.000063,-0.014226,-0.316416,0.003168,-0.032160,0.102156,-22.0132,-2.9619,-0.9959,0.06996965,0.01656002,0.01755331,0.03727395,-0.20332839,-0.23532172,0.1648,0.7996,-9.8980,0.036856,-0.007645,0.019391,28.5645,7.0539,38.1073,-46.1447,0.3420,210,0,0,-0.003128,0.000744,-0.363393,0.253832,0.570464,-0.007052,-0.8397,0.0944,-2.8277
15490,11.0,0.000089,-0.014629,-0.315685,-0.000004,-0.037198,0.104389,-22.3086,-3.0873,-1.0372,0.07198463,0.01736624,0.01766979,0.03990445,-0.20919035,-0.24064925,0.1729,0.7581,-9.8709,0.018406,0.018505,0.008332,28.5645,7.0539,38.1073,-46.0918,0.3430,215,0,0,-0.003110,0.000920,-0.363506,0.255554,0.571085,-0.007957,-0.8420,0.0873,-2.8576
15501,11.0,0.000082,-0.015087,-0.314557,-0.002552,-0.042067,0.110279,-22.5856,-3.1776,-1.0459,0.07387863,0.01807813,0.01776936,0.04283125,-0.21678802,-0.24870920,0.1346,0.8006,-9.7831,0.007484,0.031703,0.003589,28.5645,7.0539,38.1073,-46.0918,0.3430,212,0,0,-0.003111,0.001167,-0.361454,0.257946,0.572379,-0.004519,-0.8676,0.1014,-2.9317
15512,11.0,0.000058,-0.015799,-0.313760,-0.003039,-0.090344,0.115011,-22.4041,-3.3593,-1.3879,0.07240652,0.01861706,0.01784357,0.04470481,-0.21234871,-0.24020363,0.1834,0.8450,-9.7130,0.018206,0.024447,0.015972,28.5645,7.0539,38.1073,-46.0918,0.3430,211,0,-1,-0.003160,0.001263,-0.362344,0.259615,0.572478,-0.005807,-0.8885,0.1142,-2.9758
15523,11.0,0.000036,-0.016664,-0.312633,-0.001902,-0.057081,0.120136,-23.0585,-3.4368,-1.3956,0.07731218,0.01917053,0.01799533,0.04751347,-0.23006848,-0.25929558,0.2092,0.8340,-9.6998,0.014161,0.017116,0.010270,27.5491,5.6133,39.0164,-46.0918,0.3440,211,0,0,-0.003228,0.000627,-0.362440,0.261565,0.572477,-0.004983,-0.9057,0.1233,-3.0155
15534,11.0,0.000025,-0.017324,-0.312039,-0.001002,-0.058198,0.122141,-23.4126,-3.5603,-1.4778,0.07974257,0.01973210,0.01811014,0.04963505,-0.23812361,-0.26477107,0.2123,0.7776,-9.7705,-0.002440,-0.008145,0.013094,27.5491,5.6133,39.0164,-46.0918,0.3440,210,0,0,-0.003239,0.000765,-0.360630,0.264971,0.573901,0.000323,-0.9444,0.1279,-3.0905
15545,11.0,0.000021,-0.018014,-0.310739,-0.000743,-0.062878,0.128404,-23.7219,-3.6800,-1.5334,0.08186845,0.02031358,0.01821589,0.05241491,-0.24712595,-0.27390748,0.1949,0.7147,-9.8395,-0.008562,-0.015926,0.012528,27.5491,5.6133,39.0164,-46.0918,0.3440,209,0,0,-0.003255,0.000738,-0.360659,0.267096,0.573478,0.000535,-0.9742,0.1183,-3.1298
15556,11.0,0.000015,-0.018745,-0.310282,-0.001639,-0.065049,0.129493,-24.1125,-3.7581,-1.4247,0.08440122,0.02103980,0.01831115,0.05492744,-0.25530958,-0.27919242,0.1649,0.6885,-9.8316,-0.010631,-0.005287,0.009644,27.5491,5.6133,39.0164,-46.0918,0.3440,215,0,0,-0.003283,0.000679,-0.361531,0.269319,0.572219,-0.001378,-1.0060,0.1047,-3.1688
15567,11.0,0.000004,-0.019460,-0.308945,-0.001602,-0.058537,0.136072,-24.5474,-3.8175,-1.3277,0.08751965,0.02169261,0.01841350,0.05812002,-0.26811558,-0.29259098,0.1904,0.6616,-9.8199,0.008700,0.007302,0.004763,27.5491,5.6133,39.0164,-46.0126,0.3440,216,0,0,-0.003284,0.000617,-0.358987,0.271954,0.570390,0.003532,-1.0671,0.0918,-3.2518
15579,12.0,0.000006,-0.020168,-0.308898,0.000633,-0.048657,0.135195,-25.0959,-3.8365,-1.1099,0.09143662,0.02229524,0.01850565,0.06029893,-0.28116959,-0.30098200,0.1905,0.6417,-9.8227,0.037235,-0.002058,0.009535,27.5491,5.6133,39.0164,-46.0126,0.3440,218,0,0,-0.003316,0.000686,-0.360050,0.274089,0.568326,0.001437,-1.0908,0.0905,-3.2978
15590,11.0,0.000030,-0.020713,-0.307500,0.003101,-0.044691,0.141449,-25.5165,-3.8285,-0.8593,0.09450558,0.02273788,0.01856031,0.06258326,-0.29334691,-0.31433442,0.1524,0.6700,-9.9139,0.049970,-0.023136,0.009658,27.5491,5.6133,39.0164,-46.0126,0.3440,220,0,0,-0.003120,0.001252,-0.361515,0.265302,0.533431,-0.002687,-1.6055,0.2851,-3.1620
15601,11.0,0.000076,-0.021211,-0.307919,0.004259,-0.039540,0.137704,-26.0111,-3.8058,-0.5089,0.09799283,0.02336264,0.01861969,0.06450152,-0.30389762,-0.31994057,0.1537,0.6576,-9.9541,0.063834,-0.018730,0.015925,27.5491,5.6133,39.0164,-46.0126,0.3440,220,0,0,-0.003038,0.001440,-0.358947,0.265546,0.532324,0.001448,-1.6063,0.2708,-3.1934
15611,10.0,0.000122,-0.021583,-0.306651,0.004561,-0.031990,0.142966,-26.4330,-3.8339,-0.3407,0.10125282,0.02395565,0.01870713,0.06721064,-0.31588966,-0.33446306,0.1929,0.6475,-10.0013,0.080381,-0.005091,0.020542,27.5491,5.6133,39.0164,-46.0126,0.3440,220,0,0,-0.002992,0.001685,-0.358961,0.266609,0.530104,0.000059,-1.6045,0.2578,-3.2268
15622,11.0,0.000178,-0.021921,-0.307506,0.004150,-0.021362,0.137873,-26.9620,-3.8738,-0.1649,0.10529079,0.02472725,0.01882316,0.06963815,-0.32768053,-0.34155551,0.1907,0.6907,-9.9453,0.101378,0.017281,0.018691,29.2427,6.6956,38.1073,-46.0126,0.3440,221,0,0,-0.002909,0.002470,-0.360159,0.269857,0.525738,-0.005493,-1.5715,0.2539,-3.2865
15633,11.0,0.000230,-0.022385,-0.305908,0.004026,-0.063763,0.146824,-26.8511,-4.0697,-0.4325,0.10476351,0.02535487,0.01892523,0.07216710,-0.32886606,-0.34060445,0.1813,0.7673,-9.9429,0.114563,0.021813,0.028391,29.2427,6.6956,38.1073,-46.0126,0.3440,219,0,-1,-0.002837,0.002974,-0.358842,0.270737,0.524885,-0.004018,-1.5433,0.2636,-3.3145
15644,11.0,0.000230,-0.022912,-0.299003,0.013773,-0.025652,0.196487,-13.2291,-6.5890,-67.5278,0.09304751,-0.03685470,0.02666390,1.53699684,-0.85137117,-0.42104852,0.2409,0.7957,-9.8754,0.090638,0.017143,0.030723,29.2427,6.6956,38.1073,-45.9914,0.3440,217,0,0,-0.002773,0.003277,-0.358983,0.273761,0.523003,-0.006261,-1.4868,0.2829,-3.3678
15655,11.0,0.000292,-0.023093,-0.296694,-0.004151,-0.004278,0.198700,-13.2095,-6.5355,-67.9726,0.09331547,-0.03620861,0.02680942,1.57296622,-0.85441732,-0.42584983,0.2552,0.8127,-9.8715,0.063164,0.027814,0.027810,29.2427,6.6956,38.1073,-45.9914,0.3430,215,0,0,-0.002762,0.003645,-0.360277,0.275823,0.522033,-0.009229,-1.4767,0.2898,-3.3949
15666,11.0,0.000231,-0.023104,-0.329411,-0.004542,0.005042,0.045054,-14.6233,-6.6989,-62.5944,0.09699720,-0.03116993,0.02625033,1.48656201,-0.84394866,-0.30048582,0.3167,0.8224,-9.9106,0.075267,0.049858,0.039503,29.2427,6.6956,38.1073,-45.9914,0.3430,216,0,0,-0.002722,0.003954,-0.357822,0.277227,0.522393,-0.004746,-1.4727,0.3055,-3.4187
15678,12.0,0.000201,-0.023019,-0.328980,0.005612,0.013218,0.043466,-16.2483,-6.7318,-55.1176,0.09994406,-0.02492227,0.02535577,1.34674251,-0.80483395,-0.30018044,0.2323,0.6922,-9.8844,0.105449,0.074211,0.050709,29.2427,6.6956,38.1073,-45.9914,0.3430,216,0,0,-0.003038,0.004861,-0.359002,0.318642,0.511418,-0.007908,-1.5370,-0.2346,-3.4379
15689,11.0,0.000234,-0.022878,-0.328833,0.002157,0.014213,0.043541,-16.9746,-6.6445,-51.8161,0.10126843,-0.02205373,0.02496557,1.28720009,-0.78716636,-0.29909018,0.1519,0.6596,-9.7588,0.096662,0.088803,0.034145,29.2427,6.6956,38.1073,-45.9914,0.3430,214,0,0,-0.003028,0.005416,-0.359091,0.320781,0.509909,-0.008289,-1.5114,-0.1994,-3.4507
15700,11.0,0.000380,-0.022901,-0.327051,0.030415,-0.021441,0.054275,-17.6211,-6.4812,-48.9148,0.10270848,-0.02205103,0.02437204,1.17261231,-0.77505910,-0.30220547,0.1699,0.7184,-9.6473,0.104360,0.084455,0.033921,29.2427,6.6956,38.1073,-45.9914,0.3430,213,1,0,-0.003012,0.005956,-0.357874,0.321777,0.508530,-0.005425,-1.4881,-0.1567,-3.4670
15711,11.0,0.000600,-0.023047,-0.326629,0.007852,-0.000370,0.057625,-18.0303,-6.4209,-47.1481,0.10360382,-0.01886116,0.02433568,1.18067670,-0.76517940,-0.30493554,0.2319,0.8769,-9.5265,0.099368,0.060666,0.039971,28.2254,5.6206,38.1073,-45.9386,0.3430,215,0,0,-0.002350,0.006244,-0.359302,0.325921,0.505878,-0.004283,-1.4439,-0.0857,-3.5152
15722,11.0,0.000782,-0.023222,-0.326000,0.030047,-0.034237,0.061556,-18.3901,-6.2892,-45.4974,0.10440734,-0.01957154,0.02391066,1.10135353,-0.75979257,-0.30227929,0.3093,0.8575,-9.6430,0.098662,0.014410,0.063554,28.2254,5.6206,38.1073,-45.9386,0.3430,215,1,0,-0.002322,0.006744,-0.359337,0.328071,0.506467,-0.001494,-1.4206,-0.0633,-3.5336
15733,11.0,0.001144,-0.023666,-0.324619,0.038538,-0.045712,0.070194,-18.9064,-6.1724,-43.2956,0.10569527,-0.01837296,0.02357613,1.04622471,-0.74848872,-0.30741981,0.3795,0.7543,-9.7402,0.104276,-0.008346,0.069443,28.2254,5.6206,38.1073,-45.9386,0.3430,215,1,0,-0.001519,0.007170,-0.356958,0.330747,0.507247,0.005286,-1.3958,-0.0594,-3.5404
15744,11.0,0.001538,-0.023947,-0.323947,0.034370,0.006431,0.070342,-20.7434,-5.7203,-34.9335,0.11031616,-0.00906699,0.02280888,0.94227940,-0.70558554,-0.31648946,0.3418,0.6986,-9.8942,0.193313,0.014101,0.099770,28.2254,5.6206,38.1073,-45.9386,0.3430,215,0,0,0.000010,0.007292,-0.358164,0.339073,0.504070,0.004075,-1.3415,-0.0861,-3.5485
15755,11.0,0.001883,-0.023731,-0.323536,0.028426,0.045758,0.068479,-23.9119,-4.0909,-18.1058,0.11603315,0.00663313,0.02075672,0.66240966,-0.56953555,-0.31341010,0.3441,0.5559,-9.9600,0.250843,0.029190,0.104512,28.2254,5.6206,38.1073,-45.9386,0.3430,212,0,0,0.000134,0.008160,-0.359505,0.342559,0.503086,0.000829,-1.2693,-0.0883,-3.5336
15766,11.0,0.002222,-0.023121,-0.322836,0.035530,0.073878,0.074369,-24.4461,-4.0413,-18.0429,0.12108087,0.00704066,0.02086448,0.67571014,-0.57875133,-0.32978407,0.2498,0.5517,-9.7766,0.309937,0.044634,0.108081,28.2254,5.6206,38.1073,-45.9386,0.3430,215,0,0,0.000568,0.010688,-0.357028,0.346978,0.501245,0.003410,-1.0383,-0.0685,-3.4900
15777,11.0,0.002491,-0.022690,-0.322162,0.010958,-0.002470,0.083428,-23.7598,-4.0193,-18.0442,0.11690513,0.00713465,0.02084109,0.67537189,-0.57270664,-0.31402421,0.1347,0.4869,-9.6015,0.343194,0.042630,0.111618,28.2254,5.6206,38.1073,-45.9386,0.3430,207,0,-2,0.000792,0.012255,-0.358304,0.348948,0.500278,0.001637,-0.8885,-0.0501,-3.4623
15788,11.0,0.002879,-0.022656,-0.321272,0.069322,0.015846,0.092343,-24.3105,-3.8477,-17.7860,0.12243519,0.00433572,0.02051833,0.61249810,-0.58804858,-0.33066583,0.1610,0.5246,-9.4995,0.373745,0.007986,0.125509,28.2254,5.6206,38.1073,-45.9386,0.3430,212,1,-1,0.000981,0.012677,-0.358402,0.356567,0.468973,0.003124,-1.2223,-0.1681,-3.0591
15799,11.0,0.003560,-0.022425,-0.320712,0.053226,0.033318,0.098858,-24.5043,-3.8772,-17.7213,0.12600765,0.00559219,0.02070600,0.64328885,-0.59778577,-0.34101334,0.2948,0.4930,-9.4471,0.529701,-0.039511,0.174568,28.2254,5.6206,38.1073,-45.9386,0.3420,209,0,-2,0.002266,0.014096,-0.357084,0.359638,0.465789,0.012244,-0.8475,-0.1853,-2.9738
15810,11.0,0.004170,-0.021988,-0.319694,0.059932,0.053979,0.106886,-24.7437,-3.8735,-17.5643,0.13041107,0.00561862,0.02073293,0.64599699,-0.61478835,-0.35749340,0.2547,0.3623,-9.6818,0.598862,-0.091132,0.194831,28.2254,5.6206,38.1073,-45.9386,0.3420,202,0,-2,0.002692,0.015106,-0.356938,0.361830,0.464522,0.015993,-0.5762,-0.2204,-2.9015
15821,11.0,0.005028,-0.020891,-0.319524,0.103880,0.168564,0.102045,-26.3089,-3.8558,-17.3121,0.14459652,0.00515795,0.02077093,0.64117664,-0.63007748,-0.39731529,0.3406,0.2036,-10.1301,0.671362,-0.154510,0.192390,28.5685,7.3978,38.5962,-45.9386,0.3420,203,0,0,0.003704,0.016939,-0.357960,0.367076,0.460026,0.015477,0.0426,-0.3548,-2.7472
15832,11.0,0.005707,-0.019801,-0.318022,0.006741,0.011856,0.114188,-24.3130,-4.0948,-17.3871,0.13232671,0.00817639,0.02106636,0.70165169,-0.62563151,-0.36055750,0.1917,-0.0138,-10.3629,0.640924,-0.155165,0.151923,28.5685,7.3978,38.5962,-45.9386,0.3430,207,-1,-4,0.004430,0.019984,-0.356872,0.369270,0.459906,0.014297,0.3990,-0.4527,-2.6538
15843,11.0,0.005695,-0.019641,-0.317746,-0.009778,0.024982,0.111300,-24.5650,-4.1602,-17.3294,0.13652152,0.00944391,0.02120764,0.73005217,-0.62957442,-0.36916971,0.2943,0.0016,-10.2758,0.631742,-0.059801,0.099532,28.5685,7.3978,38.5962,-45.9386,0.3430,216,-1,-3,0.004260,0.019892,-0.356747,0.370941,0.454723,0.009305,0.7233,-0.5534,-2.6047
15854,11.0,0.005508,-0.019330,-0.316674,-0.024948,0.039030,0.116250,-24.6516,-4.1367,-17.3409,0.13999192,0.01059806,0.02131753,0.75572127,-0.64953452,-0.38410658,0.2721,0.0752,-10.0785,0.607668,0.111398,0.055482,28.5685,7.3978,38.5962,-45.9386,0.3410,216,-1,-3,0.003765,0.021389,-0.355599,0.375126,0.448922,0.002994,1.3654,-0.6181,-2.5587
15865,11.0,0.006010,-0.018823,-0.336543,0.156462,0.124889,-0.117793,-83.1030,12.2027,-5.6032,0.36644989,0.00436771,-0.02282649,0.52041757,5.12044048,0.33271754,0.3344,0.0093,-9.8931,0.576080,0.183350,0.012431,28.5685,7.3978,38.5962,-45.9386,0.3410,204,0,-3,0.003209,0.019206,-0.355576,0.378212,0.442621,0.000912,1.6498,-0.5656,-2.5894
15876,11.0,0.007218,-0.018051,-0.339791,0.044086,0.014019,0.001401,-88.4249,14.9021,-5.2002,0.38720426,0.00707507,-0.02890781,0.63641679,5.66608715,0.41093904,0.2135,-0.0902,-9.8058,0.546001,0.204075,-0.021701,28.5685,7.3978,38.5962,-45.9386,0.3410,214,0,-2,0.003404,0.019952,-0.356861,0.381671,0.440618,-0.002241,1.9415,-0.4736,-2.6095
15888,12.0,0.007543,-0.018384,-0.334355,0.011019,-0.044618,0.244513,-77.5863,11.5249,-5.8627,0.34770834,0.01124093,-0.02177730,0.70758963,4.54902458,0.23483796,0.2805,-0.1193,-9.8697,0.547792,0.160783,0.002837,28.5685,7.3978,38.5962,-45.9386,0.3430,213,0,-2,0.003910,0.022815,-0.357031,0.377131,0.416298,-0.002522,2.0580,-0.1686,-2.2463
15899,11.0,0.007924,-0.019553,-0.322180,0.086679,-0.149727,0.498809,-59.6267,5.0677,-8.9715,0.27957925,0.01319108,-0.00608109,0.66301876,2.73681211,0.02633503,0.0610,-0.1842,-9.7442,0.558258,0.129034,0.107424,28.5685,7.3978,38.5962,-45.9386,0.3430,215,2,-4,0.004144,0.024098,-0.356188,0.378642,0.414486,-0.000954,2.3250,-0.0815,-2.2672
15910,11.0,0.008607,-0.020410,-0.302484,0.045491,0.039277,0.741082,-41.3412,0.7484,-12.8534,0.21827753,0.02049318,0.00598922,0.78164226,0.73693204,-0.41712013,0.1284,-0.3046,-9.5858,0.569129,0.116727,0.140138,28.5685,7.3978,38.5962,-45.9386,0.3430,215,0,0,0.006105,0.026627,-0.357510,0.379251,0.410260,-0.001129,2.8757,0.0403,-2.1880
15921,11.0,0.009266,-0.019908,-0.292035,0.083085,0.065073,0.795064,-40.8733,0.7605,-12.9805,0.22095878,0.01869956,0.00643555,0.73271817,0.61395431,-0.50341260,0.1907,-0.5246,-9.2534,0.585984,0.075692,0.166073,27.2119,8.4729,39.0393,-45.9386,0.3400,215,1,-1,0.007046,0.025789,-0.357497,0.380451,0.404490,0.002470,3.1626,0.0886,-2.1322
15931,10.0,0.010188,-0.019254,-0.286612,0.103149,0.069940,0.807999,-42.8767,1.3154,-12.3653,0.23215771,0.01689547,0.00489462,0.69550508,0.75188893,-0.52651459,0.2153,-0.6624,-9.2166,0.613207,0.017275,0.155895,27.2119,8.4729,39.0393,-45.9386,0.3400,215,1,-1,0.008153,0.027928,-0.354802,0.380243,0.402488,0.012808,3.4645,0.1262,-2.0492
15942,11.0,0.011097,-0.018693,-0.278572,0.058425,0.039485,0.838955,-44.5688,1.8146,-11.6432,0.24089248,0.01766024,0.00315861,0.72228712,0.90641147,-0.53257668,0.1594,-0.7829,-9.3723,0.656476,-0.074544,0.151758,27.2119,8.4729,39.0393,-46.0284,0.3400,213,0,-2,0.010416,0.031452,-0.355719,0.381686,0.394612,0.021754,4.0908,0.1085,-1.9054
15954,12.0,0.011747,-0.018354,-0.271505,0.054139,0.035123,0.864324,-46.5842,2.4201,-10.8823,0.25300929,0.01669944,0.00133425,0.70742756,1.05341959,-0.55985105,0.1914,-0.9216,-9.3079,0.798236,-0.111856,0.169615,27.2119,8.4729,39.0393,-46.0284,0.3420,216,0,-3,0.010942,0.033000,-0.356543,0.381847,0.390209,0.024135,4.4333,0.0496,-1.8392
15965,11.0,0.012189,-0.018839,-0.261012,0.026494,-0.135060,0.940044,-44.1193,1.9289,-11.3275,0.24237406,0.01672175,0.00311990,0.70121986,0.93795156,-0.51801008,0.1270,-0.9054,-9.3771,0.916482,-0.126447,0.197966,27.2119,8.4729,39.0393,-46.0284,0.3420,212,0,-7,0.012207,0.033001,-0.353651,0.382542,0.377191,0.038180,5.2673,-0.1116,-1.7120
15976,11.0,0.012797,-0.019525,-0.249121,0.099763,0.044729,0.992594,-43.1217,-0.8064,-15.0621,0.25158322,0.03042779,0.01810769,0.68243027,0.55108619,-0.71135759,0.1467,-0.9092,-9.5346,0.919607,-0.172942,0.186329,27.2119,8.4729,39.0393,-46.0284,0.3420,213,0,-3,0.012876,0.032004,-0.354281,0.383043,0.370267,0.039860,5.7424,-0.2091,-1.6449
15987,11.0,0.013593,-0.019087,-0.260395,0.038130,0.053753,0.798892,-63.0062,1.0584,-11.5999,0.32904756,0.04153772,0.01453037,0.68812907,2.46420908,-0.55136824,0.2758,-0.7236,-9.6815,0.877680,-0.206843,0.171246,27.2119,8.4729,39.0393,-46.0284,0.3400,207,-1,-3,0.014254,0.034888,-0.354230,0.358859,0.251045,0.041555,4.7270,0.2715,-1.8854
15998,11.0,0.013605,-0.020016,-0.302239,-0.052486,-0.250945,0.431992,-95.4195,5.9643,-8.2126,0.44498861,0.05631302,0.00992810,0.61921513,5.82802773,-0.03000253,0.4834,-0.4383,-9.8536,0.813316,-0.197052,0.224117,27.2119,8.4729,39.0393,-46.0284,0.3400,204,-1,-8,0.014230,0.034127,-0.352080,0.360827,0.247343,0.046511,5.6026,0.0226,-1.7316
16009,11.0,0.012683,-0.022748,-0.176511,-0.074546,-0.123637,1.748705,-12.5968,-0.6050,-18.8593,0.14034337,0.02685555,0.01856386,0.94488347,-2.24580574,-0.96500778,0.5028,-0.4407,-10.0705,0.715687,-0.150396,0.238058,27.2119,8.4729,39.0393,-46.0865,0.3400,198,-2,-3,0.013490,0.035355,-0.351591,0.363277,0.251161,0.046229,6.0153,-0.0949,-1.6209
16020,11.0,0.012003,-0.023704,-0.177338,-0.043444,-0.034659,1.595526,-22.5138,-0.7815,-17.0256,0.18154518,0.03033619,0.01738238,0.90104687,-1.37345314,-0.89990729,0.4158,-0.5875,-10.1391,0.567711,-0.081629,0.218909,28.2293,10.6230,37.7099,-46.0865,0.3420,204,-1,-3,0.012637,0.036217,-0.352001,0.366295,0.255431,0.042558,6.3824,-0.1933,-1.5021
16032,12.0,0.011501,-0.024373,-0.154059,-0.035059,-0.081492,1.642889,-20.0419,-0.6912,-17.4459,0.17250851,0.02810174,0.01791182,0.87768966,-1.60365939,-0.92008245,0.1753,-0.8768,-9.9586,0.246402,0.054281,0.144020,28.2293,10.6230,37.7099,-46.0865,0.3420,198,0,-2,0.011935,0.036246,-0.350238,0.370916,0.259614,0.039121,6.8862,-0.2937,-1.2988
16043,11.0,0.010773,-0.026123,-0.078150,-0.111613,-0.288471,2.124658,15.1607,1.4248,-23.1179,0.03664607,0.01458526,0.02267595,1.00358689,-4.82965851,-1.17846727,0.0307,-1.0392,-9.7220,-0.038014,0.132462,0.049955,28.2293,10.6230,37.7099,-46.0865,0.3420,196,0,-4,0.012001,0.035778,-0.349833,0.371793,0.258951,0.037633,6.9774,-0.2749,-1.2316
16054,11.0,0.009352,-0.029329,-0.023016,-0.158542,-0.314841,2.359380,29.0599,3.2054,-24.8857,-0.01895455,0.00996935,0.02476512,1.07531166,-6.06847906,-1.32783341,-0.0304,-1.1507,-9.5208,-0.223097,0.159275,-0.006931,28.2293,10.6230,37.7099,-46.0865,0.3400,196,0,-4,0.011801,0.032715,-0.349432,0.371802,0.253349,0.037890,6.9214,-0.2142,-1.2223
16065,11.0,0.007834,-0.032061,-0.018366,-0.113365,-0.172876,2.317088,24.9741,2.7655,-24.4528,-0.00197662,0.01164756,0.02417180,1.06806421,-5.78992891,-1.24123144,-0.0266,-1.3499,-9.1459,-0.382615,0.101929,-0.037455,28.2293,10.6230,37.7099,-46.0865,0.3400,198,0,0,0.010985,0.026171,-0.347725,0.369012,0.237166,0.045615,6.4875,-0.0403,-1.2987
16076,11.0,0.006648,-0.033807,0.015592,-0.104039,-0.152987,2.405749,26.1629,2.9681,-24.6376,-0.00976843,0.01054312,0.02434468,1.05605161,-5.84690714,-1.28697836,0.0222,-1.5078,-9.1059,-0.399608,0.005431,-0.041231,28.2293,10.6230,37.7099,-46.0865,0.3400,200,0,0,0.010539,0.024044,-0.348076,0.367287,0.228324,0.049785,6.2016,0.0253,-1.3462
16088,12.0,0.005539,-0.036064,0.115943,-0.079158,-0.271801,2.783595,56.7494,4.1458,-17.1953,-0.13353848,0.04927104,-0.03703669,0.91966963,-8.49071312,-1.62931418,0.1192,-1.7667,-9.5285,-0.468171,-0.154191,-0.064799,28.2293,10.6230,37.7099,-46.0284,0.3420,199,1,2,0.010602,0.020724,-0.348055,0.363019,0.201376,0.059168,5.5315,0.0548,-1.4599
16099,11.0,0.004912,-0.038201,0.377361,-0.024319,-0.049815,3.748842,164.2258,5.9567,-17.2323,-0.52076995,0.06937379,-0.09771822,1.07776070,-19.00634384,-2.51331902,0.2102,-1.8607,-9.8805,-0.531613,-0.191644,-0.112738,28.2293,10.6230,37.7099,-46.0284,0.3420,194,0,3,0.011087,0.019319,-0.346422,0.362308,0.188533,0.063465,5.2011,-0.0235,-1.5288
16110,11.0,0.004422,-0.039307,0.623960,-0.001340,-0.022222,5.014281,-96.1088,5.5887,-15.5484,-0.88113487,0.08819383,-0.15328914,1.22840738,-28.60422897,-3.33050680,0.0888,-1.8028,-10.0019,-0.641002,-0.112068,-0.143595,28.2293,10.6230,37.7099,-46.0284,0.3420,199,0,2,0.010499,0.015589,-0.346211,0.362611,0.159287,0.058090,4.4446,-0.2128,-1.7305
16121,11.0,0.004050,-0.039918,0.533443,0.006146,0.191895,4.124012,-157.3764,6.2452,-16.4139,-0.66199106,0.07694278,-0.11881445,1.14154077,-22.65124512,-2.78250742,-0.1863,-1.5323,-9.6877,-0.747822,0.003946,-0.144886,28.9056,10.6302,37.6871,-46.0284,0.3400,197,-1,2,0.010057,0.013316,-0.345613,0.361542,0.144287,0.055763,4.0060,-0.2617,-1.8447
16132,11.0,0.003675,-0.038921,0.536771,-0.071209,0.012273,4.027946,-164.2509,6.2869,-16.4900,-0.63816363,0.07601336,-0.11479194,1.13835311,-22.00337029,-2.67564487,-0.1557,-1.2435,-9.3561,-0.896201,0.009725,-0.135152,28.9056,10.6302,37.6871,-46.0284,0.3400,197,-1,2,0.008804,0.010867,-0.344190,0.358020,0.130114,0.057272,3.5313,-0.2660,-1.9557
16144,12.0,0.002752,-0.039745,0.571387,-0.060475,-0.108944,4.011155,-173.5638,6.2798,-16.9049,-0.61172909,0.07104449,-0.11214621,1.06195283,-20.95642662,-2.61867380,0.0270,-0.6771,-9.3780,-1.067704,-0.175411,-0.187327,28.9056,10.6302,37.6871,-46.0284,0.3400,197,0,3,0.006033,0.006967,-0.343971,0.350984,0.109497,0.063782,2.3689,-0.2711,-2.1657
16155,11.0,0.002042,-0.041448,0.583696,-0.059375,-0.177054,4.014710,-178.4011,6.4257,-17.0635,-0.60246259,0.06872179,-0.11042527,1.02731442,-20.31398010,-2.54739666,0.0392,-0.2903,-9.6624,-1.123312,-0.339278,-0.170694,28.9056,10.6302,37.6871,-46.0284,0.3410,197,0,3,0.005308,0.003250,-0.343903,0.349896,0.099811,0.067294,1.6905,-0.3627,-2.3104
16166,11.0,0.001377,-0.043555,0.652954,-0.049943,-0.173386,4.310928,-176.8481,6.7165,-17.0000,-0.62117565,0.06875346,-0.11076564,1.02225697,-20.10970497,-2.60049653,0.1831,-0.0418,-10.0661,-1.178298,-0.381707,-0.142760,28.9056,10.6302,37.6871,-46.1182,0.3410,194,0,4,0.004073,-0.004686,-0.342457,0.349422,0.086016,0.070393,0.2578,-0.7557,-2.5706
16177,11.0,0.000361,-0.044707,0.705041,-0.139268,0.028322,4.571841,-174.8024,7.4579,-16.0346,-0.64849496,0.07665835,-0.10253885,1.15531278,-19.72335434,-2.63067031,0.0205,0.1060,-10.4741,-1.292099,-0.319146,-0.113670,28.9056,10.6302,37.6871,-46.1182,0.3410,203,-3,8,0.003417,-0.008648,-0.342524,0.350960,0.079533,0.066359,-0.4971,-0.9755,-2.6883
16188,11.0,-0.001297,-0.045428,0.765452,-0.152881,-0.153961,4.807108,-173.9469,7.5389,-16.2799,-0.65613770,0.07495375,-0.10517096,1.12294471,-19.76719856,-2.64996552,-0.1020,0.3602,-10.6231,-1.437350,-0.215014,-0.003195,28.9056,10.6302,37.6871,-46.1182,0.3390,207,-1,4,0.000617,-0.010179,-0.341727,0.357212,0.110506,0.060555,-0.3367,-1.3402,-4.0308
16199,11.0,-0.003154,-0.046202,1.760993,-0.040070,0.094005,13.429378,43.3064,7.2491,-21.6170,-1.49195457,0.04014450,-0.19585261,1.92552567,-38.62581635,-5.34422302,0.3428,0.7071,-10.4403,-1.587838,-0.089226,-0.001358,28.9056,10.6302,37.6871,-46.1182,0.3390,207,-2,5,-0.003709,-0.019065,-0.340976,0.357098,0.100783,0.045454,-2.1316,-1.5766,-4.1500
16210,11.0,-0.003065,-0.043449,1.890934,0.038951,0.382814,13.655672,38.7265,7.1970,-21.8144,-1.47538757,0.04131187,-0.18898143,1.94523382,-38.20077133,-5.30172014,0.2040,1.1854,-9.9472,-1.463717,0.005462,0.175905,28.9056,10.6302,37.6871,-46.1182,0.3390,206,-2,5,-0.006439,-0.023566,-0.340499,0.360665,0.096629,0.040003,-3.0994,-1.6308,-4.2006
16221,11.0,-0.002040,-0.037096,1.980703,0.142828,0.816160,13.921660,43.7118,7.2848,-22.3526,-1.49168015,0.04589011,-0.18427742,2.00714350,-38.74599457,-5.21797705,0.0433,1.2151,-9.5586,-1.362012,0.085686,0.312005,28.5744,8.0928,37.7783,-46.1182,0.3410,209,-3,11,-0.012176,-0.026422,-0.340361,0.363701,0.101289,0.037455,-4.8479,-1.5972,-4.0480
16232,11.0,0.000051,-0.028077,1.977022,0.179972,0.529876,13.590419,9.6112,6.9722,-20.6218,-1.36975408,0.03454987,-0.17474931,1.86673915,-35.49433899,-4.92922926,-0.1479,1.0211,-9.9678,-1.511756,0.005765,0.329527,28.5744,8.0928,37.7783,-46.0654,0.3410,208,0,6,-0.014072,-0.028980,-0.340861,0.363759,0.100184,0.038038,-5.6903,-1.5372,-3.9124
16243,11.0,0.001847,-0.022576,1.980000,0.118760,0.347920,13.314016,-6.4647,6.9074,-20.2843,-1.32779777,0.03138600,-0.16322511,1.82363188,-33.53736877,-4.68230677,0.1361,1.0193,-10.5118,-1.738707,-0.134858,0.257845,28.5744,8.0928,37.7783,-46.0654,0.3410,211,0,5,-0.015295,-0.032334,-0.340447,0.362807,0.094700,0.036923,-6.6134,-1.5212,-3.7743
16253,10.0,0.002960,-0.017772,2.124224,0.090129,0.612522,13.338936,-5.9786,6.4142,-20.9057,-1.33611166,0.03487822,-0.15442021,1.86760449,-33.45779419,-4.69039345,0.1805,1.0128,-11.0442,-1.961449,-0.158934,0.124599,28.5744,8.0928,37.7783,-46.0654,0.3380,210,-2,12,-0.018084,-0.043508,-0.339764,0.366810,0.070174,0.022532,-8.7816,-1.6751,-3.6142
16264,11.0,0.003699,-0.012137,-0.290871,0.044878,0.352904,7.441149,-24.7413,6.9213,-20.4453,-1.26431525,0.03442629,-0.14228454,1.93762290,-32.70798111,-1.18007803,-0.0270,1.2881,-11.2992,-2.046511,0.049479,0.095000,28.5744,8.0928,37.7783,-46.0654,0.3380,218,0,7,-0.020761,-0.044876,-0.339565,0.366802,0.061186,0.009535,-9.9658,-1.7396,-3.5688
16275,11.0,0.004159,-0.008077,-0.209836,0.010512,0.311635,7.135398,-15.7320,7.4334,-20.0819,-1.31767821,0.03353922,-0.15134710,1.91966939,-32.97728729,-1.17846656,0.0596,1.4300,-11.1196,-2.101824,0.333003,0.096817,28.5744,8.0928,37.7783,-46.0654,0.3380,216,0,8,-0.022467,-0.050103,-0.340451,0.367393,0.046019,-0.006817,-11.2024,-1.7288,-3.5764
16286,11.0,0.004457,-0.003842,-0.133290,0.026702,0.410868,6.911860,-10.3514,7.9974,-19.7856,-1.35113549,0.03264334,-0.15772393,1.90469909,-33.11763000,-1.18001723,0.1544,1.4034,-10.4448,-2.092561,0.586577,0.029986,28.5744,8.0928,37.7783,-46.0654,0.3410,214,0,9,-0.026614,-0.058654,-0.339970,0.372886,0.147978,-0.031185,-11.1962,-1.7605,-5.6672
16297,11.0,0.006116,0.002954,-0.210333,0.317646,0.831919,6.103684,-10.9053,9.3889,-18.1209,-1.34437680,0.02524598,-0.17703103,1.80747640,-33.32034302,-1.02384782,0.0923,1.5217,-9.7803,-2.004417,0.694416,-0.027774,28.5744,8.0928,37.7783,-46.0654,0.3410,207,3,17,-0.028829,-0.061404,-0.341184,0.373879,0.136319,-0.038664,-12.4013,-1.4360,-5.7928
16308,11.0,0.009843,0.011766,-0.173437,0.210202,0.596386,3.975965,54.6642,-1.7760,-20.0667,-1.62428892,0.12643827,-0.21261483,1.40639067,-38.18358231,-1.92178762,0.3047,1.7088,-9.0142,-1.689571,0.704534,-0.052549,28.5744,8.0928,37.7783,-46.0073,0.3410,208,2,7,-0.028260,-0.057850,-0.341563,0.374252,0.132697,-0.039275,-13.5356,-1.0581,-5.9273
16320,12.0,0.013202,0.020375,-0.108590,0.337937,0.711197,5.067494,37.8794,-2.2963,-18.5846,-1.56077528,0.12212786,-0.21610036,1.43922186,-36.60099411,-1.69838834,0.1963,1.9197,-8.5994,-1.037919,0.562833,0.003747,29.2467,2.7392,38.1530,-46.0073,0.3390,199,2,6,-0.029269,-0.061747,-0.343354,0.377442,0.114341,-0.026661,-15.4117,-0.3374,-6.3048
16331,11.0,0.017568,0.029605,-0.035006,0.433550,0.868533,5.936658,25.0858,-2.4238,-17.5393,-1.51165795,0.11911521,-0.21704814,1.46912658,-35.36929703,-1.52876520,0.0771,1.8227,-8.7367,-0.675095,0.360891,0.037988,29.2467,2.7392,38.1530,-46.0073,0.3390,199,2,6,-0.029073,-0.061898,-0.340933,0.376976,0.107826,-0.010801,-16.0369,-0.0333,-6.4533
16342,11.0,0.022125,0.039350,0.075328,0.320860,0.733470,7.388736,0.4854,-2.1573,-17.4831,-1.42387569,0.11621910,-0.19983783,1.56696129,-32.83992767,-1.22417796,0.2730,1.5478,-8.9344,-0.363709,0.158874,-0.016055,29.2467,2.7392,38.1530,-46.0073,0.3390,197,0,0,-0.025641,-0.056500,-0.342091,0.374363,0.097830,0.006377,-16.7561,0.3389,-6.6032
16354,12.0,0.027081,0.049779,0.163191,0.533835,0.968666,7.404287,1.2709,-1.9582,-16.1651,-1.42876256,0.11358129,-0.21374418,1.52236664,-32.64376068,-1.21863794,0.2988,1.4450,-9.3122,-0.041847,0.066148,-0.102702,29.2467,2.7392,38.1530,-46.0073,0.3420,193,3,5,-0.026138,-0.057875,-0.340902,0.372563,0.083528,0.016844,-16.9575,0.3968,-6.7027
16365,11.0,0.032921,0.061256,-0.174109,0.537996,1.089708,1.884617,59.3846,-2.0757,-17.0434,-1.68311572,0.11799912,-0.23308368,1.19450319,-36.35677338,-1.85025275,0.0681,1.7095,-9.4787,0.184444,0.080320,-0.095930,29.2467,2.7392,38.1530,-46.0073,0.3420,192,1,2,-0.022753,-0.052633,-0.340447,0.369253,0.062312,0.027078,-16.9444,0.4292,-6.9091
16376,11.0,0.039044,0.073883,-0.135075,0.552615,1.121857,2.823293,50.9730,-2.4275,-16.5895,-1.64605594,0.11597796,-0.23202519,1.21502995,-35.48142624,-1.73116469,0.6086,2.5400,-9.2372,0.529973,0.096229,-0.000471,29.2467,2.7392,38.1530,-46.0073,0.3420,191,1,0,-0.021575,-0.049687,-0.341327,0.367128,0.057029,0.027617,-16.7751,0.4616,-6.9929
16387,11.0,0.045164,0.087026,-0.077357,0.520870,1.162908,3.831383,41.3884,-2.4987,-16.3977,-1.60231602,0.11448111,-0.22568995,1.24971378,-34.55186844,-1.60088956,0.8058,2.6714,-9.1585,0.757165,0.062791,0.073689,29.2467,2.7392,38.1530,-46.0443,0.3400,193,0,-1,-0.020729,-0.046839,-0.340408,0.442740,0.026570,0.033274,-15.8983,-1.1411,-8.7711
16398,11.0,0.051123,0.100623,-0.008994,0.537517,1.220143,4.689820,34.1412,-2.7745,-15.9018,-1.56859994,0.11275735,-0.22447473,1.27025378,-33.75626373,-1.50072801,0.7154,2.6611,-9.0325,1.042658,0.005402,0.141557,29.2467,2.7392,38.1530,-46.0443,0.3400,195,0,-2,-0.018768,-0.040695,-0.338799,0.456664,0.033191,0.042494,-14.9133,-1.1044,-8.7881
16409,11.0,0.057250,0.114794,0.068590,0.556864,1.281641,5.427036,28.7753,-3.0350,-15.3783,-1.54362202,0.11128689,-0.22394887,1.28333950,-33.04000092,-1.42588079,0.4007,2.6018,-8.9777,1.289173,-0.006113,0.202328,29.2467,2.7392,38.1530,-46.0443,0.3430,196,0,-3,-0.017557,-0.037528,-0.338342,0.462879,0.038008,0.047291,-14.2707,-1.1051,-8.7560
16420,11.0,0.063174,0.129650,0.567075,0.396264,0.896046,13.416004,-81.1834,10.1722,-10.7516,-1.00988746,0.01815476,-0.28091860,2.32108331,-26.97078133,2.01559544,0.3110,2.2385,-9.2243,1.538466,-0.057951,0.323731,27.2080,0.6038,39.4364,-46.0443,0.3430,201,0,-8,-0.014802,-0.031985,-0.337604,0.469431,0.047525,0.056568,-12.6497,-1.1055,-8.5859
16431,11.0,0.067254,0.139620,0.732269,0.355466,0.941496,13.475156,-83.4849,10.9852,-10.9117,-0.98836690,0.01511369,-0.28356007,2.33123446,-26.84272385,2.08642006,0.5076,2.0382,-9.3244,1.678915,-0.133431,0.347422,27.2080,0.6038,39.4364,-46.0443,0.3430,205,0,-5,-0.012462,-0.024067,-0.338045,0.472580,0.057289,0.057967,-11.6924,-1.1240,-8.4096
16442,11.0,0.070722,0.148347,0.802633,0.266179,0.533881,12.323869,-68.0742,10.7783,-10.3023,-1.05926085,0.01849725,-0.28446627,2.20903683,-27.37467957,1.84758115,0.4022,1.7623,-9.5478,1.712305,-0.173836,0.344623,27.2080,0.6038,39.4364,-46.0443,0.3430,208,0,-13,-0.010513,-0.019469,-0.337452,0.476991,0.062174,0.061121,-10.6919,-1.1818,-8.2405
16453,11.0,0.073546,0.154130,0.931700,0.259454,0.506612,12.041153,-65.4362,11.5571,-10.1561,-1.06428051,0.01553041,-0.28907609,2.16264987,-27.38156509,1.83530140,0.3242,1.5001,-9.6861,1.767854,-0.177447,0.323352,27.2080,0.6038,39.4364,-46.0443,0.3420,208,0,-13,-0.009397,-0.020822,-0.336802,0.481109,0.059247,0.063352,-9.7041,-1.2666,-8.1039
16464,11.0,0.076790,0.162503,1.214023,0.393658,1.235234,13.320620,-86.5483,13.9824,-11.1699,-0.94239146,0.00236280,-0.29932693,2.26881838,-26.60630035,2.24259996,0.4675,0.7017,-9.6851,1.906243,-0.143144,0.268282,27.2080,0.6038,39.4364,-46.0231,0.3420,215,0,0,-0.008465,-0.023314,-0.336709,0.486477,0.050668,0.063251,-7.6377,-1.4524,-7.8595
