timestamp_ms,dt_ms,pos_x,pos_y,pos_z,vel_x,vel_y,vel_z,roll_deg,pitch_deg,yaw_deg,gyro_bias_x,gyro_bias_y,gyro_bias_z,accel_bias_x,accel_bias_y,accel_bias_z,raw_accel_x,raw_accel_y,raw_accel_z,raw_gyro_x,raw_gyro_y,raw_gyro_z,raw_mag_x,raw_mag_y,raw_mag_z,raw_baro_alt,raw_tof,raw_flow_squal,raw_flow_dx,raw_flow_dy,dev_pos_x,dev_pos_y,dev_pos_z,dev_vel_x,dev_vel_y,dev_vel_z,dev_roll_deg,dev_pitch_deg,dev_yaw_deg
14553,10.0,-0.000112,0.000760,-0.377873,-0.012723,0.077105,-0.006905,0.0009,-0.0476,0.0364,0.00000000,0.00000000,0.00000000,0.00058647,0.02973156,0.00000000,-0.2953,0.2470,-10.4062,-0.029653,-0.087068,0.064240,2.6249,-14.3757,13.5139,28.4811,0.3780,168,-1,1,0.003976,-0.002592,-0.431416,0.016278,-0.001679,-0.668516,-0.1242,-0.2142,0.0866
14564,11.0,-0.002251,0.000694,-0.377977,-0.112876,0.032552,-0.012087,-0.3395,0.6496,0.1093,0.00000052,-0.00000112,-0.00000002,0.00171104,0.03025006,-0.00000091,-0.2537,0.0707,-10.2856,-0.054976,0.054057,0.102397,2.6249,-14.3757,13.5139,28.4811,0.3790,171,-2,0,0.003965,-0.002093,-0.438133,0.012007,0.005783,-0.674971,-0.1336,-0.2615,0.1330
14575,11.0,-0.003811,0.000566,-0.374223,-0.126827,0.013016,0.159055,-0.6718,0.9574,0.1858,0.00000137,-0.00000167,-0.00000003,0.00203527,0.03075469,-0.00010258,-0.2156,-0.2198,-9.8095,-0.072939,0.191070,0.119120,3.4686,-13.6030,13.1479,28.4811,0.3790,171,0,0,0.001083,-0.002252,-0.409237,-0.023499,0.002558,-0.260324,-0.1533,-0.0548,0.4089
14586,11.0,-0.005501,0.000518,-0.378811,-0.138172,0.002433,-0.024843,-0.8307,1.3214,0.2309,0.00000195,-0.00000269,0.00000000,0.00247095,0.03100234,0.00006497,-0.1623,-0.4129,-9.2339,-0.036476,0.200626,0.086330,3.4686,-13.6030,13.1479,28.4811,0.3790,168,0,0,0.000112,-0.002349,-0.411839,-0.033139,-0.001548,-0.260032,-0.1917,0.0773,0.5520
14597,11.0,-0.006527,0.000519,-0.378799,-0.128914,-0.004691,-0.009202,-0.8261,0.8290,0.2879,0.00000188,0.00000047,-0.00000016,0.00141420,0.03097654,-0.00003463,-0.1773,-0.5184,-8.9615,-0.013752,0.111369,0.040452,3.4686,-13.6030,13.1479,28.4811,0.3770,167,0,0,-0.001821,-0.002440,-0.416758,-0.049173,-0.011070,-0.246741,-0.2274,0.3270,0.6896
14608,11.0,-0.005575,0.000474,-0.378854,-0.071554,-0.010386,0.000308,-0.8066,-2.2712,0.4627,0.00000160,0.00002207,-0.00000129,-0.00445041,0.03089100,-0.00013022,-0.1663,-0.4549,-8.8846,-0.031994,-0.045825,-0.027177,3.4686,-13.6030,13.1479,28.4811,0.3770,170,1,0,-0.001699,-0.002429,-0.392122,-0.044586,-0.015434,0.046634,-0.2045,0.4027,0.7303
14619,11.0,-0.003521,0.000406,-0.376900,0.003018,-0.013001,0.041909,-0.7942,-6.4993,0.6331,0.00000113,0.00005749,-0.00000275,-0.01230578,0.03074653,-0.00120789,-0.2066,-0.2183,-9.1901,-0.039092,-0.196296,-0.095301,3.4686,-13.6030,13.1479,28.4811,0.3770,167,1,0,-0.000961,-0.002452,-0.391506,-0.034108,-0.019084,0.056923,-0.2208,0.3668,0.7301
14630,11.0,-0.001345,0.000335,-0.376443,0.063568,-0.011112,0.042388,-0.7636,-9.3350,0.6870,0.00000074,0.00008044,-0.00000332,-0.01875011,0.03056638,-0.00097306,-0.2255,0.1848,-9.8147,-0.032464,-0.302133,-0.099041,3.4686,-13.6030,13.1479,28.3648,0.3790,172,0,0,0.001751,-0.002539,-0.390022,-0.004378,-0.020447,0.070331,-0.2638,0.0852,0.6587
14641,11.0,0.000671,0.000228,-0.375697,0.112822,-0.008284,0.044374,-0.8247,-11.4313,0.6920,0.00000111,0.00010353,-0.00000312,-0.02259351,0.03059784,-0.00115340,-0.2296,0.4203,-10.2095,-0.048250,-0.272604,-0.040840,3.4686,-13.6030,13.1479,28.3648,0.3790,172,0,0,0.003347,-0.002587,-0.383076,0.010906,-0.017654,0.135738,-0.2804,-0.1049,0.6167
14654,13.0,0.000486,0.000051,-0.372407,0.085471,-0.008130,0.072886,-1.0679,-8.6243,0.7388,0.00000321,0.00006156,-0.00000424,-0.01716005,0.03085092,-0.00710751,-0.2651,0.4194,-10.5049,-0.067928,-0.107359,0.050204,3.4686,-13.6030,13.1479,28.3648,0.3790,171,-2,0,0.005967,-0.002767,-0.380283,0.031240,-0.009973,0.127960,-0.3425,-0.4116,0.5942
14665,11.0,-0.000245,0.000654,-0.371500,0.048932,0.012033,0.066710,0.0124,-5.8877,0.8224,-0.00001635,0.00001454,-0.00000492,-0.01208663,0.02877105,-0.00845190,-0.3252,0.2093,-10.4017,-0.038000,0.037146,0.110647,1.7703,-13.2132,12.4273,28.3648,0.3790,170,-1,1,0.005400,-0.002896,-0.379037,0.020022,-0.007370,0.121116,-0.3812,-0.4388,0.6594
14676,11.0,-0.001453,0.000635,-0.370836,0.005397,0.007810,0.060006,-0.2035,-3.1601,0.9540,-0.00001248,-0.00003983,-0.00000601,-0.00714418,0.02914854,-0.00922446,-0.3272,0.0259,-10.1856,-0.016891,0.098033,0.106264,1.7703,-13.2132,12.4273,28.3648,0.3790,167,-1,0,0.004844,-0.002427,-0.378422,0.009667,-0.000064,0.108681,-0.3963,-0.4122,0.7401
14687,11.0,-0.002044,0.000610,-0.375281,-0.015562,0.002641,-0.002626,-0.2579,-1.8319,1.0309,-0.00000955,-0.00007091,-0.00000656,-0.00440979,0.02925913,0.01060709,-0.3807,-0.2543,-9.8671,-0.017402,0.103675,0.055830,1.7703,-13.2132,12.4273,28.3648,0.3790,166,0,0,0.003328,-0.002500,-0.376325,-0.012495,-0.003142,0.102056,-0.4183,-0.2567,0.7654
14698,11.0,-0.002415,0.000564,-0.375305,-0.020993,-0.002746,-0.001013,-0.2992,-1.5464,1.0386,-0.00000979,-0.00007777,-0.00000652,-0.00391169,0.02947409,0.01053657,-0.3194,-0.3354,-9.6293,-0.028291,0.053996,0.011896,1.7703,-13.2132,12.4273,28.3648,0.3790,168,0,0,0.002829,-0.002525,-0.375106,-0.019530,-0.006608,0.104112,-0.4284,-0.1859,0.8139
14709,11.0,-0.001862,0.000580,-0.375090,-0.000290,-0.004818,0.004441,-0.2372,-2.4654,1.0317,-0.00001177,-0.00004813,-0.00000716,-0.00578076,0.02935056,0.00964579,-0.2928,-0.2625,-9.5758,0.000650,0.013411,-0.039679,1.7703,-13.2132,12.4273,28.3648,0.3790,168,1,0,0.002499,-0.002562,-0.374057,-0.023719,-0.010498,0.105597,-0.4447,-0.1383,0.8391
14720,11.0,-0.001041,0.000743,-0.377136,0.019268,0.000298,-0.018091,0.0833,-3.0782,0.9823,-0.00002089,-0.00002836,-0.00000779,-0.00737973,0.02890288,0.02341654,-0.1920,-0.0280,-9.6482,0.089034,-0.023738,-0.119617,1.7703,-13.2132,12.4273,28.3648,0.3790,167,1,0,0.003516,-0.002484,-0.376034,-0.012761,-0.013729,0.071129,-0.4194,-0.1549,0.7893
14731,11.0,-0.000977,0.000903,-0.377205,0.019126,0.005171,-0.015959,0.2814,-2.9409,0.9162,-0.00002685,-0.00003467,-0.00000752,-0.00705335,0.02856240,0.02235614,-0.1818,0.1237,-9.7285,0.085830,-0.016284,-0.093894,1.7703,-13.2132,12.4273,28.3648,0.3770,173,0,0,0.003572,-0.002363,-0.375314,-0.012226,-0.012435,0.072917,-0.3648,-0.1686,0.7310
14742,11.0,-0.001121,0.000909,-0.377385,0.013255,0.005753,-0.014983,0.1955,-2.5644,0.8892,-0.00002103,-0.00005389,-0.00000758,-0.00646166,0.02850042,0.02225331,-0.1940,0.2143,-9.6789,-0.002695,0.029443,-0.050939,1.7703,-13.2132,12.4273,28.3648,0.3770,171,0,0,0.003550,-0.002173,-0.375211,-0.012755,-0.007133,0.061205,-0.2747,-0.1747,0.6485
14753,11.0,-0.001389,0.000831,-0.376934,0.006188,0.004047,-0.005424,0.0464,-2.2285,0.8988,-0.00001450,-0.00007205,-0.00000784,-0.00578993,0.02878638,0.01697781,-0.2462,0.1567,-9.5511,-0.044028,0.049744,0.002938,1.7703,-13.2132,12.4273,28.3648,0.3770,167,0,0,0.003382,-0.002198,-0.374442,-0.014628,-0.005472,0.064432,-0.2785,-0.1487,0.6362
14764,11.0,-0.001379,0.000809,-0.376969,0.006458,0.001909,-0.000843,-0.0104,-2.1772,0.9310,-0.00001159,-0.00007530,-0.00000792,-0.00565857,0.02890402,0.01695697,-0.2143,-0.0524,-9.3732,-0.017884,0.002749,0.047193,2.6323,-13.6053,11.6757,28.3648,0.3770,172,0,0,0.003027,-0.002315,-0.373095,-0.018437,-0.005226,0.070982,-0.3189,-0.0926,0.6857
14775,11.0,-0.000881,0.000764,-0.376789,0.016677,-0.001086,0.005596,-0.0745,-2.5090,0.9268,-0.00000833,-0.00005354,-0.00000810,-0.00647660,0.02901966,0.01557190,-0.2581,-0.1324,-9.3940,-0.032753,-0.066310,-0.005530,2.6323,-13.6053,11.6757,28.3886,0.3780,177,0,0,0.003110,-0.002334,-0.375814,-0.017512,-0.006585,0.038662,-0.3275,-0.1042,0.7164
14786,11.0,0.000125,0.000679,-0.377209,0.034423,-0.002973,0.001743,-0.1496,-3.0669,0.8897,-0.00000423,-0.00001250,-0.00000851,-0.00789080,0.02920037,0.02074158,-0.2937,-0.0082,-9.6177,-0.049930,-0.132299,-0.066008,2.6323,-13.6053,11.6757,28.3886,0.3780,170,0,0,0.003498,-0.002376,-0.375408,-0.013720,-0.008366,0.042667,-0.3473,-0.1506,0.6627
14797,11.0,0.001362,0.000603,-0.377067,0.054033,-0.002353,0.002396,-0.2117,-3.6655,0.8307,-0.00000032,0.00003688,-0.00000840,-0.00932899,0.02931304,0.01983944,-0.3043,0.2060,-9.8793,-0.041400,-0.161895,-0.077034,2.6323,-13.6053,11.6757,28.3886,0.3780,168,0,0,0.004977,-0.002504,-0.374341,-0.000443,-0.009309,0.047178,-0.4013,-0.3288,0.5948
14808,11.0,0.002255,0.000559,-0.377058,0.063876,0.000439,-0.001403,-0.2442,-3.8852,0.7871,0.00000234,0.00005417,-0.00000815,-0.00974209,0.02937780,0.01994063,-0.2524,0.3824,-10.1461,-0.019462,-0.109472,-0.055760,2.6323,-13.6053,11.6757,28.3886,0.3760,171,0,0,0.005822,-0.002561,-0.375145,0.006628,-0.007490,0.032226,-0.4221,-0.4323,0.5512
14819,11.0,0.002536,0.000524,-0.375916,0.060460,0.003194,0.008456,-0.2845,-3.6924,0.7931,0.00000588,0.00002486,-0.00000913,-0.00949673,0.02944548,0.00768607,-0.2596,0.4307,-10.1791,-0.013242,-0.019872,-0.024593,2.6323,-13.6053,11.6757,28.3886,0.3760,172,0,0,0.006431,-0.002600,-0.374718,0.010835,-0.004656,0.030313,-0.4331,-0.5021,0.5215
14830,11.0,0.002099,0.000480,-0.375843,0.043166,0.004651,0.006327,-0.3478,-3.0800,0.8788,0.00001405,-0.00005873,-0.00001247,-0.00815308,0.02942648,0.00722188,-0.2641,0.3900,-9.9760,-0.017614,0.084082,0.012246,2.6323,-13.6053,11.6757,28.3886,0.3770,172,0,0,0.006567,-0.002673,-0.375605,0.006815,0.001036,0.007670,-0.4505,-0.4992,0.5300
14841,11.0,0.001304,0.000455,-0.375624,0.022196,0.005790,0.009525,-0.3868,-2.4138,0.9853,0.00001919,-0.00015598,-0.00001685,-0.00660323,0.02951833,0.00509608,-0.2695,0.3403,-9.6575,-0.005950,0.126984,0.011152,2.6323,-13.6053,11.6757,28.3886,0.3770,168,0,0,0.006095,-0.002715,-0.375533,-0.000527,0.003027,0.006676,-0.4617,-0.4268,0.5703
14853,12.0,0.000735,0.000479,-0.376152,0.007949,0.006933,0.006671,-0.4017,-1.9822,1.0553,0.00002344,-0.00022421,-0.00002001,-0.00538434,0.02952458,0.01154135,-0.3041,0.2780,-9.3623,0.011181,0.087627,-0.000622,2.6323,-13.6053,11.6757,28.3886,0.3770,168,0,0,0.004849,-0.002740,-0.375190,-0.016645,0.006145,0.013077,-0.4610,-0.2513,0.6470
14864,11.0,0.000783,0.000446,-0.375930,0.007138,0.006483,0.013683,-0.4619,-1.9684,1.0739,0.00003303,-0.00022729,-0.00002046,-0.00537314,0.02967700,0.01029370,-0.3394,0.2420,-9.2853,-0.020957,-0.001225,0.020049,3.0541,-13.9916,12.7742,28.3886,0.3750,175,0,0,0.004471,-0.002735,-0.375036,-0.021412,0.006901,0.017636,-0.4577,-0.1998,0.6708
14875,11.0,0.001458,0.000383,-0.375751,0.017041,0.005939,0.018278,-0.5447,-2.2470,1.0396,0.00004649,-0.00017566,-0.00001872,-0.00605502,0.02985714,0.01050251,-0.3585,0.2815,-9.3777,-0.040009,-0.085868,0.013104,3.0541,-13.9916,12.7742,28.3886,0.3750,170,0,0,0.004446,-0.002761,-0.374828,-0.022188,0.007065,0.022809,-0.4697,-0.1937,0.6891
14886,11.0,0.002613,0.000407,-0.374965,0.033910,0.007239,0.025821,-0.5656,-2.6975,0.9720,0.00005207,-0.00008643,-0.00001497,-0.00726510,0.03002044,0.00513354,-0.3426,0.3166,-9.7345,-0.000622,-0.156297,0.017726,3.0541,-13.9916,12.7742,28.3886,0.3750,173,0,0,0.005475,-0.002846,-0.374290,-0.012591,0.007839,0.030101,-0.5143,-0.3216,0.6609
14897,11.0,0.003768,0.000432,-0.374691,0.048257,0.007706,0.023557,-0.5965,-3.0523,0.9418,0.00006129,-0.00001373,-0.00001201,-0.00811522,0.03002415,0.00539281,-0.3360,0.2703,-10.0073,-0.002235,-0.150729,0.049919,3.0541,-13.9916,12.7742,28.3886,0.3760,170,0,0,0.006295,-0.002835,-0.373789,-0.005073,0.008915,0.032680,-0.5156,-0.4258,0.6500
14908,11.0,0.004542,0.000355,-0.374300,0.054654,0.005297,0.021371,-0.6837,-3.1817,0.9819,0.00007796,0.00000950,-0.00001176,-0.00837121,0.03021058,0.00394460,-0.3110,0.1540,-10.1717,-0.049980,-0.087387,0.081243,3.0541,-13.9916,12.7742,28.3886,0.3760,172,0,0,0.007094,-0.002825,-0.374978,0.001666,0.009441,0.014827,-0.5211,-0.5275,0.6565
14919,11.0,0.003913,0.000226,-0.374811,0.037506,-0.001088,0.009013,-0.7828,-2.7831,1.1210,0.00009494,-0.00012552,-0.00001525,-0.00710087,0.03018577,0.01042190,-0.2941,-0.1802,-10.1463,-0.067501,0.002939,0.116421,3.0541,-13.9916,12.7742,28.3886,0.3760,173,-1,0,0.007432,-0.002951,-0.374619,0.000793,0.005870,0.008681,-0.5849,-0.6078,0.7784
14930,11.0,0.002870,0.000064,-0.374612,0.016347,-0.009368,0.008001,-0.8601,-2.3084,1.1907,0.00010465,-0.00028985,-0.00001549,-0.00598773,0.03027317,0.00882828,-0.3018,-0.4258,-10.0205,-0.076638,0.056442,0.085088,3.0541,-13.9916,12.7742,28.3886,0.3760,169,-1,0,0.006898,-0.003042,-0.374549,-0.006613,0.001019,0.005381,-0.6269,-0.5851,0.8786
14941,11.0,0.002538,-0.000113,-0.374527,0.009557,-0.016753,0.007660,-0.9132,-2.1201,1.1772,0.00010335,-0.00035108,-0.00001453,-0.00562212,0.03047445,0.00868041,-0.2888,-0.4559,-9.8348,-0.083762,0.061887,-0.005555,3.0541,-13.9916,12.7742,28.3886,0.3760,170,0,0,0.005884,-0.003248,-0.375329,-0.018466,-0.011593,-0.006041,-0.7194,-0.4921,1.0028
14952,11.0,0.002881,-0.000129,-0.375049,0.013899,-0.018219,0.001040,-0.8632,-2.1424,1.1069,0.00008071,-0.00032400,-0.00001451,-0.00561546,0.03024559,0.01432699,-0.3035,-0.2164,-9.7461,-0.003273,0.063407,-0.117461,3.0541,-13.9916,12.7742,28.3886,0.3760,170,1,0,0.005613,-0.003345,-0.375238,-0.021298,-0.016854,-0.004130,-0.7588,-0.4492,0.9949
14963,11.0,0.002296,0.000055,-0.375035,0.002955,-0.012628,0.001502,-0.6878,-1.9109,0.9801,0.00003127,-0.00041577,-0.00001102,-0.00508894,0.02993730,0.01412563,-0.3394,0.1508,-9.7436,0.109164,0.066999,-0.148252,3.0541,-13.9916,12.7742,28.3886,0.3750,170,0,0,0.005837,-0.003342,-0.375276,-0.018718,-0.018857,-0.003504,-0.7571,-0.4170,0.9364
14974,11.0,0.002442,0.000255,-0.374863,0.005109,-0.005113,0.003934,-0.5358,-1.8960,0.9130,-0.00001025,-0.00040029,-0.00000965,-0.00521819,0.02971660,0.01274146,-0.2836,0.3846,-9.7360,0.110609,0.071520,-0.092958,3.0357,-13.5996,11.6955,28.3886,0.3750,169,1,0,0.004951,-0.003062,-0.374989,-0.028380,-0.012222,0.001298,-0.6166,-0.3200,0.7944
14985,11.0,0.002115,0.000219,-0.374798,-0.001023,-0.002200,0.005116,-0.5396,-1.7762,0.9172,-0.00000936,-0.00045064,-0.00000989,-0.00494034,0.02961709,0.01250636,-0.3675,0.3844,-9.6978,-0.005310,0.046702,0.001542,3.0357,-13.5996,11.6955,28.3886,0.3750,165,0,0,0.005067,-0.002931,-0.374972,-0.026392,-0.007277,0.001966,-0.5544,-0.2850,0.7365
14996,11.0,0.002712,0.000024,-0.374613,0.007019,-0.003663,0.008653,-0.6431,-1.8899,0.9576,0.00001685,-0.00036597,-0.00001000,-0.00539957,0.02975786,0.01159089,-0.3899,0.2251,-9.5974,-0.093819,0.040799,0.073564,3.0357,-13.5996,11.6955,28.3886,0.3750,172,1,0,0.004811,-0.002947,-0.374759,-0.029258,-0.004303,0.005085,-0.5521,-0.2516,0.7465
15007,11.0,0.002777,-0.000045,-0.374500,0.006296,-0.006996,0.011877,-0.6705,-1.8875,1.0313,0.00001847,-0.00036739,-0.00001007,-0.00539262,0.02976577,0.01158923,-0.3768,-0.1504,-9.5009,-0.035579,-0.001321,0.115984,3.0357,-13.5996,11.6955,28.3886,0.3770,166,0,0,0.005121,-0.003186,-0.376131,-0.026469,-0.004990,-0.006115,-0.6483,-0.2199,0.8463
15018,11.0,0.002773,0.000055,-0.375596,0.004962,-0.009706,0.000213,-0.5980,-1.8734,1.0418,-0.00001445,-0.00037975,-0.00000855,-0.00498554,0.02955725,0.02217515,-0.3539,-0.3786,-9.5188,0.043168,-0.004294,0.034871,3.0357,-13.5996,11.6955,28.3886,0.3770,168,0,0,0.005140,-0.003212,-0.376048,-0.026457,-0.007770,-0.001663,-0.6613,-0.2207,0.9165
15029,11.0,0.002728,0.000175,-0.375578,0.003413,-0.011589,0.003129,-0.5042,-1.8551,1.0099,-0.00005839,-0.00039392,-0.00000666,-0.00491354,0.02953645,0.02215173,-0.3396,-0.3819,-9.5203,0.056244,-0.001130,-0.031676,3.0357,-13.5996,11.6955,28.3886,0.3750,168,0,0,0.005129,-0.003148,-0.376050,-0.026541,-0.010927,0.001340,-0.6393,-0.2223,0.9556
15040,11.0,0.002700,0.000305,-0.375379,0.001857,-0.010369,0.007366,-0.4068,-1.8477,0.9225,-0.00010051,-0.00040262,-0.00000462,-0.00492125,0.02934854,0.02082493,-0.3826,-0.1200,-9.5643,0.066315,-0.005073,-0.116559,3.0357,-13.5996,11.6955,28.3886,0.3750,167,0,0,0.005029,-0.002959,-0.375226,-0.027521,-0.015472,0.014247,-0.5630,-0.2202,0.9217
15051,11.0,0.002849,0.000416,-0.375016,0.002702,-0.007143,0.012377,-0.3262,-1.8929,0.8494,-0.00013474,-0.00037892,-0.00000352,-0.00505261,0.02916764,0.01858430,-0.4099,0.1107,-9.6167,0.059771,-0.027961,-0.110185,3.0357,-13.5996,11.6955,28.3886,0.3750,166,0,0,0.004991,-0.002862,-0.375071,-0.028098,-0.015451,0.016717,-0.5193,-0.2231,0.8644
15062,11.0,0.003395,0.000403,-0.374759,0.009398,-0.005126,0.014682,-0.3179,-2.0340,0.8421,-0.00014272,-0.00029232,-0.00000430,-0.00543215,0.02913087,0.01767185,-0.3680,0.1954,-9.7024,-0.001996,-0.072103,-0.032904,2.6213,-13.2155,12.4196,28.3886,0.3750,169,0,0,0.005239,-0.002727,-0.374500,-0.026157,-0.011226,0.022473,-0.4522,-0.2674,0.7642
15073,11.0,0.005035,0.000276,-0.374601,0.029871,-0.005044,0.014027,-0.3788,-2.3724,0.8761,-0.00012363,-0.00002732,-0.00000684,-0.00638686,0.02914627,0.01788368,-0.4146,0.1903,-9.8398,-0.064923,-0.100002,0.001826,2.6213,-13.2155,12.4196,28.3886,0.3750,164,1,0,0.005630,-0.002747,-0.374618,-0.022315,-0.009462,0.019791,-0.4562,-0.3187,0.7531
15084,11.0,0.006010,0.000169,-0.374475,0.039406,-0.005789,0.011660,-0.4236,-2.5573,0.8965,-0.00011264,0.00008665,-0.00000784,-0.00675874,0.02918586,0.01809672,-0.3497,0.0908,-9.9836,-0.053326,-0.116126,0.012043,2.6213,-13.2155,12.4196,28.3886,0.3750,170,0,0,0.007403,-0.002918,-0.374233,-0.005986,-0.008726,0.018195,-0.5288,-0.4759,0.7138
15095,11.0,0.006615,0.000167,-0.374369,0.043234,-0.005723,0.007615,-0.4134,-2.6313,0.8910,-0.00012450,0.00011682,-0.00000747,-0.00684524,0.02915228,0.01811616,-0.3150,0.0255,-10.1560,-0.001598,-0.073053,-0.008957,2.6213,-13.2155,12.4196,28.3886,0.3730,170,0,0,0.008012,-0.002975,-0.373370,-0.001212,-0.008871,0.023502,-0.5529,-0.5474,0.7244
15106,11.0,0.005005,0.000199,-0.374177,0.016888,-0.005196,0.005072,-0.3714,-2.2793,0.8358,-0.00014925,-0.00028225,-0.00000471,-0.00589706,0.02907723,0.01677911,-0.2976,0.0266,-10.1658,0.029948,0.005178,-0.028583,2.6213,-13.2155,12.4196,28.4467,0.3730,169,-2,0,0.008382,-0.002972,-0.373153,0.000952,-0.008984,0.019995,-0.5513,-0.5900,0.7257
15117,11.0,0.004272,0.000278,-0.373352,0.005892,-0.003420,0.012159,-0.3197,-2.0669,0.7912,-0.00017559,-0.00046607,-0.00000321,-0.00581684,0.02893951,0.01053017,-0.2687,0.0917,-9.9837,0.045807,0.094449,-0.046185,2.6213,-13.2155,12.4196,28.4467,0.3730,168,0,0,0.007068,-0.002912,-0.372688,-0.014962,-0.008168,0.014747,-0.5107,-0.5343,0.7266
15128,11.0,0.003141,0.000359,-0.373114,-0.009163,-0.001330,0.014404,-0.2669,-1.7872,0.7536,-0.00020224,-0.00070560,-0.00000236,-0.00528498,0.02886894,0.00958554,-0.2704,0.1318,-9.7014,0.048848,0.144466,-0.041951,2.6213,-13.2155,12.4196,28.4467,0.3740,167,0,0,0.006461,-0.002855,-0.372547,-0.021298,-0.006936,0.013448,-0.4797,-0.4570,0.7144
15139,11.0,0.002129,0.000380,-0.372932,-0.021175,-0.000669,0.018551,-0.2480,-1.5662,0.7392,-0.00021216,-0.00089105,-0.00000233,-0.00483399,0.02884175,0.00948318,-0.2973,0.0909,-9.4187,0.017451,0.130227,-0.015583,2.6213,-13.2155,12.4196,28.4467,0.3740,168,0,0,0.005687,-0.002800,-0.373314,-0.028959,-0.005495,0.004618,-0.4481,-0.3601,0.7080
15150,11.0,0.001797,0.000330,-0.373260,-0.022989,-0.002321,0.017995,-0.2668,-1.5243,0.7427,-0.00020580,-0.00091166,-0.00000252,-0.00462032,0.02886982,0.01381998,-0.3106,-0.0385,-9.2398,-0.023279,0.043348,0.006893,2.6213,-13.2155,12.4196,28.4467,0.3740,165,0,0,0.004399,-0.002783,-0.373018,-0.040101,-0.004975,0.013867,-0.4295,-0.1986,0.7272
15161,11.0,0.002967,0.000239,-0.373032,-0.006029,-0.004856,0.023588,-0.3099,-1.7561,0.7630,-0.00018980,-0.00060987,-0.00000459,-0.00542644,0.02891619,0.01395181,-0.4038,-0.0906,-9.2804,-0.051373,-0.044549,-0.008997,2.6213,-13.6019,13.1516,28.4467,0.3730,168,1,0,0.004216,-0.002822,-0.372851,-0.040409,-0.006277,0.019534,-0.4445,-0.1766,0.7409
15172,11.0,0.004792,0.000166,-0.372625,0.018267,-0.006318,0.028485,-0.3428,-2.1010,0.7748,-0.00018113,-0.00020153,-0.00000759,-0.00653715,0.02894153,0.01310804,-0.3130,-0.0366,-9.4878,-0.044165,-0.129860,-0.044427,2.6213,-13.6019,13.1516,28.4467,0.3730,168,1,0,0.004966,-0.002876,-0.372844,-0.031449,-0.008045,0.022562,-0.4725,-0.2140,0.7376
15183,11.0,0.005858,0.000167,-0.372539,0.029952,-0.004797,0.025018,-0.3346,-2.3047,0.7356,-0.00019126,-0.00001267,-0.00000755,-0.00699584,0.02885086,0.01485227,-0.3122,0.1486,-9.8681,0.000132,-0.138119,-0.075562,2.6213,-13.6019,13.1516,28.4124,0.3730,170,0,0,0.006858,-0.002958,-0.372214,-0.011016,-0.009519,0.029096,-0.5144,-0.3962,0.6316
15194,11.0,0.006437,0.000195,-0.372173,0.034402,-0.000989,0.023146,-0.3122,-2.3843,0.6770,-0.00020494,0.00004279,-0.00000670,-0.00714639,0.02882034,0.01403379,-0.2874,0.3577,-10.0806,0.018952,-0.074178,-0.088752,2.6213,-13.6019,13.1516,28.4124,0.3730,168,0,0,0.007549,-0.002953,-0.371750,-0.004677,-0.008183,0.030201,-0.5111,-0.4848,0.5906
15206,12.0,0.006394,0.000181,-0.371919,0.029398,0.004177,0.019288,-0.3105,-2.3131,0.6422,-0.00019832,-0.00006554,-0.00000923,-0.00694274,0.02883116,0.01399583,-0.3492,0.5510,-10.1092,0.004803,0.015579,-0.076187,2.6213,-13.6019,13.1516,28.4124,0.3730,171,0,0,0.008184,-0.002932,-0.372192,-0.001066,-0.001704,0.014859,-0.4899,-0.5617,0.5006
15217,11.0,0.005079,0.000132,-0.372180,0.008740,0.007622,0.011704,-0.3299,-2.0553,0.7424,-0.00017487,-0.00046062,-0.00002271,-0.00615459,0.02885374,0.01724881,-0.3862,0.5388,-9.9823,-0.009332,0.072089,-0.000756,2.6213,-13.6019,13.1516,28.4124,0.3730,171,-1,0,0.008082,-0.002947,-0.371918,-0.004363,0.002364,0.013522,-0.4875,-0.5421,0.4770
15228,11.0,0.004665,0.000058,-0.372054,0.001271,0.008326,0.011282,-0.3740,-1.9523,0.8330,-0.00013125,-0.00058370,-0.00002872,-0.00592180,0.02883706,0.01721089,-0.4543,0.3526,-9.8193,-0.031004,0.061424,0.081697,2.6213,-13.6019,13.1516,28.4124,0.3720,168,0,0,0.007198,-0.002986,-0.371792,-0.015969,0.005696,0.011599,-0.4940,-0.4803,0.5138
15239,11.0,0.004816,-0.000100,-0.371783,0.002251,0.003863,0.013854,-0.4584,-1.9729,0.9034,-0.00007051,-0.00054890,-0.00003022,-0.00601392,0.02894958,0.01616627,-0.4123,-0.0352,-9.7072,-0.082509,-0.006888,0.110108,2.6213,-13.6019,13.1516,28.4124,0.3720,167,0,0,0.006750,-0.003112,-0.371662,-0.023230,0.006027,0.010469,-0.5459,-0.4102,0.6444
15250,11.0,0.005282,-0.000188,-0.371701,0.007721,-0.000487,0.013093,-0.5038,-2.0593,0.9244,-0.00004532,-0.00043679,-0.00002952,-0.00616532,0.02913407,0.01670881,-0.3539,-0.1619,-9.7829,-0.051698,-0.053124,0.046828,2.6213,-13.6019,13.1516,28.4705,0.3720,170,0,0,0.006866,-0.003217,-0.371553,-0.022590,0.002557,0.011382,-0.5966,-0.4174,0.7117
15261,11.0,0.005651,-0.000101,-0.371476,0.012491,-0.001942,0.012243,-0.4703,-2.1255,0.9044,-0.00007244,-0.00036426,-0.00002770,-0.00629380,0.02910821,0.01604908,-0.2503,-0.1394,-9.9714,0.032426,-0.052660,-0.019329,2.1994,-13.2155,11.3216,28.4705,0.3720,169,0,0,0.007434,-0.003289,-0.371156,-0.016597,-0.004023,0.012836,-0.6403,-0.4853,0.7589
15273,12.0,0.005525,-0.000059,-0.371347,0.010227,-0.002219,0.009231,-0.4448,-2.0791,0.8771,-0.00009572,-0.00044333,-0.00002765,-0.00629051,0.02915449,0.01603110,-0.2731,0.0104,-10.0425,0.020456,0.016713,-0.043835,2.1994,-13.2155,11.3216,28.4705,0.3710,168,0,0,0.007642,-0.003228,-0.370908,-0.014124,-0.005675,0.012389,-0.6178,-0.5151,0.7508
15284,11.0,0.004772,-0.000105,-0.370909,0.000598,-0.002086,0.011573,-0.4531,-1.9146,0.8645,-0.00009365,-0.00067933,-0.00002990,-0.00608242,0.02919462,0.01354469,-0.2592,0.1425,-9.9458,-0.013365,0.101708,-0.040406,2.1994,-13.2155,11.3216,28.4705,0.3710,168,0,0,0.007554,-0.003199,-0.370796,-0.015130,-0.006188,0.010043,-0.6044,-0.5045,0.6421
15295,11.0,0.003691,-0.000110,-0.370772,-0.012435,-0.001290,0.013370,-0.4462,-1.7030,0.8835,-0.00009934,-0.00097886,-0.00003285,-0.00569985,0.02911297,0.01347513,-0.2897,0.1629,-9.6280,0.007504,0.140577,0.001647,2.1994,-13.2155,11.3216,28.4705,0.3700,172,0,0,0.006497,-0.003247,-0.370465,-0.026279,-0.005372,0.009871,-0.6115,-0.3604,0.6383
15306,11.0,0.002903,-0.000117,-0.370480,-0.021184,-0.002418,0.019341,-0.4440,-1.5674,0.9230,-0.00010609,-0.00115810,-0.00003401,-0.00547006,0.02911405,0.01257967,-0.3605,-0.0149,-9.3794,0.000703,0.101503,0.052071,2.1994,-13.2155,11.3216,28.4705,0.3700,172,0,0,0.005771,-0.003247,-0.370126,-0.033270,-0.004662,0.014273,-0.6043,-0.2661,0.6614
15317,11.0,0.002735,-0.000196,-0.370025,-0.021482,-0.005906,0.027301,-0.4734,-1.5584,0.9550,-0.00009601,-0.00113780,-0.00003435,-0.00555204,0.02915017,0.01112089,-0.3713,-0.1749,-9.2952,-0.039514,0.024776,0.049251,2.1994,-13.2155,11.3216,28.4705,0.3700,170,0,0,0.004835,-0.003265,-0.369655,-0.041353,-0.007074,0.023773,-0.6071,-0.1468,0.7460
15328,11.0,0.004135,-0.000238,-0.369586,-0.002114,-0.008081,0.032683,-0.4916,-1.7769,0.9715,-0.00009973,-0.00067071,-0.00003637,-0.00633434,0.02915487,0.01036632,-0.3180,-0.1307,-9.4356,-0.031667,-0.075506,-0.013720,2.1994,-13.2155,11.3216,28.3780,0.3690,169,1,0,0.005412,-0.003311,-0.369167,-0.033798,-0.009861,0.031282,-0.6322,-0.1620,0.7689
15339,11.0,0.004941,-0.000195,-0.369220,0.007824,-0.007816,0.033845,-0.4655,-1.9311,0.9497,-0.00014036,-0.00042957,-0.00003661,-0.00671796,0.02917971,0.01040271,-0.3215,-0.0197,-9.6892,0.016459,-0.108951,-0.058330,2.1994,-13.2155,11.3216,28.3780,0.3690,170,0,0,0.006326,-0.003339,-0.368725,-0.023106,-0.011776,0.036397,-0.6502,-0.2214,0.7644
15350,11.0,0.005546,-0.000127,-0.368716,0.014733,-0.005970,0.034549,-0.4294,-2.0362,0.9190,-0.00018316,-0.00027673,-0.00003574,-0.00697745,0.02912167,0.00950003,-0.2783,0.1077,-9.8769,0.031671,-0.083299,-0.057377,2.1994,-13.2155,11.3216,28.3780,0.3690,168,0,0,0.007317,-0.003279,-0.367792,-0.012902,-0.011500,0.040316,-0.6244,-0.3553,0.7123
15361,11.0,0.005498,-0.000155,-0.368348,0.012337,-0.003724,0.032383,-0.4300,-2.0089,0.8931,-0.00018836,-0.00034030,-0.00003548,-0.00689132,0.02901563,0.00948965,-0.3456,0.2796,-9.9901,-0.004858,0.009660,-0.037409,2.1958,-12.4417,12.4235,28.3780,0.3700,172,0,0,0.007551,-0.003259,-0.367396,-0.011354,-0.009465,0.038906,-0.6109,-0.3852,0.6915
15372,11.0,0.005186,-0.000207,-0.367847,0.006954,-0.002001,0.032900,-0.4411,-1.9355,0.8982,-0.00018358,-0.00047753,-0.00003683,-0.00675341,0.02902319,0.00841884,-0.3516,0.2839,-9.9136,-0.015343,0.045403,-0.000431,2.1958,-12.4417,12.4235,28.3780,0.3700,172,0,0,0.007549,-0.003274,-0.368876,-0.012651,-0.007377,0.017087,-0.6106,-0.3846,0.6780
15383,11.0,0.004788,-0.000238,-0.368746,0.000672,-0.001482,0.018246,-0.4480,-1.8547,0.9323,-0.00018250,-0.00062411,-0.00003836,-0.00625267,0.02895203,0.01679884,-0.3933,0.1663,-9.7777,-0.008615,0.055163,0.043990,2.1958,-12.4417,12.4235,28.3780,0.3700,174,0,0,0.007075,-0.003345,-0.368416,-0.020046,-0.003993,0.016552,-0.6265,-0.3154,0.6319
15394,11.0,0.004628,-0.000260,-0.368405,-0.001487,-0.002327,0.021225,-0.4552,-1.8236,0.9671,-0.00018253,-0.00067673,-0.00003881,-0.00621925,0.02895546,0.01587846,-0.3356,0.0302,-9.6646,-0.009901,0.022814,0.052169,2.1958,-12.4417,12.4235,28.3199,0.3680,168,0,0,0.006798,-0.003366,-0.368021,-0.023971,-0.003515,0.019255,-0.6312,-0.2759,0.6705
15405,11.0,0.004764,-0.000327,-0.368164,0.000352,-0.004614,0.022559,-0.4783,-1.8456,0.9900,-0.00017775,-0.00062811,-0.00003916,-0.00627858,0.02909399,0.01588563,-0.3155,-0.0712,-9.6690,-0.034070,-0.013064,0.032188,2.1958,-12.4417,12.4235,28.3199,0.3680,169,0,0,0.006623,-0.003407,-0.367714,-0.025854,-0.005822,0.020675,-0.6485,-0.2510,0.7437
15416,11.0,0.005072,-0.000392,-0.367743,0.004687,-0.006771,0.025270,-0.4999,-1.8960,0.9886,-0.00017528,-0.00053026,-0.00003924,-0.00643597,0.02910238,0.01479645,-0.2551,-0.0844,-9.7258,-0.033544,-0.035977,-0.006290,2.1958,-12.4417,12.4235,28.3199,0.3680,170,0,0,0.006760,-0.003449,-0.367326,-0.024002,-0.008022,0.023905,-0.6674,-0.2676,0.7636
15427,11.0,0.005181,-0.000407,-0.367464,0.005598,-0.007581,0.025406,-0.4955,-1.9089,0.9752,-0.00020243,-0.00051185,-0.00003869,-0.00647177,0.02918055,0.01479809,-0.3112,-0.0351,-9.7790,-0.006588,-0.012642,-0.023840,2.1958,-12.4417,12.4235,28.3199,0.3700,172,0,0,0.006954,-0.003489,-0.367083,-0.021279,-0.009889,0.024779,-0.6852,-0.2909,0.7677
15438,11.0,0.005044,-0.000359,-0.367012,0.003826,-0.007398,0.027463,-0.4659,-1.8810,0.9556,-0.00025010,-0.00057897,-0.00003688,-0.00643342,0.02912758,0.01363483,-0.2777,-0.0215,-9.7960,0.025357,0.014893,-0.023399,2.1958,-12.4417,12.4235,28.3199,0.3700,173,0,0,0.007057,-0.003489,-0.368521,-0.019974,-0.011307,0.006461,-0.6817,-0.3068,0.7596
15449,11.0,0.004763,-0.000301,-0.368399,0.000596,-0.006590,0.007966,-0.4293,-1.8305,0.9259,-0.00030781,-0.00069315,-0.00003480,-0.00599337,0.02911342,0.02446797,-0.2693,0.0228,-9.7604,0.031868,0.032443,-0.035939,2.1958,-12.4417,12.4235,28.3780,0.3700,168,0,0,0.006945,-0.003452,-0.368456,-0.021004,-0.011374,0.006515,-0.6621,-0.2948,0.7563
15460,11.0,0.004426,-0.000256,-0.368191,-0.003108,-0.005802,0.010080,-0.4007,-1.7742,0.8905,-0.00035095,-0.00081143,-0.00003302,-0.00588365,0.02906345,0.02368482,-0.2829,0.0433,-9.7182,0.025953,0.040288,-0.045508,3.0541,-13.6053,11.6757,28.3780,0.3690,170,0,0,0.006752,-0.003412,-0.368199,-0.022825,-0.011026,0.009036,-0.6404,-0.2714,0.7471
15471,11.0,0.004131,-0.000217,-0.368075,-0.005814,-0.004329,0.011003,-0.3761,-1.7286,0.8660,-0.00038520,-0.00090444,-0.00003170,-0.00580779,0.02896612,0.02367488,-0.2684,0.1221,-9.6984,0.024305,0.034492,-0.031424,3.0541,-13.6053,11.6757,28.3780,0.3690,166,0,0,0.006325,-0.003353,-0.368454,-0.026332,-0.009649,0.006515,-0.6047,-0.2219,0.7203
15482,11.0,0.003863,-0.000166,-0.368340,-0.008080,-0.003124,0.007818,-0.3486,-1.6916,0.8498,-0.00042220,-0.00097664,-0.00003062,-0.00564637,0.02892805,0.02614723,-0.2844,0.0962,-9.6512,0.027974,0.029877,-0.021685,3.0541,-13.6053,11.6757,28.3780,0.3690,162,0,0,0.006123,-0.003324,-0.368383,-0.027724,-0.008470,0.007620,-0.5871,-0.1999,0.7039
15493,11.0,0.003687,-0.000151,-0.368246,-0.008889,-0.002744,0.009257,-0.3377,-1.6705,0.8409,-0.00044040,-0.00100897,-0.00003008,-0.00562780,0.02889601,0.02614419,-0.2699,0.0677,-9.6493,0.009702,0.020095,-0.012453,3.0541,-13.6053,11.6757,28.3780,0.3700,162,0,0,0.005936,-0.003289,-0.368300,-0.029033,-0.007414,0.008952,-0.5674,-0.1789,0.7003
15504,11.0,0.003784,-0.000255,-0.367984,-0.006792,-0.004513,0.012683,-0.3738,-1.6910,0.8330,-0.00041419,-0.00093795,-0.00003091,-0.00574020,0.02892529,0.02517699,-0.3084,-0.0017,-9.6351,-0.048526,-0.007026,-0.016468,3.0541,-13.6053,11.6757,28.3780,0.3700,168,0,0,0.005741,-0.003298,-0.369152,-0.029511,-0.007813,0.001561,-0.5661,-0.1587,0.7088
15515,11.0,0.004059,-0.000367,-0.368928,-0.002853,-0.006328,0.000610,-0.4092,-1.7384,0.8171,-0.00039858,-0.00081061,-0.00003192,-0.00567329,0.02903264,0.03190987,-0.3115,-0.0149,-9.7188,-0.052619,-0.029317,-0.034914,3.0541,-13.6053,11.6757,28.3780,0.3700,168,0,0,0.005788,-0.003359,-0.368977,-0.028370,-0.008970,0.004849,-0.5901,-0.1639,0.7106
15526,11.0,0.004355,-0.000437,-0.368804,0.001241,-0.006801,0.002098,-0.4280,-1.7873,0.7899,-0.00039725,-0.00068945,-0.00003223,-0.00583070,0.02903269,0.03117567,-0.2790,0.0534,-9.7679,-0.031209,-0.034870,-0.050572,3.0541,-13.6053,11.6757,28.3780,0.3690,167,0,0,0.006136,-0.003497,-0.368928,-0.023819,-0.011146,0.005718,-0.6443,-0.2054,0.6846
15537,11.0,0.004229,-0.000321,-0.368789,0.000429,-0.003214,0.000671,-0.3745,-1.7700,0.7387,-0.00045990,-0.00074601,-0.00003031,-0.00583026,0.02882619,0.03117014,-0.2324,0.2360,-9.9049,0.060940,0.007303,-0.077643,3.0541,-13.6053,11.6757,28.4573,0.3690,168,0,0,0.006239,-0.003501,-0.368775,-0.022285,-0.010177,0.006546,-0.6413,-0.2196,0.6556
15548,11.0,0.003620,-0.000120,-0.368737,-0.005863,0.002084,0.000310,-0.2889,-1.6787,0.8232,-0.00054881,-0.00098084,-0.00004982,-0.00560568,0.02871678,0.03084386,-0.2214,0.3380,-9.8615,0.103831,0.064001,-0.057530,3.0541,-13.6053,11.6757,28.4573,0.3690,169,0,0,0.006167,-0.003434,-0.368714,-0.022513,-0.007693,0.005612,-0.6073,-0.2158,0.6206
15559,11.0,0.002622,-0.000013,-0.368728,-0.016449,0.005489,0.001313,-0.2465,-1.5258,0.8419,-0.00057353,-0.00134198,-0.00005412,-0.00525148,0.02853467,0.03082213,-0.2550,0.3152,-9.6832,0.059246,0.120957,-0.002712,2.6213,-13.6019,12.7856,28.4573,0.3690,167,0,0,0.005300,-0.003193,-0.368766,-0.030132,-0.000109,0.002822,-0.4903,-0.1193,0.5895
15570,11.0,0.001741,-0.000024,-0.368571,-0.024612,0.006150,0.006339,-0.2516,-1.3976,0.8764,-0.00054661,-0.00161488,-0.00005939,-0.00498275,0.02856346,0.03005191,-0.2546,0.2139,-9.4525,0.000664,0.112696,0.023919,2.6213,-13.6019,12.7856,28.4573,0.3690,164,0,0,0.004625,-0.003131,-0.368731,-0.036332,0.002413,0.004163,-0.4576,-0.0364,0.6088
15581,11.0,0.001384,-0.000041,-0.368703,-0.026246,0.004941,0.008262,-0.2646,-1.3618,0.9043,-0.00051438,-0.00164807,-0.00006069,-0.00491083,0.02858966,0.03140619,-0.2957,0.0492,-9.3591,-0.009792,0.044306,0.042246,2.6213,-13.6019,12.7856,28.4573,0.3690,165,0,0,0.003556,-0.003138,-0.368447,-0.044380,0.003247,0.012626,-0.4562,0.0953,0.6173
15592,11.0,0.002314,-0.000024,-0.368496,-0.012904,0.002861,0.013564,-0.2719,-1.4675,0.9012,-0.00049599,-0.00116426,-0.00005639,-0.00548731,0.02862058,0.03084727,-0.3111,-0.0862,-9.3961,-0.005769,-0.017723,0.022008,2.6213,-13.6019,12.7856,28.4573,0.3690,165,1,0,0.003397,-0.003686,-0.368107,-0.044235,-0.003923,0.019174,-0.4704,0.1128,0.6538
15603,11.0,0.003676,-0.000840,-0.368332,0.004267,-0.009412,0.016271,-0.3444,-1.6261,0.8960,-0.00016380,-0.00056727,-0.00006354,-0.00617737,0.02919999,0.03087615,-0.2818,-0.1653,-9.5301,-0.014686,-0.069343,-0.006301,2.6213,-13.6019,12.7856,28.4573,0.3690,161,1,-1,0.003996,-0.003677,-0.368597,-0.036118,-0.005331,0.015992,-0.4725,0.0897,0.6610
15614,11.0,0.004352,-0.000861,-0.368453,0.011871,-0.010808,0.013185,-0.3451,-1.7284,0.8764,-0.00019900,-0.00031349,-0.00006302,-0.00642097,0.02914190,0.03265752,-0.2568,-0.1417,-9.7356,-0.013082,-0.086125,-0.043549,2.6213,-13.6019,12.7856,28.4573,0.3690,167,0,0,0.005796,-0.004767,-0.368090,-0.015719,-0.020489,0.022557,-0.5051,-0.0237,0.6573
15625,11.0,0.004838,-0.000878,-0.368313,0.016549,-0.010576,0.012225,-0.3385,-1.7927,0.8307,-0.00024510,-0.00017288,-0.00006245,-0.00664623,0.02917860,0.03266271,-0.2501,-0.0047,-9.8621,-0.006476,-0.060547,-0.083728,2.6213,-13.6019,12.7856,28.4573,0.3710,166,0,0,0.006231,-0.004781,-0.367862,-0.011634,-0.020919,0.023070,-0.5066,-0.0796,0.6362
15636,11.0,0.004164,-0.000906,-0.368067,0.007331,-0.008917,0.011761,-0.3292,-1.7383,0.7660,-0.00028592,-0.00052896,-0.00006147,-0.00630938,0.02914148,0.03192108,-0.2513,0.1479,-9.9501,-0.000383,-0.017220,-0.093080,2.6213,-13.6019,12.7856,28.4573,0.3710,161,-1,0,0.006563,-0.004795,-0.369580,-0.008923,-0.020226,0.002088,-0.5067,-0.1220,0.5977
15647,11.0,0.003932,-0.000938,-0.369521,0.003797,-0.005500,-0.007914,-0.3270,-1.6940,0.7239,-0.00030296,-0.00066190,-0.00006165,-0.00596283,0.02895153,0.04101818,-0.2955,0.3462,-9.8822,-0.002838,0.031855,-0.066949,2.6213,-13.6019,12.7856,28.4573,0.3710,165,0,0,0.006125,-0.004836,-0.369563,-0.015362,-0.015659,-0.000279,-0.5004,-0.1218,0.5183
15658,11.0,0.003552,-0.000904,-0.369516,-0.001509,-0.001095,-0.007024,-0.3020,-1.6324,1.0476,-0.00033941,-0.00083870,-0.00012671,-0.00582469,0.02886339,0.04044859,-0.3316,0.4056,-9.7844,0.029212,0.046145,-0.018563,3.4649,-12.8292,12.0536,28.4573,0.3700,169,0,0,0.005951,-0.004859,-0.369414,-0.018098,-0.012112,0.000741,-0.4978,-0.0975,0.4934
15669,11.0,0.003228,-0.000822,-0.369592,-0.006201,0.002527,-0.006871,-0.2682,-1.5873,1.0670,-0.00036978,-0.00096513,-0.00012789,-0.00567243,0.02873337,0.04044281,-0.3911,0.3302,-9.7472,0.046098,0.035825,0.017737,3.4649,-12.8292,12.0536,28.4573,0.3700,170,0,0,0.005706,-0.004848,-0.369751,-0.021547,-0.008155,-0.003045,-0.4818,-0.0659,0.4898
15680,11.0,0.003322,-0.000860,-0.369695,-0.005085,0.000245,-0.006505,-0.2882,-1.6048,1.1154,-0.00034410,-0.00089320,-0.00012771,-0.00572976,0.02875428,0.04062163,-0.3520,-0.0724,-9.6979,-0.022811,-0.009501,0.081964,3.4649,-12.8292,12.0536,28.4573,0.3700,171,0,0,0.005355,-0.004762,-0.369695,-0.026874,-0.002958,-0.001027,-0.4332,-0.0250,0.6000
15691,11.0,0.003617,-0.001008,-0.369763,-0.001264,-0.005392,-0.005897,-0.3461,-1.6474,1.1595,-0.00029567,-0.00073940,-0.00012907,-0.00584592,0.02897548,0.04062624,-0.3079,-0.3026,-9.7112,-0.078453,-0.027264,0.065790,3.4649,-12.8292,12.0536,28.4573,0.3710,166,0,0,0.005395,-0.004777,-0.369701,-0.026725,-0.004310,-0.000052,-0.4407,-0.0305,0.6524
15702,11.0,0.003080,-0.000270,-0.369705,-0.006378,-0.000765,-0.004351,-0.3100,-1.6306,1.1339,-0.00066350,-0.00096666,-0.00011749,-0.00567830,0.02868048,0.03990520,-0.2086,-0.3560,-9.7637,-0.041589,-0.034307,-0.027358,3.4649,-12.8292,12.0536,28.4573,0.3710,165,-1,1,0.005780,-0.004940,-0.370444,-0.022342,-0.012652,-0.005745,-0.5171,-0.0718,0.7277
15713,11.0,0.003101,-0.000187,-0.370351,-0.004079,-0.002035,-0.011754,-0.2744,-1.6402,1.0654,-0.00072771,-0.00093900,-0.00011703,-0.00579326,0.02892207,0.04323910,-0.1666,-0.1504,-9.8098,0.033524,-0.009565,-0.119770,3.4649,-12.8292,12.0536,28.4573,0.3710,166,0,0,0.005399,-0.004435,-0.370377,-0.025645,-0.010350,-0.003924,-0.5230,-0.0816,0.7117
15724,11.0,0.002688,-0.000019,-0.370389,-0.006832,0.000671,-0.011247,-0.2052,-1.5874,0.9613,-0.00081458,-0.00110720,-0.00011400,-0.00567497,0.02885506,0.04269294,-0.1431,0.1238,-9.8240,0.082175,0.040033,-0.156253,3.4649,-12.8292,12.0536,28.4573,0.3700,166,0,0,0.005424,-0.004389,-0.370416,-0.023947,-0.011611,-0.003929,-0.5020,-0.0901,0.6596
15735,11.0,0.001642,0.000144,-0.370504,-0.016448,0.006570,-0.009659,-0.1380,-1.4389,0.9014,-0.00087160,-0.00155331,-0.00011404,-0.00537282,0.02862805,0.04268565,-0.1164,0.4620,-9.6216,0.090040,0.120892,-0.094617,3.4649,-12.8292,12.0536,28.4573,0.3700,166,0,0,0.004771,-0.004189,-0.370090,-0.027878,-0.006256,0.000305,-0.4039,-0.0204,0.5151
15746,11.0,0.000603,0.000288,-0.370137,-0.025826,0.010910,-0.000205,-0.0844,-1.3000,0.9133,-0.00090089,-0.00194421,-0.00011770,-0.00509507,0.02859947,0.04020063,-0.1909,0.3914,-9.3843,0.076632,0.120979,-0.003871,3.4649,-12.8292,12.0536,28.4573,0.3700,165,0,0,0.004084,-0.004085,-0.370079,-0.033272,-0.001222,0.002021,-0.3488,0.0604,0.4768
15757,11.0,0.000888,-0.000463,-0.370107,-0.019616,0.002077,0.005611,-0.1302,-1.2979,0.9279,-0.00049576,-0.00169010,-0.00012245,-0.00533497,0.02898728,0.04020701,-0.2445,0.1539,-9.2377,0.028285,0.063775,0.068907,3.0504,-13.6041,12.4119,28.4573,0.3710,165,1,-1,0.003340,-0.004458,-0.370503,-0.037177,-0.000351,0.004489,-0.2762,0.2013,0.5094
15768,11.0,0.002154,-0.001274,-0.369891,-0.003417,-0.009596,0.012805,-0.1958,-1.4359,1.0262,-0.00010784,-0.00101478,-0.00014195,-0.00603441,0.02937472,0.03952598,-0.2917,-0.1559,-9.2470,-0.008919,-0.056603,0.078106,3.0504,-13.6041,12.4119,28.4573,0.3710,170,1,-1,0.003650,-0.004975,-0.370429,-0.032601,-0.005882,0.010328,-0.2756,0.2183,0.5565
15779,11.0,0.003440,-0.002115,-0.370351,0.010897,-0.021269,0.008781,-0.2589,-1.6292,1.0490,0.00023312,-0.00040861,-0.00015053,-0.00658658,0.02970651,0.04287842,-0.3278,-0.2538,-9.4753,-0.017727,-0.162520,0.029526,3.0504,-13.6041,12.4119,28.4573,0.3710,164,0,-1,0.004424,-0.005516,-0.370175,-0.023876,-0.013068,0.017338,-0.2882,0.1784,0.6008
15790,11.0,0.005167,-0.002134,-0.370173,0.029311,-0.021039,0.007589,-0.2532,-1.8808,1.0474,0.00013921,0.00034535,-0.00015194,-0.00728613,0.02961965,0.04235731,-0.2914,-0.1411,-9.9760,-0.014478,-0.220402,-0.055180,3.0504,-13.6041,12.4119,28.4573,0.3710,164,0,0,0.006178,-0.006086,-0.369571,-0.007009,-0.021921,0.024576,-0.3120,-0.0445,0.6236
15801,11.0,0.005711,-0.001363,-0.370122,0.032358,-0.008876,0.001645,-0.1895,-2.0074,0.9928,-0.00033400,0.00045735,-0.00014074,-0.00737023,0.02926287,0.04235642,-0.2960,0.1415,-10.3033,-0.013970,-0.173634,-0.110024,3.0504,-13.6041,12.4119,28.4573,0.3690,169,-1,1,0.007303,-0.006100,-0.369115,0.003132,-0.021825,0.024828,-0.3159,-0.1880,0.5962
15812,11.0,0.005337,-0.000547,-0.369324,0.024563,0.004402,0.003399,-0.1157,-1.9928,0.9424,-0.00077319,0.00011105,-0.00013112,-0.00725958,0.02900697,0.03796625,-0.3165,0.3362,-10.4771,0.010766,-0.056854,-0.094279,3.0504,-13.6041,12.4119,28.4811,0.3690,169,-1,1,0.007683,-0.005590,-0.368890,0.004445,-0.013901,0.020081,-0.3100,-0.2925,0.5419
15823,11.0,0.004637,0.000349,-0.369324,0.013903,0.018301,-0.003328,-0.0290,-1.8693,0.9484,-0.00118557,-0.00035983,-0.00012603,-0.00705380,0.02882296,0.03796045,-0.3181,0.4551,-10.3784,0.040054,0.086568,-0.026325,3.0504,-13.6041,12.4119,28.4811,0.3730,167,0,1,0.007025,-0.004503,-0.368488,-0.007677,0.004584,0.007982,-0.2676,-0.3189,0.4681
15834,11.0,0.003287,0.000363,-0.369260,-0.003490,0.018919,-0.004338,-0.0344,-1.6507,1.0035,-0.00109773,-0.00110491,-0.00013988,-0.00677013,0.02885466,0.03733205,-0.3462,0.3023,-9.9817,0.011673,0.175032,0.029467,3.0504,-13.6041,12.4119,28.4811,0.3730,167,0,0,0.006511,-0.003912,-0.371116,-0.014657,0.013752,-0.025709,-0.2347,-0.2537,0.4710
15846,12.0,0.002979,-0.000438,-0.371267,-0.007489,0.008658,-0.025006,-0.1067,-1.5285,1.0428,-0.00057734,-0.00124266,-0.00015711,-0.00642683,0.02894203,0.04759914,-0.3668,0.1716,-9.5804,0.004296,0.147791,0.049279,3.0504,-13.6041,12.4119,28.4811,0.3730,165,1,-1,0.005326,-0.004443,-0.371674,-0.028866,0.009219,-0.028689,-0.2391,-0.0351,0.5554
15858,12.0,0.002609,-0.001221,-0.371455,-0.011643,-0.001275,-0.020375,-0.1554,-1.4764,1.0721,-0.00013807,-0.00138633,-0.00017261,-0.00636323,0.02917702,0.04710606,-0.3454,0.0658,-9.4610,0.019831,0.044951,0.029560,3.4723,-12.8314,13.1441,28.4811,0.3690,167,0,-1,0.005158,-0.004977,-0.370288,-0.030835,0.003459,-0.007929,-0.2470,0.0498,0.6003
15869,11.0,0.003893,-0.001187,-0.371669,0.004120,-0.001674,-0.018488,-0.1511,-1.6118,1.0681,-0.00015640,-0.00067995,-0.00016432,-0.00674062,0.02923523,0.04711539,-0.2874,-0.0369,-9.5874,0.002950,-0.059381,0.027901,3.4723,-12.8314,13.1441,28.4811,0.3690,161,1,0,0.005367,-0.005466,-0.370274,-0.028074,-0.002279,-0.000125,-0.2372,0.0773,0.6515
15880,11.0,0.004602,-0.001187,-0.370128,0.012049,-0.003070,0.001389,-0.1554,-1.7142,1.3312,-0.00017117,-0.00034599,-0.00022234,-0.00716878,0.02930006,0.03816242,-0.2489,-0.1030,-9.7944,-0.009682,-0.089370,0.026226,3.4723,-12.8314,13.1441,28.4811,0.3690,163,0,0,0.005685,-0.005455,-0.370266,-0.024394,-0.003109,0.001831,-0.2347,0.0327,0.7269
15891,11.0,0.005027,-0.001183,-0.370124,0.016440,-0.003782,-0.000617,-0.1530,-1.7647,1.3338,-0.00019992,-0.00021203,-0.00022138,-0.00741312,0.02943392,0.03817007,-0.2028,-0.0578,-9.9531,-0.003558,-0.052456,0.001511,3.4723,-12.8314,13.1441,28.4467,0.3730,168,0,0,0.006128,-0.005455,-0.370246,-0.019402,-0.004431,0.002087,-0.2393,-0.0255,0.7451
15902,11.0,0.003860,-0.000332,-0.370014,0.002536,0.005785,-0.001263,-0.0780,-1.6481,1.3216,-0.00066849,-0.00089182,-0.00021094,-0.00708583,0.02920189,0.03749671,-0.1821,-0.0026,-9.9689,0.016613,0.037924,-0.024247,3.4723,-12.8314,13.1441,28.4467,0.3730,167,-1,1,0.006487,-0.004897,-0.372062,-0.015169,0.000135,-0.018608,-0.2274,-0.0748,0.7526
15913,11.0,0.002824,-0.000259,-0.371582,-0.009009,0.005416,-0.019613,-0.0512,-1.4938,1.3098,-0.00068219,-0.00143900,-0.00021134,-0.00662133,0.02913592,0.04535108,-0.2402,-0.0033,-9.7980,0.039058,0.126392,-0.009856,3.4723,-12.8314,13.1441,28.4467,0.3730,167,0,0,0.005669,-0.004328,-0.372121,-0.023701,0.005429,-0.018735,-0.2043,-0.0320,0.7542
15924,11.0,0.001686,-0.000213,-0.371691,-0.020510,0.004291,-0.016724,-0.0325,-1.3325,1.3043,-0.00068906,-0.00197131,-0.00021057,-0.00633672,0.02913654,0.04483380,-0.2344,-0.0574,-9.6062,0.027856,0.141599,0.007401,3.4723,-12.8314,13.1441,28.4467,0.3680,168,0,0,0.005055,-0.004276,-0.372310,-0.029644,0.004813,-0.019130,-0.1823,0.0449,0.7640
15935,11.0,0.001909,-0.001873,-0.371851,-0.015780,-0.016148,-0.012394,-0.1521,-1.3081,1.2882,0.00018656,-0.00175773,-0.00023301,-0.00647082,0.02968751,0.04482141,-0.2614,-0.0736,-9.3689,-0.007023,0.081572,-0.011307,3.4723,-12.8314,13.1441,28.4467,0.3680,168,1,-2,0.003666,-0.004214,-0.369551,-0.041953,0.002057,0.015760,-0.1538,0.2208,0.7986
15946,11.0,0.002076,-0.001895,-0.369670,-0.012682,-0.014608,0.018130,-0.1437,-1.3455,1.2718,0.00010854,-0.00157618,-0.00023145,-0.00687678,0.02966158,0.03332377,-0.2958,0.0350,-9.4196,-0.003465,-0.023043,-0.036780,3.4723,-12.8314,13.1441,28.4467,0.3680,165,0,0,0.003846,-0.005297,-0.369372,-0.038304,-0.010918,0.020161,-0.1775,0.2564,0.8082
15957,11.0,0.002781,-0.002748,-0.369459,-0.003191,-0.021930,0.020185,-0.1945,-1.4561,1.2624,0.00048152,-0.00114867,-0.00024133,-0.00718775,0.02983020,0.03331979,-0.2363,0.1028,-9.5873,-0.003585,-0.089247,-0.019905,2.6213,-13.2155,12.4196,28.4467,0.3730,167,0,-1,0.004142,-0.005863,-0.371257,-0.032990,-0.015440,0.001830,-0.1883,0.2095,0.7948
15968,11.0,0.003489,-0.002777,-0.369114,0.005889,-0.018190,0.021096,-0.1858,-1.5622,1.2715,0.00038370,-0.00076265,-0.00023849,-0.00746553,0.02976184,0.03267697,-0.1887,0.1922,-9.8299,-0.005574,-0.090722,0.003881,2.6213,-13.2155,12.4196,28.4467,0.3730,163,0,0,0.004609,-0.005875,-0.371232,-0.026924,-0.013349,0.003279,-0.1884,0.1462,0.7931
15980,12.0,0.003791,-0.002791,-0.371071,0.009454,-0.014616,-0.006744,-0.1685,-1.6017,1.2894,0.00029382,-0.00065166,-0.00023562,-0.00739026,0.02954977,0.04348347,-0.1910,0.1754,-9.9698,0.010231,-0.038802,0.025577,2.6213,-13.2155,12.4196,28.4467,0.3730,167,0,0,0.005069,-0.005891,-0.371073,-0.021128,-0.011006,0.004487,-0.1907,0.0845,0.8004
15991,11.0,0.003688,-0.002754,-0.371059,0.008005,-0.011997,-0.007706,-0.1396,-1.5808,1.2540,0.00018833,-0.00076153,-0.00021565,-0.00733419,0.02950112,0.04298773,-0.1999,0.0949,-9.9597,0.026089,0.010208,0.045522,2.6213,-13.2155,12.4196,28.4467,0.3680,167,0,0,0.005338,-0.005872,-0.369147,-0.017702,-0.006885,0.021559,-0.1726,0.0486,0.8036
16002,11.0,0.003143,-0.002795,-0.371144,0.001274,-0.012275,-0.007778,-0.1373,-1.4918,1.2859,0.00012027,-0.00109858,-0.00021503,-0.00715968,0.02959157,0.04298891,-0.2402,-0.0759,-9.7709,-0.009255,0.072679,0.050905,2.6213,-13.2155,12.4196,28.4467,0.3680,166,0,0,0.005081,-0.005852,-0.368936,-0.020639,-0.006312,0.020558,-0.1593,0.0822,0.8468
16013,11.0,0.002790,-0.002855,-0.369316,-0.002782,-0.013251,0.015949,-0.1451,-1.4369,1.2987,0.00007107,-0.00128902,-0.00021353,-0.00721765,0.02955442,0.03373406,-0.2560,-0.1234,-9.6213,-0.021062,0.048865,0.024007,2.6213,-13.2155,12.4196,28.4467,0.3680,166,0,0,0.004371,-0.005888,-0.368363,-0.028194,-0.008204,0.023251,-0.1665,0.1764,0.9269
16024,11.0,0.002820,-0.002856,-0.369131,-0.002424,-0.013555,0.017734,-0.1318,-1.4436,1.3072,-0.00002049,-0.00125177,-0.00021197,-0.00720783,0.02963411,0.03373478,-0.2852,-0.1348,-9.6105,0.002264,-0.004390,0.006001,2.6213,-13.2155,12.4196,28.4467,0.3730,171,0,0,0.004128,-0.004816,-0.371010,-0.030373,0.002267,-0.006245,-0.1549,0.2015,0.9461
16035,11.0,0.003153,-0.002840,-0.368807,0.001366,-0.012812,0.019678,-0.1152,-1.4948,1.3060,-0.00010798,-0.00105621,-0.00021114,-0.00734473,0.02957384,0.03310964,-0.2816,-0.0557,-9.7335,0.008649,-0.044050,-0.016956,2.6213,-13.2155,12.4196,28.4467,0.3730,169,0,0,0.004122,-0.004804,-0.370962,-0.030106,0.000260,-0.003207,-0.1540,0.2006,0.9628
16046,11.0,0.003573,-0.002830,-0.370930,0.006017,-0.010758,-0.008875,-0.1005,-1.5542,1.2992,-0.00018234,-0.00084181,-0.00021030,-0.00728949,0.02951892,0.04430132,-0.2561,0.0836,-9.9004,0.007753,-0.054629,-0.022408,2.6213,-13.2155,12.4196,28.4467,0.3730,168,0,0,0.004543,-0.004761,-0.371011,-0.025221,-0.001121,-0.002224,-0.1423,0.1397,0.9706
16057,11.0,0.002895,-0.002827,-0.370947,-0.002131,-0.008667,-0.010682,-0.0820,-1.5181,1.2975,-0.00025432,-0.00124452,-0.00020742,-0.00707047,0.02947556,0.04382097,-0.2559,0.1171,-10.0332,0.015610,-0.021550,0.011199,2.2067,-13.6041,13.8763,28.4467,0.3690,163,-1,0,0.004784,-0.004745,-0.369749,-0.022494,-0.000603,0.010608,-0.1373,0.1062,0.9715
16068,11.0,0.002727,-0.002853,-0.371079,-0.003556,-0.008070,-0.013384,-0.0815,-1.4937,1.3278,-0.00029363,-0.00132345,-0.00020622,-0.00703211,0.02944076,0.04382157,-0.2540,0.0256,-10.0088,-0.005692,0.022121,0.050101,2.2067,-13.6041,13.8763,28.4467,0.3690,163,0,0,0.004335,-0.004736,-0.369654,-0.027362,0.000061,0.008378,-0.1285,0.1028,0.9914
16079,11.0,0.002165,-0.002971,-0.369876,-0.009203,-0.010852,0.001224,-0.1139,-1.4084,1.3611,-0.00028888,-0.00160955,-0.00020421,-0.00699830,0.02939102,0.03738856,-0.2467,-0.1941,-9.8742,-0.048095,0.079359,0.070760,2.2067,-13.6041,13.8763,28.4467,0.3690,167,0,0,0.004020,-0.004780,-0.369386,-0.029555,-0.001473,0.006038,-0.1471,0.1424,0.9708
16090,11.0,0.001503,-0.003064,-0.369855,-0.016031,-0.014586,0.002528,-0.1316,-1.3149,1.3747,-0.00033397,-0.00191320,-0.00019924,-0.00680067,0.02952799,0.03738918,-0.3042,-0.3428,-9.6503,-0.036863,0.088931,0.049144,2.2067,-13.6041,13.8763,28.5049,0.3740,167,0,0,0.003634,-0.004844,-0.369328,-0.032989,-0.004598,0.005572,-0.1734,0.1945,1.0250
16101,11.0,0.000994,-0.003117,-0.369710,-0.020219,-0.017753,0.006136,-0.1359,-1.2503,1.1584,-0.00041235,-0.00209372,-0.00013353,-0.00669876,0.02952704,0.03688706,-0.2734,-0.3706,-9.5559,-0.020387,0.066037,-0.001081,2.2067,-13.6041,13.8763,28.5049,0.3740,167,0,0,0.002827,-0.004926,-0.372463,-0.039841,-0.011997,-0.021942,-0.2061,0.2956,1.0941
16112,11.0,0.000838,-0.003117,-0.371966,-0.019971,-0.017078,-0.018721,-0.1119,-1.2439,1.1041,-0.00054411,-0.00205107,-0.00013136,-0.00646219,0.02976565,0.04781353,-0.2683,-0.0984,-9.5530,0.007726,0.015847,-0.094364,2.2067,-13.6041,13.8763,28.5049,0.3740,168,0,0,0.002550,-0.004385,-0.372555,-0.041252,-0.008682,-0.017744,-0.1984,0.3265,1.0797
16123,11.0,0.000800,-0.003082,-0.372083,-0.018486,-0.013540,-0.016287,-0.0792,-1.2564,1.0558,-0.00066102,-0.00194633,-0.00012990,-0.00653690,0.02968025,0.04742389,-0.2688,0.1497,-9.6258,0.027511,-0.001990,-0.089902,2.2067,-13.6041,13.8763,28.5049,0.3690,169,0,0,0.002428,-0.004376,-0.372719,-0.041058,-0.009550,-0.015137,-0.1921,0.3353,1.0447
16134,11.0,0.000780,-0.003034,-0.372256,-0.016913,-0.008987,-0.015165,-0.0470,-1.2713,1.0304,-0.00074942,-0.00183862,-0.00012808,-0.00657723,0.02945788,0.04742258,-0.2637,0.2721,-9.6568,0.034171,-0.005224,-0.047246,2.2067,-13.6041,13.8763,28.5049,0.3690,169,0,0,0.002355,-0.004315,-0.370313,-0.039211,-0.005292,0.014147,-0.1567,0.3318,0.9850
16145,11.0,0.000603,-0.003060,-0.370441,-0.017076,-0.006922,0.009329,-0.0478,-1.2580,1.0627,-0.00077230,-0.00183266,-0.00012746,-0.00676888,0.02921007,0.03831937,-0.2441,0.1608,-9.6233,-0.002810,0.020932,0.049490,2.2067,-13.6041,13.8763,28.5049,0.3690,174,0,0,0.002278,-0.003747,-0.370164,-0.038535,0.003179,0.015557,-0.1308,0.3340,0.9920
16156,11.0,0.000432,-0.003133,-0.370327,-0.017065,-0.008840,0.011456,-0.0653,-1.2432,1.1187,-0.00079205,-0.00182047,-0.00012754,-0.00674907,0.02937081,0.03831911,-0.2394,-0.1538,-9.5757,-0.031642,0.024086,0.085297,3.0431,-13.2155,12.7856,28.5049,0.3730,168,0,0,0.002168,-0.003749,-0.369868,-0.038382,0.003823,0.018725,-0.1315,0.3432,1.0300
16167,11.0,0.000478,-0.003233,-0.370093,-0.014319,-0.012505,0.015390,-0.0950,-1.2579,1.1524,-0.00079903,-0.00169045,-0.00012924,-0.00685212,0.02935469,0.03788447,-0.2095,-0.3119,-9.5126,-0.048244,-0.001340,0.040231,3.0431,-13.2155,12.7856,28.5392,0.3730,168,0,0,0.001992,-0.003824,-0.371631,-0.037523,-0.001865,0.002375,-0.1687,0.3612,1.1525
16178,11.0,0.000715,-0.003251,-0.371545,-0.009543,-0.014410,-0.001192,-0.0864,-1.3016,1.1430,-0.00089727,-0.00146936,-0.00013177,-0.00688168,0.02968116,0.04532342,-0.1912,-0.2756,-9.5473,-0.009885,-0.031383,-0.046275,3.0431,-13.2155,12.7856,28.5392,0.3730,166,0,0,0.002026,-0.003873,-0.371500,-0.035583,-0.005941,0.006333,-0.1947,0.3571,1.1874
16189,11.0,0.001034,-0.003225,-0.371479,-0.004526,-0.014952,0.001075,-0.0654,-1.3564,1.1201,-0.00100357,-0.00123008,-0.00013450,-0.00706691,0.02958922,0.04498811,-0.2088,-0.2093,-9.6343,0.011336,-0.044777,-0.071633,3.0431,-13.2155,12.7856,28.5392,0.3690,165,0,0,0.002152,-0.003891,-0.371423,-0.032695,-0.009038,0.009045,-0.2056,0.3385,1.1767
16200,11.0,0.001376,-0.003289,-0.371466,0.000308,-0.013758,0.001296,-0.0738,-1.4059,1.0968,-0.00105056,-0.00101595,-0.00013744,-0.00730654,0.02948612,0.04498783,-0.1958,0.0474,-9.7431,-0.023879,-0.041622,-0.063779,3.0431,-13.2155,12.7856,28.5392,0.3690,168,0,0,0.002561,-0.003853,-0.369611,-0.026227,-0.011376,0.027937,-0.1917,0.2786,1.1373
16211,11.0,0.001690,-0.003389,-0.369998,0.004230,-0.011610,0.018111,-0.0961,-1.4476,1.1450,-0.00105893,-0.00084359,-0.00016155,-0.00755909,0.02926008,0.03844862,-0.2052,0.1948,-9.7746,-0.037229,-0.035301,-0.047109,3.0431,-13.2155,12.7856,28.5392,0.3690,168,0,0,0.002784,-0.003883,-0.369328,-0.023242,-0.010962,0.028581,-0.2017,0.2501,1.1192
16222,11.0,0.002109,-0.003439,-0.369806,0.008351,-0.009424,0.016908,-0.1040,-1.5032,1.1550,-0.00108486,-0.00063045,-0.00016233,-0.00769972,0.02910374,0.03844602,-0.2629,0.1749,-9.8774,-0.017256,-0.050615,0.002796,3.0431,-13.2155,12.7856,28.5392,0.3720,168,0,0,0.003233,-0.003988,-0.370622,-0.018610,-0.008049,0.008290,-0.2360,0.1941,1.1057
16233,11.0,0.002594,-0.004367,-0.369527,0.013379,-0.018199,0.015981,-0.1833,-1.5603,1.1811,-0.00060707,-0.00041748,-0.00017399,-0.00784489,0.02939913,0.03796366,-0.2105,0.0952,-9.9683,-0.039608,-0.053182,0.045642,3.0431,-13.2155,12.7856,28.5049,0.3720,169,0,-1,0.003504,-0.004019,-0.370460,-0.016394,-0.006804,0.008308,-0.2463,0.1603,1.1244
16244,11.0,0.002928,-0.004506,-0.370724,0.016164,-0.018521,-0.002693,-0.2122,-1.5910,1.2059,-0.00066018,-0.00031741,-0.00017390,-0.00789348,0.02964132,0.04398581,-0.2173,-0.0409,-10.0314,-0.057727,-0.032553,0.030708,3.0431,-13.2155,12.7856,28.5049,0.3720,171,0,0,0.003811,-0.004621,-0.370385,-0.013654,-0.012413,0.006682,-0.2777,0.1271,1.1642
16255,11.0,0.002575,-0.004485,-0.370687,0.011521,-0.017270,-0.004240,-0.1826,-1.5281,1.1916,-0.00080040,-0.00062551,-0.00016883,-0.00772434,0.02955516,0.04361951,-0.1595,-0.0603,-9.9945,0.020909,0.044417,-0.010500,3.0394,-13.6007,12.7894,28.5049,0.3690,171,0,0,0.004108,-0.004756,-0.369457,-0.011647,-0.013574,0.011442,-0.3271,0.1001,1.2224
16266,11.0,0.001724,-0.004384,-0.370739,0.001573,-0.014897,-0.005143,-0.1202,-1.3973,1.1520,-0.00099262,-0.00120405,-0.00016118,-0.00758210,0.02957693,0.04362696,-0.1672,-0.0306,-9.8473,0.061873,0.102258,-0.039230,3.0394,-13.6007,12.7894,28.5049,0.3690,164,0,0,0.003884,-0.004739,-0.369352,-0.014340,-0.013457,0.009548,-0.3122,0.1284,1.2303
16278,12.0,0.000654,-0.004343,-0.369692,-0.010236,-0.012847,0.008325,-0.0758,-1.2362,1.0968,-0.00112897,-0.00183130,-0.00015419,-0.00726807,0.02940772,0.03881109,-0.2056,0.0131,-9.7088,0.041111,0.131519,-0.054561,3.0394,-13.6007,12.7894,28.5049,0.3690,167,0,0,0.002716,-0.004619,-0.369055,-0.026860,-0.011476,0.010298,-0.2406,0.2723,1.1823
16290,12.0,-0.000011,-0.004394,-0.369564,-0.016534,-0.011794,0.012913,-0.0712,-1.1436,1.0772,-0.00119554,-0.00214181,-0.00015103,-0.00706218,0.02936508,0.03881194,-0.2290,0.0322,-9.3860,-0.005475,0.082572,-0.016950,3.0394,-13.6007,12.7894,28.4124,0.3710,169,0,0,0.002036,-0.004618,-0.368940,-0.033687,-0.010405,0.012527,-0.2284,0.3590,1.1674
16301,11.0,-0.000051,-0.004423,-0.369252,-0.015279,-0.011548,0.019601,-0.0700,-1.1490,1.0915,-0.00125382,-0.00205740,-0.00015044,-0.00713011,0.02931206,0.03817648,-0.2286,-0.0434,-9.3155,-0.009128,0.004334,0.015702,3.0394,-13.6007,12.7894,28.4124,0.3710,167,0,0,0.001286,-0.004655,-0.370060,-0.039475,-0.009739,0.007228,-0.2287,0.4499,1.1801
16312,11.0,0.000504,-0.003635,-0.370068,-0.007357,-0.003413,0.011058,-0.0291,-1.2381,1.1246,-0.00178064,-0.00163458,-0.00014421,-0.00740512,0.02897369,0.04268230,-0.2174,-0.1642,-9.4420,-0.029561,-0.070130,0.003946,3.0394,-13.6007,12.7894,28.4124,0.3710,171,0,1,0.001357,-0.004670,-0.369816,-0.037230,-0.010353,0.013419,-0.2333,0.4375,1.2031
16323,11.0,0.001222,-0.003734,-0.369828,0.002109,-0.005968,0.014209,-0.0650,-1.3412,1.1660,-0.00174173,-0.00117885,-0.00016424,-0.00775788,0.02898065,0.04220223,-0.1694,-0.1494,-9.5972,-0.052888,-0.085311,-0.027441,3.0394,-13.6007,12.7894,28.4124,0.3690,169,0,0,0.001679,-0.004153,-0.369663,-0.032415,-0.005965,0.017156,-0.2381,0.3927,1.2202
16335,12.0,0.001636,-0.003812,-0.369657,0.006726,-0.006570,0.014233,-0.0863,-1.3968,1.1289,-0.00173809,-0.00095931,-0.00016673,-0.00796234,0.02902065,0.04220195,-0.2135,-0.0081,-9.7639,-0.034007,-0.047025,-0.068039,3.0394,-13.6007,12.7894,28.4124,0.3690,168,0,0,0.002517,-0.004264,-0.368838,-0.021574,-0.009447,0.025251,-0.2909,0.2865,1.2166
16346,11.0,0.001660,-0.003805,-0.369082,0.006330,-0.004435,0.018478,-0.0742,-1.3956,1.0776,-0.00177848,-0.00098702,-0.00016573,-0.00795857,0.02896066,0.04041356,-0.2306,0.1647,-9.8224,0.008739,-0.003580,-0.081830,3.0394,-13.6007,12.7894,28.4124,0.3690,169,0,0,0.002754,-0.004303,-0.368585,-0.019033,-0.009677,0.025381,-0.3059,0.2559,1.1926
16357,11.0,0.001490,-0.003767,-0.368882,0.003629,-0.001080,0.017810,-0.0534,-1.3684,1.0277,-0.00181088,-0.00112389,-0.00016452,-0.00785522,0.02876594,0.04041348,-0.2469,0.2757,-9.8270,0.025106,0.018598,-0.075494,3.0541,-13.6053,13.1404,28.4124,0.3710,171,0,0,0.002823,-0.004315,-0.368156,-0.018639,-0.008521,0.027148,-0.3063,0.2481,1.1602
16368,11.0,0.001247,-0.003779,-0.368547,0.000186,0.002625,0.019511,-0.0497,-1.3304,1.0062,-0.00180118,-0.00128712,-0.00016579,-0.00774857,0.02876426,0.03980898,-0.2628,0.3971,-9.7625,0.005035,0.030814,-0.035547,3.0541,-13.6053,13.1404,28.4124,0.3710,163,0,0,0.002587,-0.004282,-0.369659,-0.022428,-0.002655,0.007045,-0.2773,0.2741,1.1023
16379,11.0,0.001188,-0.003832,-0.369736,-0.001467,0.003961,0.003737,-0.0683,-1.3188,1.0232,-0.00174032,-0.00131912,-0.00016727,-0.00761873,0.02873225,0.04571325,-0.3244,0.2577,-9.7178,-0.019708,0.011095,0.029152,3.0541,-13.6053,13.1404,28.4124,0.3710,168,0,0,0.002418,-0.004287,-0.369448,-0.024848,0.000462,0.008910,-0.2724,0.2952,1.0915
16389,10.0,0.000505,-0.003918,-0.369591,-0.009380,0.003554,0.005804,-0.0936,-1.2839,1.0699,-0.00167166,-0.00170741,-0.00017346,-0.00735909,0.02877630,0.04526348,-0.2782,0.1465,-9.6787,-0.031237,-0.014395,0.068992,3.0541,-13.6053,13.1404,28.4124,0.3690,165,-1,0,0.002343,-0.004319,-0.369356,-0.026444,0.002186,0.009589,-0.2814,0.3060,1.0910
16400,11.0,0.000825,-0.003863,-0.369531,-0.004718,0.002200,0.005167,-0.0791,-1.3385,1.0778,-0.00169170,-0.00145887,-0.00017146,-0.00751058,0.02890851,0.04526217,-0.2381,-0.1052,-9.8203,0.017065,-0.045359,0.014440,3.0541,-13.6053,13.1404,28.4124,0.3690,166,0,0,0.001993,-0.004385,-0.368871,-0.030110,0.001063,0.014004,-0.3077,0.2905,1.1811
16411,11.0,0.000991,-0.003733,-0.370166,-0.002287,0.002003,-0.004860,-0.0371,-1.3704,1.0553,-0.00175442,-0.00133021,-0.00016939,-0.00755324,0.02885340,0.04810307,-0.2441,-0.0908,-9.9524,0.053157,-0.030054,-0.036380,3.0541,-13.6053,13.1404,28.4124,0.3710,165,0,0,0.002196,-0.004352,-0.368732,-0.027434,-0.000478,0.013893,-0.2990,0.2593,1.2012
16422,11.0,0.000544,-0.003638,-0.370229,-0.005952,0.002754,-0.006638,-0.0025,-1.3075,1.0064,-0.00179590,-0.00159948,-0.00016932,-0.00765127,0.02874172,0.04811083,-0.1406,0.0286,-9.9232,0.044865,0.049760,-0.078328,3.0541,-13.6053,13.1404,28.4124,0.3710,164,0,0,0.002289,-0.004192,-0.369823,-0.025085,-0.001969,-0.002325,-0.2380,0.2327,1.1795
16433,11.0,-0.000492,-0.004371,-0.370166,-0.015829,-0.003959,-0.005293,-0.0121,-1.1644,0.9884,-0.00135153,-0.00218289,-0.00020226,-0.00729136,0.02901317,0.04752637,-0.1322,0.2049,-9.7890,0.057103,0.125023,-0.103053,3.0541,-13.6053,13.1404,28.4124,0.3710,165,0,-1,0.001937,-0.004133,-0.369723,-0.027795,-0.001406,-0.001909,-0.2098,0.2737,1.1464
16444,11.0,-0.001913,-0.004267,-0.370605,-0.029956,0.001208,-0.007224,0.0390,-0.9763,0.9476,-0.00142518,-0.00291261,-0.00021007,-0.00676135,0.02875985,0.04916039,-0.2104,0.3740,-9.5167,0.066524,0.170518,-0.094777,3.0541,-13.6053,13.1404,28.4124,0.3710,166,0,0,0.000402,-0.004548,-0.369751,-0.041356,-0.001260,-0.000027,-0.1434,0.4580,1.0648
16455,11.0,-0.002032,-0.005133,-0.370565,-0.028462,-0.004961,-0.000684,-0.0227,-0.9103,0.9147,-0.00089694,-0.00279560,-0.00021905,-0.00685317,0.02916186,0.04877800,-0.2438,0.3796,-9.2614,-0.008908,0.121826,-0.031059,1.7885,-13.9916,12.7742,28.4705,0.3680,173,1,-1,-0.000500,-0.004498,-0.368550,-0.049152,0.002341,0.016157,-0.1092,0.5676,1.0399
16466,11.0,-0.002291,-0.005293,-0.370534,-0.028345,-0.003245,0.006161,-0.0692,-0.8875,0.9115,-0.00082505,-0.00276402,-0.00021984,-0.00687918,0.02922202,0.04877787,-0.1951,0.3142,-9.1369,-0.062460,0.038857,-0.000826,1.7885,-13.9916,12.7742,28.4705,0.3680,173,0,0,-0.000590,-0.005060,-0.368363,-0.047950,-0.000876,0.021447,-0.1228,0.6363,1.0266
