timestamp_ms,dt_ms,pos_x,pos_y,pos_z,vel_x,vel_y,vel_z,roll_deg,pitch_deg,yaw_deg,gyro_bias_x,gyro_bias_y,gyro_bias_z,accel_bias_x,accel_bias_y,accel_bias_z,raw_accel_x,raw_accel_y,raw_accel_z,raw_gyro_x,raw_gyro_y,raw_gyro_z,raw_mag_x,raw_mag_y,raw_mag_z,raw_baro_alt,raw_tof,raw_flow_squal,raw_flow_dx,raw_flow_dy,dev_pos_x,dev_pos_y,dev_pos_z,dev_vel_x,dev_vel_y,dev_vel_z,dev_roll_deg,dev_pitch_deg,dev_yaw_deg
14553,10.0,-0.000112,0.000760,-0.377873,-0.012673,0.077113,-0.006905,0.0009,-0.0476,0.0000,0.00000000,0.00000000,0.00000000,0.00058645,0.02973156,0.00000000,-0.2953,0.2470,-10.4062,-0.029653,-0.087068,0.064240,2.6249,-14.3757,13.5139,28.4811,0.3780,168,-1,1,0.003976,-0.002592,-0.431416,0.016278,-0.001679,-0.668516,-0.1242,-0.2142,0.0866
14564,11.0,-0.002250,0.000698,-0.377977,-0.112863,0.032742,-0.012087,-0.3386,0.6496,0.0000,0.00000051,-0.00000112,0.00000000,0.00171112,0.03024867,-0.00000091,-0.2537,0.0707,-10.2856,-0.054976,0.054057,0.102397,2.6249,-14.3757,13.5139,28.4811,0.3790,171,-2,0,0.003965,-0.002093,-0.438133,0.012007,0.005783,-0.674971,-0.1336,-0.2615,0.1330
14575,11.0,-0.003812,0.000575,-0.374223,-0.126842,0.013309,0.159055,-0.6705,0.9569,0.0000,0.00000137,-0.00000167,0.00000000,0.00203528,0.03075083,-0.00010260,-0.2156,-0.2198,-9.8095,-0.072939,0.191070,0.119120,3.4686,-13.6030,13.1479,28.4811,0.3790,171,0,0,0.001083,-0.002252,-0.409237,-0.023499,0.002558,-0.260324,-0.1533,-0.0548,0.4089
14586,11.0,-0.005502,0.000534,-0.378811,-0.138206,0.002838,-0.024848,-0.8279,1.3200,0.0000,0.00000193,-0.00000268,0.00000000,0.00247043,0.03099401,0.00006491,-0.1623,-0.4129,-9.2339,-0.036476,0.200626,0.086330,3.4686,-13.6030,13.1479,28.4811,0.3790,168,0,0,0.000112,-0.002349,-0.411839,-0.033139,-0.001548,-0.260032,-0.1917,0.0773,0.5520
14597,11.0,-0.006528,0.000538,-0.378799,-0.128964,-0.004272,-0.009208,-0.8226,0.8268,0.0000,0.00000186,0.00000047,0.00000000,0.00141285,0.03096568,-0.00003472,-0.1773,-0.5184,-8.9615,-0.013752,0.111369,0.040452,3.4686,-13.6030,13.1479,28.4811,0.3770,167,0,0,-0.001821,-0.002440,-0.416758,-0.049173,-0.011070,-0.246741,-0.2274,0.3270,0.6896
14608,11.0,-0.005575,0.000489,-0.378855,-0.071624,-0.010189,0.000302,-0.8039,-2.2736,0.0000,0.00000157,0.00002207,0.00000000,-0.00445247,0.03088205,-0.00013019,-0.1663,-0.4549,-8.8846,-0.031994,-0.045825,-0.027177,3.4686,-13.6030,13.1479,28.4811,0.3770,170,1,0,-0.001699,-0.002429,-0.392122,-0.044586,-0.015434,0.046634,-0.2045,0.4027,0.7303
14619,11.0,-0.003522,0.000404,-0.376899,0.002928,-0.013257,0.041917,-0.7988,-6.5009,0.0000,0.00000111,0.00005750,0.00000000,-0.01230809,0.03074641,-0.00120788,-0.2066,-0.2183,-9.1901,-0.039092,-0.196296,-0.095301,3.4686,-13.6030,13.1479,28.4811,0.3770,167,1,0,-0.000961,-0.002452,-0.391506,-0.034108,-0.019084,0.056923,-0.2208,0.3668,0.7301
14630,11.0,-0.001348,0.000310,-0.376443,0.063488,-0.011939,0.042398,-0.7819,-9.3354,0.0000,0.00000074,0.00008044,0.00000000,-0.01875184,0.03058178,-0.00097271,-0.2255,0.1848,-9.8147,-0.032464,-0.302133,-0.099041,3.4686,-13.6030,13.1479,28.3648,0.3790,172,0,0,0.001751,-0.002539,-0.390022,-0.004378,-0.020447,0.070331,-0.2638,0.0852,0.6587
14641,11.0,0.000667,0.000179,-0.375696,0.112761,-0.009693,0.044386,-0.8527,-11.4306,0.0000,0.00000113,0.00010352,0.00000000,-0.02259366,0.03062440,-0.00115292,-0.2296,0.4203,-10.2095,-0.048250,-0.272604,-0.040840,3.4686,-13.6030,13.1479,28.3648,0.3790,172,0,0,0.003347,-0.002587,-0.383076,0.010906,-0.017654,0.135738,-0.2804,-0.1049,0.6167
14654,13.0,0.000480,0.000006,-0.372406,0.085401,-0.009236,0.072905,-1.0771,-8.6230,0.0000,0.00000313,0.00006154,0.00000000,-0.01715805,0.03085480,-0.00710938,-0.2651,0.4194,-10.5049,-0.067928,-0.107359,0.050204,3.4686,-13.6030,13.1479,28.3648,0.3790,171,-2,0,0.005967,-0.002767,-0.380283,0.031240,-0.009973,0.127960,-0.3425,-0.4116,0.5942
14665,11.0,-0.000241,0.000621,-0.371498,0.049135,0.011416,0.066729,0.0243,-5.8919,0.0000,-0.00001655,0.00001457,0.00000000,-0.01209308,0.02875389,-0.00845432,-0.3252,0.2093,-10.4017,-0.038000,0.037146,0.110647,1.7703,-13.2132,12.4273,28.3648,0.3790,170,-1,1,0.005400,-0.002896,-0.379037,0.020022,-0.007370,0.121116,-0.3812,-0.4388,0.6594
14676,11.0,-0.001449,0.000623,-0.370834,0.005541,0.007861,0.060023,-0.1739,-3.1630,0.0000,-0.00001282,-0.00003983,0.00000000,-0.00714818,0.02910982,-0.00922779,-0.3272,0.0259,-10.1856,-0.016891,0.098033,0.106264,1.7703,-13.2132,12.4273,28.3648,0.3790,167,-1,0,0.004844,-0.002427,-0.378422,0.009667,-0.000064,0.108681,-0.3963,-0.4122,0.7401
14687,11.0,-0.002041,0.000610,-0.375280,-0.015506,0.003067,-0.002623,-0.2220,-1.8342,0.0000,-0.00000997,-0.00007092,0.00000000,-0.00441206,0.02921220,0.01060683,-0.3807,-0.2543,-9.8671,-0.017402,0.103675,0.055830,1.7703,-13.2132,12.4273,28.3648,0.3790,166,0,0,0.003328,-0.002500,-0.376325,-0.012495,-0.003142,0.102056,-0.4183,-0.2567,0.7654
14698,11.0,-0.002413,0.000572,-0.375304,-0.021032,-0.002204,-0.001013,-0.2643,-1.5482,0.0000,-0.00001015,-0.00007779,0.00000000,-0.00391329,0.02942680,0.01053616,-0.3194,-0.3354,-9.6293,-0.028291,0.053996,0.011896,1.7703,-13.2132,12.4273,28.3648,0.3790,168,0,0,0.002829,-0.002525,-0.375106,-0.019530,-0.006608,0.104112,-0.4284,-0.1859,0.8139
14709,11.0,-0.001859,0.000577,-0.375089,-0.000369,-0.004627,0.004440,-0.2091,-2.4673,0.0000,-0.00001199,-0.00004815,0.00000000,-0.00578271,0.02931526,0.00964595,-0.2928,-0.2625,-9.5758,0.000650,0.013411,-0.039679,1.7703,-13.2132,12.4273,28.3648,0.3790,168,1,0,0.002499,-0.002562,-0.374057,-0.023719,-0.010498,0.105597,-0.4447,-0.1383,0.8391
14720,11.0,-0.001035,0.000726,-0.377135,0.019271,0.000139,-0.018095,0.1028,-3.0803,0.0000,-0.00002093,-0.00002837,0.00000000,-0.00738316,0.02887144,0.02342127,-0.1920,-0.0280,-9.6482,0.089034,-0.023738,-0.119617,1.7703,-13.2132,12.4273,28.3648,0.3790,167,1,0,0.003516,-0.002484,-0.376034,-0.012761,-0.013729,0.071129,-0.4194,-0.1549,0.7893
14731,11.0,-0.000969,0.000886,-0.377205,0.019212,0.005010,-0.015962,0.2965,-2.9433,0.0000,-0.00002682,-0.00003468,0.00000000,-0.00705714,0.02853375,0.02236130,-0.1818,0.1237,-9.7285,0.085830,-0.016284,-0.093894,1.7703,-13.2132,12.4273,28.3648,0.3770,173,0,0,0.003572,-0.002363,-0.375314,-0.012226,-0.012435,0.072917,-0.3648,-0.1686,0.7310
14742,11.0,-0.001112,0.000894,-0.377385,0.013354,0.005675,-0.014986,0.2078,-2.5668,0.0000,-0.00002092,-0.00005392,0.00000000,-0.00646547,0.02847240,0.02225825,-0.1940,0.2143,-9.6789,-0.002695,0.029443,-0.050939,1.7703,-13.2132,12.4273,28.3648,0.3770,171,0,0,0.003550,-0.002173,-0.375211,-0.012755,-0.007133,0.061205,-0.2747,-0.1747,0.6485
14753,11.0,-0.001382,0.000822,-0.376933,0.006263,0.004074,-0.005423,0.0582,-2.2307,0.0000,-0.00001434,-0.00007208,0.00000000,-0.00579350,0.02876023,0.01697914,-0.2462,0.1567,-9.5511,-0.044028,0.049744,0.002938,1.7703,-13.2132,12.4273,28.3648,0.3770,167,0,0,0.003382,-0.002198,-0.374442,-0.014628,-0.005472,0.064432,-0.2785,-0.1487,0.6362
14764,11.0,-0.001372,0.000800,-0.376968,0.006500,0.001927,-0.000842,0.0017,-2.1793,0.0000,-0.00001137,-0.00007534,0.00000000,-0.00566177,0.02888016,0.01695815,-0.2143,-0.0524,-9.3732,-0.017884,0.002749,0.047193,2.6323,-13.6053,11.6757,28.3648,0.3770,172,0,0,0.003027,-0.002315,-0.373095,-0.018437,-0.005226,0.070982,-0.3189,-0.0926,0.6857
14775,11.0,-0.000875,0.000747,-0.376789,0.016670,-0.001236,0.005597,-0.0637,-2.5109,0.0000,-0.00000803,-0.00005359,0.00000000,-0.00647946,0.02899865,0.01557309,-0.2581,-0.1324,-9.3940,-0.032753,-0.066310,-0.005530,2.6323,-13.6053,11.6757,28.3886,0.3780,177,0,0,0.003110,-0.002334,-0.375814,-0.017512,-0.006585,0.038662,-0.3275,-0.1042,0.7164
14786,11.0,0.000130,0.000646,-0.377208,0.034385,-0.003404,0.001743,-0.1417,-3.0686,0.0000,-0.00000385,-0.00001256,0.00000000,-0.00789359,0.02918044,0.02074399,-0.2937,-0.0082,-9.6177,-0.049930,-0.132299,-0.066008,2.6323,-13.6053,11.6757,28.3886,0.3780,170,0,0,0.003498,-0.002376,-0.375408,-0.013720,-0.008366,0.042667,-0.3473,-0.1506,0.6627
14797,11.0,0.001366,0.000551,-0.377066,0.054004,-0.003074,0.002396,-0.2065,-3.6671,0.0000,0.00000008,0.00003681,0.00000000,-0.00933166,0.02929322,0.01984194,-0.3043,0.2060,-9.8793,-0.041400,-0.161895,-0.077034,2.6323,-13.6053,11.6757,28.3886,0.3780,168,0,0,0.004977,-0.002504,-0.374341,-0.000443,-0.009309,0.047178,-0.4013,-0.3288,0.5948
14808,11.0,0.002257,0.000494,-0.377057,0.063888,-0.000418,-0.001403,-0.2413,-3.8866,0.0000,0.00000274,0.00005409,0.00000000,-0.00974467,0.02935784,0.01994309,-0.2524,0.3824,-10.1461,-0.019462,-0.109472,-0.055760,2.6323,-13.6053,11.6757,28.3886,0.3760,171,0,0,0.005822,-0.002561,-0.375145,0.006628,-0.007490,0.032226,-0.4221,-0.4323,0.5512
14819,11.0,0.002538,0.000456,-0.375916,0.060510,0.002388,0.008455,-0.2829,-3.6937,0.0000,0.00000631,0.00002479,0.00000000,-0.00949934,0.02942622,0.00768848,-0.2596,0.4307,-10.1791,-0.013242,-0.019872,-0.024593,2.6323,-13.6053,11.6757,28.3886,0.3760,172,0,0,0.006431,-0.002600,-0.374718,0.010835,-0.004656,0.030313,-0.4331,-0.5021,0.5215
14830,11.0,0.002101,0.000418,-0.375843,0.043239,0.004083,0.006326,-0.3463,-3.0814,0.0000,0.00001451,-0.00005881,0.00000000,-0.00815577,0.02940930,0.00722389,-0.2641,0.3900,-9.9760,-0.017614,0.084082,0.012246,2.6323,-13.6053,11.6757,28.3886,0.3770,172,0,0,0.006567,-0.002673,-0.375605,0.006815,0.001036,0.007670,-0.4505,-0.4992,0.5300
14841,11.0,0.001305,0.000407,-0.375623,0.022289,0.005533,0.009524,-0.3851,-2.4151,0.0000,0.00001961,-0.00015608,0.00000000,-0.00660586,0.02950178,0.00509764,-0.2695,0.3403,-9.6575,-0.005950,0.126984,0.011152,2.6323,-13.6053,11.6757,28.3886,0.3770,168,0,0,0.006095,-0.002715,-0.375533,-0.000527,0.003027,0.006676,-0.4617,-0.4268,0.5703
14853,12.0,0.000737,0.000441,-0.376152,0.008067,0.006903,0.006669,-0.3998,-1.9835,0.0000,0.00002379,-0.00022431,0.00000000,-0.00538684,0.02950783,0.01154371,-0.3041,0.2780,-9.3623,0.011181,0.087627,-0.000622,2.6323,-13.6053,11.6757,28.3886,0.3770,168,0,0,0.004849,-0.002740,-0.375190,-0.016645,0.006145,0.013077,-0.4610,-0.2513,0.6470
14864,11.0,0.000784,0.000407,-0.375930,0.007251,0.006453,0.013681,-0.4599,-1.9697,0.0000,0.00003346,-0.00022742,0.00000000,-0.00537537,0.02966139,0.01029579,-0.3394,0.2420,-9.2853,-0.020957,-0.001225,0.020049,3.0541,-13.9916,12.7742,28.3886,0.3750,175,0,0,0.004471,-0.002735,-0.375036,-0.021412,0.006901,0.017636,-0.4577,-0.1998,0.6708
14875,11.0,0.001457,0.000332,-0.375751,0.017144,0.005709,0.018276,-0.5435,-2.2482,0.0000,0.00004717,-0.00017582,0.00000000,-0.00605684,0.02984443,0.01050449,-0.3585,0.2815,-9.3777,-0.040009,-0.085868,0.013104,3.0541,-13.9916,12.7742,28.3886,0.3750,170,0,0,0.004446,-0.002761,-0.374828,-0.022188,0.007065,0.022809,-0.4697,-0.1937,0.6891
14886,11.0,0.002613,0.000334,-0.374965,0.034036,0.006689,0.025818,-0.5649,-2.6987,0.0000,0.00005299,-0.00008661,0.00000000,-0.00726678,0.03001037,0.00513601,-0.3426,0.3166,-9.7345,-0.000622,-0.156297,0.017726,3.0541,-13.9916,12.7742,28.3886,0.3750,173,0,0,0.005475,-0.002846,-0.374290,-0.012591,0.007839,0.030101,-0.5143,-0.3216,0.6609
14897,11.0,0.003768,0.000338,-0.374691,0.048390,0.006901,0.023554,-0.5949,-3.0537,0.0000,0.00006235,-0.00001393,0.00000000,-0.00811687,0.03001511,0.00539531,-0.3360,0.2703,-10.0073,-0.002235,-0.150729,0.049919,3.0541,-13.9916,12.7742,28.3886,0.3760,170,0,0,0.006295,-0.002835,-0.373789,-0.005073,0.008915,0.032680,-0.5156,-0.4258,0.6500
14908,11.0,0.004540,0.000248,-0.374300,0.054745,0.004381,0.021368,-0.6795,-3.1836,0.0000,0.00007908,0.00000928,0.00000000,-0.00837267,0.03020200,0.00394687,-0.3110,0.1540,-10.1717,-0.049980,-0.087387,0.081243,3.0541,-13.9916,12.7742,28.3886,0.3760,172,0,0,0.007094,-0.002825,-0.374978,0.001666,0.009441,0.014827,-0.5211,-0.5275,0.6565
14919,11.0,0.003909,0.000132,-0.374811,0.037490,-0.001690,0.009011,-0.7740,-2.7858,0.0000,0.00009587,-0.00012579,0.00000000,-0.00710207,0.03017613,0.01042208,-0.2941,-0.1802,-10.1463,-0.067501,0.002939,0.116421,3.0541,-13.9916,12.7742,28.3886,0.3760,173,-1,0,0.007432,-0.002951,-0.374619,0.000793,0.005870,0.008681,-0.5849,-0.6078,0.7784
14930,11.0,0.002863,-0.000008,-0.374612,0.016173,-0.009543,0.007998,-0.8475,-2.3117,0.0000,0.00010517,-0.00029018,0.00000000,-0.00598854,0.03026061,0.00882775,-0.3018,-0.4258,-10.0205,-0.076638,0.056442,0.085088,3.0541,-13.9916,12.7742,28.3886,0.3760,169,-1,0,0.006898,-0.003042,-0.374549,-0.006613,0.001019,0.005381,-0.6269,-0.5851,0.8786
14941,11.0,0.002528,-0.000177,-0.374527,0.009233,-0.016788,0.007655,-0.9007,-2.1233,0.0000,0.00010388,-0.00035145,0.00000000,-0.00562284,0.03046115,0.00867963,-0.2888,-0.4559,-9.8348,-0.083762,0.061887,-0.005555,3.0541,-13.9916,12.7742,28.3886,0.3760,170,0,0,0.005884,-0.003248,-0.375329,-0.018466,-0.011593,-0.006041,-0.7194,-0.4921,1.0028
14952,11.0,0.002870,-0.000200,-0.375049,0.013546,-0.018338,0.001031,-0.8540,-2.1444,0.0000,0.00008147,-0.00032435,0.00000000,-0.00561626,0.03023368,0.01433002,-0.3035,-0.2164,-9.7461,-0.003273,0.063407,-0.117461,3.0541,-13.9916,12.7742,28.3886,0.3760,170,1,0,0.005613,-0.003345,-0.375238,-0.021298,-0.016854,-0.004130,-0.7588,-0.4492,0.9949
14963,11.0,0.002288,-0.000006,-0.375036,0.002709,-0.012558,0.001493,-0.6824,-1.9116,0.0000,0.00003223,-0.00041611,0.00000000,-0.00508994,0.02992581,0.01412919,-0.3394,0.1508,-9.7436,0.109164,0.066999,-0.148252,3.0541,-13.9916,12.7742,28.3886,0.3750,170,0,0,0.005837,-0.003342,-0.375276,-0.018718,-0.018857,-0.003504,-0.7571,-0.4170,0.9364
14974,11.0,0.002438,0.000192,-0.374863,0.004993,-0.005086,0.003925,-0.5325,-1.8960,0.0000,-0.00000916,-0.00040066,0.00000000,-0.00521904,0.02970579,0.01274549,-0.2836,0.3846,-9.7360,0.110609,0.071520,-0.092958,3.0357,-13.5996,11.6955,28.3886,0.3750,169,1,0,0.004951,-0.003062,-0.374989,-0.028380,-0.012222,0.001298,-0.6166,-0.3200,0.7944
14985,11.0,0.002111,0.000162,-0.374798,-0.001087,-0.002085,0.005110,-0.5367,-1.7763,0.0000,-0.00000805,-0.00045097,0.00000000,-0.00494147,0.02960729,0.01250855,-0.3675,0.3844,-9.6978,-0.005310,0.046702,0.001542,3.0357,-13.5996,11.6955,28.3886,0.3750,165,0,0,0.005067,-0.002931,-0.374972,-0.026392,-0.007277,0.001966,-0.5544,-0.2850,0.7365
14996,11.0,0.002704,-0.000043,-0.374614,0.006932,-0.003692,0.008647,-0.6390,-1.8906,0.0000,0.00001826,-0.00036625,0.00000000,-0.00540095,0.02974849,0.01159305,-0.3899,0.2251,-9.5974,-0.093819,0.040799,0.073564,3.0357,-13.5996,11.6955,28.3886,0.3750,172,1,0,0.004811,-0.002947,-0.374759,-0.029258,-0.004303,0.005085,-0.5521,-0.2516,0.7465
15007,11.0,0.002767,-0.000113,-0.374501,0.006157,-0.007019,0.011870,-0.6641,-1.8890,0.0000,0.00002001,-0.00036766,0.00000000,-0.00539409,0.02975705,0.01159142,-0.3768,-0.1504,-9.5009,-0.035579,-0.001321,0.115984,3.0357,-13.5996,11.6955,28.3886,0.3770,166,0,0,0.005121,-0.003186,-0.376131,-0.026469,-0.004990,-0.006115,-0.6483,-0.2199,0.8463
15018,11.0,0.002765,-0.000013,-0.375597,0.004778,-0.009706,0.000209,-0.5911,-1.8752,0.0000,-0.00001275,-0.00037998,0.00000000,-0.00498722,0.02954922,0.02217541,-0.3539,-0.3786,-9.5188,0.043168,-0.004294,0.034871,3.0357,-13.5996,11.6955,28.3886,0.3770,168,0,0,0.005140,-0.003212,-0.376048,-0.026457,-0.007770,-0.001663,-0.6613,-0.2207,0.9165
15029,11.0,0.002722,0.000108,-0.375579,0.003199,-0.011562,0.003124,-0.4982,-1.8567,0.0000,-0.00005656,-0.00039411,0.00000000,-0.00491543,0.02952868,0.02215233,-0.3396,-0.3819,-9.5203,0.056244,-0.001130,-0.031676,3.0357,-13.5996,11.6955,28.3886,0.3750,168,0,0,0.005129,-0.003148,-0.376050,-0.026541,-0.010927,0.001340,-0.6393,-0.2223,0.9556
15040,11.0,0.002697,0.000238,-0.375379,0.001666,-0.010317,0.007361,-0.4034,-1.8487,0.0000,-0.00009854,-0.00040281,0.00000000,-0.00492308,0.02934141,0.02082583,-0.3826,-0.1200,-9.5643,0.066315,-0.005073,-0.116559,3.0357,-13.5996,11.6955,28.3886,0.3750,167,0,0,0.005029,-0.002959,-0.375226,-0.027521,-0.015472,0.014247,-0.5630,-0.2202,0.9217
15051,11.0,0.002847,0.000347,-0.375016,0.002565,-0.007107,0.012376,-0.3250,-1.8934,0.0000,-0.00013269,-0.00037913,0.00000000,-0.00505440,0.02916070,0.01858300,-0.4099,0.1107,-9.6167,0.059771,-0.027961,-0.110185,3.0357,-13.5996,11.6955,28.3886,0.3750,166,0,0,0.004991,-0.002862,-0.375071,-0.028098,-0.015451,0.016717,-0.5193,-0.2231,0.8644
15062,11.0,0.003393,0.000326,-0.374759,0.009295,-0.005194,0.014681,-0.3174,-2.0344,0.0000,-0.00014073,-0.00029250,0.00000000,-0.00543405,0.02912349,0.01767069,-0.3680,0.1954,-9.7024,-0.001996,-0.072103,-0.032904,2.6213,-13.2155,12.4196,28.3886,0.3750,169,0,0,0.005239,-0.002727,-0.374500,-0.026157,-0.011226,0.022473,-0.4522,-0.2674,0.7642
15073,11.0,0.005031,0.000175,-0.374601,0.029771,-0.005422,0.014026,-0.3777,-2.3730,0.0000,-0.00012193,-0.00002744,0.00000000,-0.00638907,0.02913709,0.01788267,-0.4146,0.1903,-9.8398,-0.064923,-0.100002,0.001826,2.6213,-13.2155,12.4196,28.3886,0.3750,164,1,0,0.005630,-0.002747,-0.374618,-0.022315,-0.009462,0.019791,-0.4562,-0.3187,0.7531
15084,11.0,0.006004,0.000053,-0.374475,0.039297,-0.006322,0.011661,-0.4223,-2.5579,0.0000,-0.00011087,0.00008658,0.00000000,-0.00676115,0.02917661,0.01809420,-0.3497,0.0908,-9.9836,-0.053326,-0.116126,0.012043,2.6213,-13.2155,12.4196,28.3886,0.3750,170,0,0,0.007403,-0.002918,-0.374233,-0.005986,-0.008726,0.018195,-0.5288,-0.4759,0.7138
15095,11.0,0.006609,0.000042,-0.374369,0.043128,-0.006324,0.007616,-0.4124,-2.6319,0.0000,-0.00012260,0.00011676,0.00000000,-0.00684767,0.02914333,0.01811374,-0.3150,0.0255,-10.1560,-0.001598,-0.073053,-0.008957,2.6213,-13.2155,12.4196,28.3886,0.3730,170,0,0,0.008012,-0.002975,-0.373370,-0.001212,-0.008871,0.023502,-0.5529,-0.5474,0.7244
15106,11.0,0.004999,0.000099,-0.374177,0.016795,-0.005401,0.005073,-0.3717,-2.2798,0.0000,-0.00014702,-0.00028231,0.00000000,-0.00589947,0.02907006,0.01677659,-0.2976,0.0266,-10.1658,0.029948,0.005178,-0.028583,2.6213,-13.2155,12.4196,28.4467,0.3730,169,-2,0,0.008382,-0.002972,-0.373153,0.000952,-0.008984,0.019995,-0.5513,-0.5900,0.7257
15117,11.0,0.004268,0.000188,-0.373352,0.005829,-0.003475,0.012161,-0.3215,-2.0672,0.0000,-0.00017304,-0.00046614,0.00000000,-0.00581923,0.02893382,0.01052690,-0.2687,0.0917,-9.9837,0.045807,0.094449,-0.046185,2.6213,-13.2155,12.4196,28.4467,0.3730,168,0,0,0.007068,-0.002912,-0.372688,-0.014962,-0.008168,0.014747,-0.5107,-0.5343,0.7266
15128,11.0,0.003138,0.000285,-0.373114,-0.009194,-0.001191,0.014406,-0.2702,-1.7873,0.0000,-0.00019919,-0.00070569,0.00000000,-0.00528726,0.02886499,0.00958229,-0.2704,0.1318,-9.7014,0.048848,0.144466,-0.041951,2.6213,-13.2155,12.4196,28.4467,0.3740,167,0,0,0.006461,-0.002855,-0.372547,-0.021298,-0.006936,0.013448,-0.4797,-0.4570,0.7144
15139,11.0,0.002126,0.000319,-0.372932,-0.021195,-0.000382,0.018553,-0.2520,-1.5662,0.0000,-0.00020872,-0.00089113,0.00000000,-0.00483628,0.02883911,0.00947993,-0.2973,0.0909,-9.4187,0.017451,0.130227,-0.015583,2.6213,-13.2155,12.4196,28.4467,0.3740,168,0,0,0.005687,-0.002800,-0.373314,-0.028959,-0.005495,0.004618,-0.4481,-0.3601,0.7080
15150,11.0,0.001794,0.000273,-0.373260,-0.023028,-0.002017,0.017998,-0.2708,-1.5244,0.0000,-0.00020231,-0.00091170,0.00000000,-0.00462270,0.02886734,0.01381674,-0.3106,-0.0385,-9.2398,-0.023279,0.043348,0.006893,2.6213,-13.2155,12.4196,28.4467,0.3740,165,0,0,0.004399,-0.002783,-0.373018,-0.040101,-0.004975,0.013867,-0.4295,-0.1986,0.7272
15161,11.0,0.002962,0.000167,-0.373032,-0.006101,-0.004778,0.023591,-0.3135,-1.7562,0.0000,-0.00018677,-0.00060987,0.00000000,-0.00542897,0.02891212,0.01394859,-0.4038,-0.0906,-9.2804,-0.051373,-0.044549,-0.008997,2.6213,-13.6019,13.1516,28.4467,0.3730,168,1,0,0.004216,-0.002822,-0.372851,-0.040409,-0.006277,0.019534,-0.4445,-0.1766,0.7409
15172,11.0,0.004786,0.000070,-0.372625,0.018175,-0.006557,0.028488,-0.3467,-2.1009,0.0000,-0.00017866,-0.00020150,0.00000000,-0.00653977,0.02893549,0.01310486,-0.3130,-0.0366,-9.4878,-0.044165,-0.129860,-0.044427,2.6213,-13.6019,13.1516,28.4467,0.3730,168,1,0,0.004966,-0.002876,-0.372844,-0.031449,-0.008045,0.022562,-0.4725,-0.2140,0.7376
15183,11.0,0.005852,0.000058,-0.372539,0.029881,-0.005190,0.025020,-0.3400,-2.3044,0.0000,-0.00018912,-0.00001263,0.00000000,-0.00699840,0.02884454,0.01484923,-0.3122,0.1486,-9.8681,0.000132,-0.138119,-0.075562,2.6213,-13.6019,13.1516,28.4124,0.3730,170,0,0,0.006858,-0.002958,-0.372214,-0.011016,-0.009519,0.029096,-0.5144,-0.3962,0.6316
15194,11.0,0.006431,0.000079,-0.372173,0.034378,-0.001441,0.023148,-0.3197,-2.3836,0.0000,-0.00020301,0.00004282,0.00000000,-0.00714892,0.02881346,0.01403073,-0.2874,0.3577,-10.0806,0.018952,-0.074178,-0.088752,2.6213,-13.6019,13.1516,28.4124,0.3730,168,0,0,0.007549,-0.002953,-0.371750,-0.004677,-0.008183,0.030201,-0.5111,-0.4848,0.5906
15206,12.0,0.006388,0.000066,-0.371919,0.029436,0.003774,0.019290,-0.3203,-2.3122,0.0000,-0.00019632,-0.00006547,0.00000000,-0.00694535,0.02882461,0.01399278,-0.3492,0.5510,-10.1092,0.004803,0.015579,-0.076187,2.6213,-13.6019,13.1516,28.4124,0.3730,171,0,0,0.008184,-0.002932,-0.372192,-0.001066,-0.001704,0.014859,-0.4899,-0.5617,0.5006
15217,11.0,0.005073,0.000031,-0.372180,0.008817,0.007442,0.011704,-0.3402,-2.0544,0.0000,-0.00017230,-0.00046048,0.00000000,-0.00615734,0.02884891,0.01724645,-0.3862,0.5388,-9.9823,-0.009332,0.072089,-0.000756,2.6213,-13.6019,13.1516,28.4124,0.3730,171,-1,0,0.008082,-0.002947,-0.371918,-0.004363,0.002364,0.013522,-0.4875,-0.5421,0.4770
15228,11.0,0.004658,-0.000037,-0.372054,0.001359,0.008239,0.011281,-0.3824,-1.9518,0.0000,-0.00012896,-0.00058352,0.00000000,-0.00592467,0.02883240,0.01720857,-0.4543,0.3526,-9.8193,-0.031004,0.061424,0.081697,2.6213,-13.6019,13.1516,28.4124,0.3720,168,0,0,0.007198,-0.002986,-0.371792,-0.015969,0.005696,0.011599,-0.4940,-0.4803,0.5138
15239,11.0,0.004806,-0.000198,-0.371783,0.002274,0.003754,0.013854,-0.4643,-1.9729,0.0000,-0.00006834,-0.00054877,0.00000000,-0.00601680,0.02894469,0.01616400,-0.4123,-0.0352,-9.7072,-0.082509,-0.006888,0.110108,2.6213,-13.6019,13.1516,28.4124,0.3720,167,0,0,0.006750,-0.003112,-0.371662,-0.023230,0.006027,0.010469,-0.5459,-0.4102,0.6444
15250,11.0,0.005271,-0.000293,-0.371701,0.007678,-0.000685,0.013094,-0.5087,-2.0595,0.0000,-0.00004307,-0.00043665,0.00000000,-0.00616829,0.02912970,0.01670613,-0.3539,-0.1619,-9.7829,-0.051698,-0.053124,0.046828,2.6213,-13.6019,13.1516,28.4705,0.3720,170,0,0,0.006866,-0.003217,-0.371553,-0.022590,0.002557,0.011382,-0.5966,-0.4174,0.7117
15261,11.0,0.005641,-0.000212,-0.371476,0.012428,-0.002216,0.012244,-0.4756,-2.1256,0.0000,-0.00007025,-0.00036398,0.00000000,-0.00629694,0.02910369,0.01604639,-0.2503,-0.1394,-9.9714,0.032426,-0.052660,-0.019329,2.1994,-13.2155,11.3216,28.4705,0.3720,169,0,0,0.007434,-0.003289,-0.371156,-0.016597,-0.004023,0.012836,-0.6403,-0.4853,0.7589
15273,12.0,0.005516,-0.000169,-0.371347,0.010164,-0.002458,0.009233,-0.4511,-2.0791,0.0000,-0.00009390,-0.00044294,0.00000000,-0.00629378,0.02915078,0.01602839,-0.2731,0.0104,-10.0425,0.020456,0.016713,-0.043835,2.1994,-13.2155,11.3216,28.4705,0.3710,168,0,0,0.007642,-0.003228,-0.370908,-0.014124,-0.005675,0.012389,-0.6178,-0.5151,0.7508
15284,11.0,0.004762,-0.000203,-0.370909,0.000541,-0.002183,0.011575,-0.4602,-1.9144,0.0000,-0.00009220,-0.00067887,0.00000000,-0.00608578,0.02919053,0.01354186,-0.2592,0.1425,-9.9458,-0.013365,0.101708,-0.040406,2.1994,-13.2155,11.3216,28.4705,0.3710,168,0,0,0.007554,-0.003199,-0.370796,-0.015130,-0.006188,0.010043,-0.6044,-0.5045,0.6421
15295,11.0,0.003680,-0.000192,-0.370772,-0.012476,-0.001191,0.013372,-0.4530,-1.7028,0.0000,-0.00009837,-0.00097833,0.00000000,-0.00570328,0.02910929,0.01347227,-0.2897,0.1629,-9.6280,0.007504,0.140577,0.001647,2.1994,-13.2155,11.3216,28.4705,0.3700,172,0,0,0.006497,-0.003247,-0.370465,-0.026279,-0.005372,0.009871,-0.6115,-0.3604,0.6383
15306,11.0,0.002892,-0.000186,-0.370480,-0.021238,-0.002178,0.019343,-0.4496,-1.5675,0.0000,-0.00010567,-0.00115750,0.00000000,-0.00547358,0.02910963,0.01257677,-0.3605,-0.0149,-9.3794,0.000703,0.101503,0.052071,2.1994,-13.2155,11.3216,28.4705,0.3700,172,0,0,0.005771,-0.003247,-0.370126,-0.033270,-0.004662,0.014273,-0.6043,-0.2661,0.6614
15317,11.0,0.002723,-0.000263,-0.370025,-0.021591,-0.005657,0.027303,-0.4781,-1.5587,0.0000,-0.00009588,-0.00113719,0.00000000,-0.00555559,0.02914529,0.01111833,-0.3713,-0.1749,-9.2952,-0.039514,0.024776,0.049251,2.1994,-13.2155,11.3216,28.4705,0.3700,170,0,0,0.004835,-0.003265,-0.369655,-0.041353,-0.007074,0.023773,-0.6071,-0.1468,0.7460
15328,11.0,0.004122,-0.000328,-0.369585,-0.002260,-0.008147,0.032684,-0.4967,-1.7772,0.0000,-0.00009921,-0.00067005,0.00000000,-0.00633795,0.02915038,0.01036381,-0.3180,-0.1307,-9.4356,-0.031667,-0.075506,-0.013720,2.1994,-13.2155,11.3216,28.3780,0.3690,169,1,0,0.005412,-0.003311,-0.369167,-0.033798,-0.009861,0.031282,-0.6322,-0.1620,0.7689
15339,11.0,0.004929,-0.000298,-0.369219,0.007683,-0.008041,0.033847,-0.4717,-1.9311,0.0000,-0.00013993,-0.00042883,0.00000000,-0.00672169,0.02917595,0.01040017,-0.3215,-0.0197,-9.6892,0.016459,-0.108951,-0.058330,2.1994,-13.2155,11.3216,28.3780,0.3690,170,0,0,0.006326,-0.003339,-0.368725,-0.023106,-0.011776,0.036397,-0.6502,-0.2214,0.7644
15350,11.0,0.005535,-0.000240,-0.368716,0.014622,-0.006304,0.034550,-0.4368,-2.0359,0.0000,-0.00018297,-0.00027592,0.00000000,-0.00698126,0.02911752,0.00949777,-0.2783,0.1077,-9.8769,0.031671,-0.083299,-0.057377,2.1994,-13.2155,11.3216,28.3780,0.3690,168,0,0,0.007317,-0.003279,-0.367792,-0.012902,-0.011500,0.040316,-0.6244,-0.3553,0.7123
15361,11.0,0.005486,-0.000267,-0.368348,0.012264,-0.004021,0.032384,-0.4381,-2.0085,0.0000,-0.00018855,-0.00033945,0.00000000,-0.00689517,0.02901164,0.00948735,-0.3456,0.2796,-9.9901,-0.004858,0.009660,-0.037409,2.1958,-12.4417,12.4235,28.3780,0.3700,172,0,0,0.007551,-0.003259,-0.367396,-0.011354,-0.009465,0.038906,-0.6109,-0.3852,0.6915
15372,11.0,0.005174,-0.000314,-0.367847,0.006910,-0.002216,0.032901,-0.4491,-1.9351,0.0000,-0.00018412,-0.00047664,0.00000000,-0.00675731,0.02901876,0.00841654,-0.3516,0.2839,-9.9136,-0.015343,0.045403,-0.000431,2.1958,-12.4417,12.4235,28.3780,0.3700,172,0,0,0.007549,-0.003274,-0.368876,-0.012651,-0.007377,0.017087,-0.6106,-0.3846,0.6780
15383,11.0,0.004776,-0.000339,-0.368746,0.000637,-0.001597,0.018246,-0.4549,-1.8546,0.0000,-0.00018355,-0.00062318,0.00000000,-0.00625659,0.02894757,0.01679694,-0.3933,0.1663,-9.7777,-0.008615,0.055163,0.043990,2.1958,-12.4417,12.4235,28.3780,0.3700,174,0,0,0.007075,-0.003345,-0.368416,-0.020046,-0.003993,0.016552,-0.6265,-0.3154,0.6319
15394,11.0,0.004615,-0.000359,-0.368404,-0.001534,-0.002405,0.021225,-0.4609,-1.8237,0.0000,-0.00018400,-0.00067577,0.00000000,-0.00622320,0.02895049,0.01587654,-0.3356,0.0302,-9.6646,-0.009901,0.022814,0.052169,2.1958,-12.4417,12.4235,28.3199,0.3680,168,0,0,0.006798,-0.003366,-0.368021,-0.023971,-0.003515,0.019255,-0.6312,-0.2759,0.6705
15405,11.0,0.004750,-0.000428,-0.368163,0.000266,-0.004721,0.022559,-0.4832,-1.8459,0.0000,-0.00017954,-0.00062714,0.00000000,-0.00628257,0.02908937,0.01588372,-0.3155,-0.0712,-9.6690,-0.034070,-0.013064,0.032188,2.1958,-12.4417,12.4235,28.3199,0.3680,169,0,0,0.006623,-0.003407,-0.367714,-0.025854,-0.005822,0.020675,-0.6485,-0.2510,0.7437
15416,11.0,0.005056,-0.000498,-0.367743,0.004565,-0.006948,0.025271,-0.5049,-1.8963,0.0000,-0.00017728,-0.00052928,0.00000000,-0.00643998,0.02909750,0.01479464,-0.2551,-0.0844,-9.7258,-0.033544,-0.035977,-0.006290,2.1958,-12.4417,12.4235,28.3199,0.3680,170,0,0,0.006760,-0.003449,-0.367326,-0.024002,-0.008022,0.023905,-0.6674,-0.2676,0.7636
15427,11.0,0.005165,-0.000515,-0.367464,0.005463,-0.007770,0.025406,-0.5010,-1.9090,0.0000,-0.00020480,-0.00051083,0.00000000,-0.00647585,0.02917609,0.01479624,-0.3112,-0.0351,-9.7790,-0.006588,-0.012642,-0.023840,2.1958,-12.4417,12.4235,28.3199,0.3700,172,0,0,0.006954,-0.003489,-0.367083,-0.021279,-0.009889,0.024779,-0.6852,-0.2909,0.7677
15438,11.0,0.005029,-0.000465,-0.367011,0.003695,-0.007556,0.027464,-0.4717,-1.8810,0.0000,-0.00025284,-0.00057790,0.00000000,-0.00643757,0.02912268,0.01363288,-0.2777,-0.0215,-9.7960,0.025357,0.014893,-0.023399,2.1958,-12.4417,12.4235,28.3199,0.3700,173,0,0,0.007057,-0.003489,-0.368521,-0.019974,-0.011307,0.006461,-0.6817,-0.3068,0.7596
15449,11.0,0.004749,-0.000402,-0.368399,0.000479,-0.006693,0.007966,-0.4357,-1.8303,0.0000,-0.00031103,-0.00069204,0.00000000,-0.00599753,0.02910926,0.02446622,-0.2693,0.0228,-9.7604,0.031868,0.032443,-0.035939,2.1958,-12.4417,12.4235,28.3780,0.3700,168,0,0,0.006945,-0.003452,-0.368456,-0.021004,-0.011374,0.006515,-0.6621,-0.2948,0.7563
15460,11.0,0.004413,-0.000353,-0.368191,-0.003211,-0.005848,0.010080,-0.4079,-1.7739,0.0000,-0.00035445,-0.00081030,0.00000000,-0.00588784,0.02905897,0.02368299,-0.2829,0.0433,-9.7182,0.025953,0.040288,-0.045508,3.0541,-13.6053,11.6757,28.3780,0.3690,170,0,0,0.006752,-0.003412,-0.368199,-0.022825,-0.011026,0.009036,-0.6404,-0.2714,0.7471
15471,11.0,0.004118,-0.000309,-0.368075,-0.005893,-0.004335,0.011003,-0.3838,-1.7281,0.0000,-0.00038903,-0.00090329,0.00000000,-0.00581192,0.02896261,0.02367298,-0.2684,0.1221,-9.6984,0.024305,0.034492,-0.031424,3.0541,-13.6053,11.6757,28.3780,0.3690,166,0,0,0.006325,-0.003353,-0.368454,-0.026332,-0.009649,0.006515,-0.6047,-0.2219,0.7203
15482,11.0,0.003851,-0.000254,-0.368340,-0.008140,-0.003099,0.007818,-0.3567,-1.6910,0.0000,-0.00042633,-0.00097547,0.00000000,-0.00565052,0.02892419,0.02614546,-0.2844,0.0962,-9.6512,0.027974,0.029877,-0.021685,3.0541,-13.6053,11.6757,28.3780,0.3690,162,0,0,0.006123,-0.003324,-0.368383,-0.027724,-0.008470,0.007620,-0.5871,-0.1999,0.7039
15493,11.0,0.003675,-0.000237,-0.368246,-0.008943,-0.002709,0.009257,-0.3459,-1.6699,0.0000,-0.00044494,-0.00100777,0.00000000,-0.00563188,0.02889326,0.02614238,-0.2699,0.0677,-9.6493,0.009702,0.020095,-0.012453,3.0541,-13.6053,11.6757,28.3780,0.3700,162,0,0,0.005936,-0.003289,-0.368300,-0.029033,-0.007414,0.008952,-0.5674,-0.1789,0.7003
15504,11.0,0.003771,-0.000342,-0.367984,-0.006871,-0.004511,0.012683,-0.3822,-1.6904,0.0000,-0.00041919,-0.00093667,0.00000000,-0.00574438,0.02892200,0.02517519,-0.3084,-0.0017,-9.6351,-0.048526,-0.007026,-0.016468,3.0541,-13.6053,11.6757,28.3780,0.3700,168,0,0,0.005741,-0.003298,-0.369152,-0.029511,-0.007813,0.001561,-0.5661,-0.1587,0.7088
15515,11.0,0.004045,-0.000458,-0.368928,-0.002957,-0.006385,0.000610,-0.4181,-1.7377,0.0000,-0.00040426,-0.00080922,0.00000000,-0.00567747,0.02902996,0.03190809,-0.3115,-0.0149,-9.7188,-0.052619,-0.029317,-0.034914,3.0541,-13.6053,11.6757,28.3780,0.3700,168,0,0,0.005788,-0.003359,-0.368977,-0.028370,-0.008970,0.004849,-0.5901,-0.1639,0.7106
15526,11.0,0.004340,-0.000532,-0.368804,0.001130,-0.006917,0.002098,-0.4377,-1.7863,0.0000,-0.00040354,-0.00068799,0.00000000,-0.00583496,0.02902932,0.03117385,-0.2790,0.0534,-9.7679,-0.031209,-0.034870,-0.050572,3.0541,-13.6053,11.6757,28.3780,0.3690,167,0,0,0.006136,-0.003497,-0.368928,-0.023819,-0.011146,0.005718,-0.6443,-0.2054,0.6846
15537,11.0,0.004215,-0.000415,-0.368789,0.000366,-0.003326,0.000672,-0.3857,-1.7686,0.0000,-0.00046658,-0.00074462,0.00000000,-0.00583424,0.02882399,0.03116818,-0.2324,0.2360,-9.9049,0.060940,0.007303,-0.077643,3.0541,-13.6053,11.6757,28.4573,0.3690,168,0,0,0.006239,-0.003501,-0.368775,-0.022285,-0.010177,0.006546,-0.6413,-0.2196,0.6556
15548,11.0,0.003609,-0.000205,-0.368737,-0.005848,0.002053,0.000308,-0.3009,-1.6773,0.0000,-0.00055505,-0.00097957,0.00000000,-0.00560746,0.02873265,0.03084424,-0.2214,0.3380,-9.8615,0.103831,0.064001,-0.057530,3.0541,-13.6053,11.6757,28.4573,0.3690,169,0,0,0.006167,-0.003434,-0.368714,-0.022513,-0.007693,0.005612,-0.6073,-0.2158,0.6206
15559,11.0,0.002613,-0.000084,-0.368728,-0.016385,0.005602,0.001311,-0.2585,-1.5244,0.0000,-0.00058016,-0.00134065,0.00000000,-0.00525323,0.02855103,0.03082244,-0.2550,0.3152,-9.6832,0.059246,0.120957,-0.002712,2.6213,-13.6019,12.7856,28.4573,0.3690,167,0,0,0.005300,-0.003193,-0.368766,-0.030132,-0.000109,0.002822,-0.4903,-0.1193,0.5895
15570,11.0,0.001731,-0.000082,-0.368571,-0.024538,0.006380,0.006336,-0.2631,-1.3963,0.0000,-0.00055387,-0.00161347,0.00000000,-0.00498464,0.02857887,0.03005226,-0.2546,0.2139,-9.4525,0.000664,0.112696,0.023919,2.6213,-13.6019,12.7856,28.4573,0.3690,164,0,0,0.004625,-0.003131,-0.368731,-0.036332,0.002413,0.004163,-0.4576,-0.0364,0.6088
15581,11.0,0.001374,-0.000093,-0.368703,-0.026190,0.005196,0.008260,-0.2753,-1.3606,0.0000,-0.00052235,-0.00164657,0.00000000,-0.00491283,0.02860424,0.03140629,-0.2957,0.0492,-9.3591,-0.009792,0.044306,0.042246,2.6213,-13.6019,12.7856,28.4573,0.3690,165,0,0,0.003556,-0.003138,-0.368447,-0.044380,0.003247,0.012626,-0.4562,0.0953,0.6173
15592,11.0,0.002304,-0.000091,-0.368496,-0.012881,0.002903,0.013563,-0.2822,-1.4664,0.0000,-0.00050414,-0.00116269,0.00000000,-0.00548937,0.02863515,0.03084735,-0.3111,-0.0862,-9.3961,-0.005769,-0.017723,0.022008,2.6213,-13.6019,12.7856,28.4573,0.3690,165,1,0,0.003397,-0.003686,-0.368107,-0.044235,-0.003923,0.019174,-0.4704,0.1128,0.6538
15603,11.0,0.003654,-0.000929,-0.368331,0.004096,-0.009637,0.016270,-0.3547,-1.6250,0.0000,-0.00017233,-0.00056580,0.00000000,-0.00617919,0.02921552,0.03087684,-0.2818,-0.1653,-9.5301,-0.014686,-0.069343,-0.006301,2.6213,-13.6019,12.7856,28.4573,0.3690,161,1,-1,0.003996,-0.003677,-0.368597,-0.036118,-0.005331,0.015992,-0.4725,0.0897,0.6610
15614,11.0,0.004329,-0.000960,-0.368452,0.011678,-0.011147,0.013185,-0.3560,-1.7272,0.0000,-0.00020825,-0.00031190,0.00000000,-0.00642295,0.02915644,0.03265778,-0.2568,-0.1417,-9.7356,-0.013082,-0.086125,-0.043549,2.6213,-13.6019,12.7856,28.4573,0.3690,167,0,0,0.005796,-0.004767,-0.368090,-0.015719,-0.020489,0.022557,-0.5051,-0.0237,0.6573
15625,11.0,0.004814,-0.000985,-0.368313,0.016360,-0.010982,0.012226,-0.3509,-1.7912,0.0000,-0.00025537,-0.00017114,0.00000000,-0.00664802,0.02919480,0.03266282,-0.2501,-0.0047,-9.8621,-0.006476,-0.060547,-0.083728,2.6213,-13.6019,12.7856,28.4573,0.3710,166,0,0,0.006231,-0.004781,-0.367862,-0.011634,-0.020919,0.023070,-0.5066,-0.0796,0.6362
15636,11.0,0.004140,-0.001003,-0.368067,0.007168,-0.009201,0.011761,-0.3434,-1.7364,0.0000,-0.00029645,-0.00052710,0.00000000,-0.00631128,0.02915760,0.03192117,-0.2513,0.1479,-9.9501,-0.000383,-0.017220,-0.093080,2.6213,-13.6019,12.7856,28.4573,0.3710,161,-1,0,0.006563,-0.004795,-0.369580,-0.008923,-0.020226,0.002088,-0.5067,-0.1220,0.5977
15647,11.0,0.003908,-0.001033,-0.369521,0.003682,-0.005741,-0.007915,-0.3423,-1.6919,0.0000,-0.00031427,-0.00065986,0.00000000,-0.00596474,0.02896812,0.04101814,-0.2955,0.3462,-9.8822,-0.002838,0.031855,-0.066949,2.6213,-13.6019,12.7856,28.4573,0.3710,165,0,0,0.006125,-0.004836,-0.369563,-0.015362,-0.015659,-0.000279,-0.5004,-0.1218,0.5183
15658,11.0,0.003529,-0.000991,-0.369516,-0.001537,-0.001256,-0.007025,-0.3172,-1.6308,0.0000,-0.00035061,-0.00083720,0.00000000,-0.00581940,0.02893653,0.04045343,-0.3316,0.4056,-9.7844,0.029212,0.046145,-0.018563,3.4649,-12.8292,12.0536,28.4573,0.3700,169,0,0,0.005951,-0.004859,-0.369414,-0.018098,-0.012112,0.000741,-0.4978,-0.0975,0.4934
15669,11.0,0.003206,-0.000903,-0.369592,-0.006163,0.002447,-0.006873,-0.2828,-1.5857,0.0000,-0.00038240,-0.00096345,0.00000000,-0.00566723,0.02880588,0.04044754,-0.3911,0.3302,-9.7472,0.046098,0.035825,0.017737,3.4649,-12.8292,12.0536,28.4573,0.3700,170,0,0,0.005706,-0.004848,-0.369751,-0.021547,-0.008155,-0.003045,-0.4818,-0.0659,0.4898
15680,11.0,0.003300,-0.000943,-0.369695,-0.005092,0.000140,-0.006506,-0.3013,-1.6035,0.0000,-0.00035738,-0.00089156,0.00000000,-0.00572452,0.02882635,0.04062593,-0.3520,-0.0724,-9.6979,-0.022811,-0.009501,0.081964,3.4649,-12.8292,12.0536,28.4573,0.3700,171,0,0,0.005355,-0.004762,-0.369695,-0.026874,-0.002958,-0.001027,-0.4332,-0.0250,0.6000
15691,11.0,0.003591,-0.001097,-0.369763,-0.001384,-0.005573,-0.005897,-0.3579,-1.6463,0.0000,-0.00030934,-0.00073795,0.00000000,-0.00584043,0.02904814,0.04063063,-0.3079,-0.3026,-9.7112,-0.078453,-0.027264,0.065790,3.4649,-12.8292,12.0536,28.4573,0.3710,166,0,0,0.005395,-0.004777,-0.369701,-0.026725,-0.004310,-0.000052,-0.4407,-0.0305,0.6524
15702,11.0,0.003070,-0.000349,-0.369705,-0.006407,-0.000842,-0.004351,-0.3220,-1.6296,0.0000,-0.00067892,-0.00096386,0.00000000,-0.00567395,0.02875201,0.03990882,-0.2086,-0.3560,-9.7637,-0.041589,-0.034307,-0.027358,3.4649,-12.8292,12.0536,28.4573,0.3710,165,-1,1,0.005780,-0.004940,-0.370444,-0.022342,-0.012652,-0.005745,-0.5171,-0.0718,0.7277
15713,11.0,0.003092,-0.000267,-0.370351,-0.004134,-0.002154,-0.011753,-0.2883,-1.6389,0.0000,-0.00074430,-0.00093600,0.00000000,-0.00578873,0.02899626,0.04324276,-0.1666,-0.1504,-9.8098,0.033524,-0.009565,-0.119770,3.4649,-12.8292,12.0536,28.4573,0.3710,166,0,0,0.005399,-0.004435,-0.370377,-0.025645,-0.010350,-0.003924,-0.5230,-0.0816,0.7117
15724,11.0,0.002682,-0.000092,-0.370389,-0.006840,0.000592,-0.011247,-0.2218,-1.5857,0.0000,-0.00083208,-0.00110413,0.00000000,-0.00567050,0.02892871,0.04269644,-0.1431,0.1238,-9.8240,0.082175,0.040033,-0.156253,3.4649,-12.8292,12.0536,28.4573,0.3700,166,0,0,0.005424,-0.004389,-0.370416,-0.023947,-0.011611,-0.003929,-0.5020,-0.0901,0.6596
15735,11.0,0.001638,0.000087,-0.370504,-0.016359,0.006632,-0.009660,-0.1561,-1.4370,0.0000,-0.00088954,-0.00155023,0.00000000,-0.00536824,0.02870253,0.04268908,-0.1164,0.4620,-9.6216,0.090040,0.120892,-0.094617,3.4649,-12.8292,12.0536,28.4573,0.3700,166,0,0,0.004771,-0.004189,-0.370090,-0.027878,-0.006256,0.000305,-0.4039,-0.0204,0.5151
15746,11.0,0.000601,0.000248,-0.370137,-0.025670,0.011111,-0.000209,-0.1025,-1.2980,0.0000,-0.00091933,-0.00194108,0.00000000,-0.00509060,0.02867277,0.04020501,-0.1909,0.3914,-9.3843,0.076632,0.120979,-0.003871,3.4649,-12.8292,12.0536,28.4573,0.3700,165,0,0,0.004084,-0.004085,-0.370079,-0.033272,-0.001222,0.002021,-0.3488,0.0604,0.4768
15757,11.0,0.000874,-0.000508,-0.370107,-0.019608,0.002171,0.005607,-0.1471,-1.2961,0.0000,-0.00051536,-0.00168681,0.00000000,-0.00533036,0.02906074,0.04021243,-0.2445,0.1539,-9.2377,0.028285,0.063775,0.068907,3.0504,-13.6041,12.4119,28.4573,0.3710,165,1,-1,0.003340,-0.004458,-0.370503,-0.037177,-0.000351,0.004489,-0.2762,0.2013,0.5094
15768,11.0,0.002126,-0.001342,-0.369891,-0.003619,-0.009801,0.012801,-0.2119,-1.4340,0.0000,-0.00012751,-0.00101217,0.00000000,-0.00602725,0.02946262,0.03953333,-0.2917,-0.1559,-9.2470,-0.008919,-0.056603,0.078106,3.0504,-13.6041,12.4119,28.4573,0.3710,170,1,-1,0.003650,-0.004975,-0.370429,-0.032601,-0.005882,0.010328,-0.2756,0.2183,0.5565
15779,11.0,0.003396,-0.002207,-0.370351,0.010481,-0.021730,0.008779,-0.2744,-1.6272,0.0000,0.00021288,-0.00040634,0.00000000,-0.00657900,0.02979381,0.04288604,-0.3278,-0.2538,-9.4753,-0.017727,-0.162520,0.029526,3.0504,-13.6041,12.4119,28.4573,0.3710,164,0,-1,0.004424,-0.005516,-0.370175,-0.023876,-0.013068,0.017338,-0.2882,0.1784,0.6008
15790,11.0,0.005122,-0.002257,-0.370173,0.028897,-0.021823,0.007588,-0.2697,-1.8788,0.0000,0.00011812,0.00034790,0.00000000,-0.00727910,0.02970441,0.04236433,-0.2914,-0.1411,-9.9760,-0.014478,-0.220402,-0.055180,3.0504,-13.6041,12.4119,28.4573,0.3710,164,0,0,0.006178,-0.006086,-0.369571,-0.007009,-0.021921,0.024576,-0.3120,-0.0445,0.6236
15801,11.0,0.005679,-0.001495,-0.370122,0.032154,-0.009712,0.001643,-0.2081,-2.0051,0.0000,-0.00035659,0.00046012,0.00000000,-0.00736374,0.02934564,0.04236213,-0.2960,0.1415,-10.3033,-0.013970,-0.173634,-0.110024,3.0504,-13.6041,12.4119,28.4573,0.3690,169,-1,1,0.007303,-0.006100,-0.369115,0.003132,-0.021825,0.024828,-0.3159,-0.1880,0.5962
15812,11.0,0.005318,-0.000673,-0.369324,0.024581,0.003691,0.003396,-0.1362,-1.9903,0.0000,-0.00079699,0.00011369,0.00000000,-0.00725331,0.02908830,0.03797112,-0.3165,0.3362,-10.4771,0.010766,-0.056854,-0.094279,3.0504,-13.6041,12.4119,28.4811,0.3690,169,-1,1,0.007683,-0.005590,-0.368890,0.004445,-0.013901,0.020081,-0.3100,-0.2925,0.5419
15823,11.0,0.004633,0.000233,-0.369324,0.014148,0.017758,-0.003334,-0.0500,-1.8668,0.0000,-0.00121064,-0.00035730,0.00000000,-0.00704782,0.02890215,0.03796427,-0.3181,0.4551,-10.3784,0.040054,0.086568,-0.026325,3.0504,-13.6041,12.4119,28.4811,0.3730,167,0,1,0.007025,-0.004503,-0.368488,-0.007677,0.004584,0.007982,-0.2676,-0.3189,0.4681
15834,11.0,0.003284,0.000270,-0.369261,-0.003231,0.018667,-0.004344,-0.0545,-1.6482,0.0000,-0.00112436,-0.00110201,0.00000000,-0.00676455,0.02893074,0.03733616,-0.3462,0.3023,-9.9817,0.011673,0.175032,0.029467,3.0504,-13.6041,12.4119,28.4811,0.3730,167,0,0,0.006511,-0.003912,-0.371116,-0.014657,0.013752,-0.025709,-0.2347,-0.2537,0.4710
15846,12.0,0.002961,-0.000525,-0.371267,-0.007411,0.008478,-0.025013,-0.1255,-1.5260,0.0000,-0.00060625,-0.00123979,0.00000000,-0.00642090,0.02901859,0.04760477,-0.3668,0.1716,-9.5804,0.004296,0.147791,0.049279,3.0504,-13.6041,12.4119,28.4811,0.3730,165,1,-1,0.005326,-0.004443,-0.371674,-0.028866,0.009219,-0.028689,-0.2391,-0.0351,0.5554
15858,12.0,0.002576,-0.001302,-0.371456,-0.011744,-0.001375,-0.020382,-0.1734,-1.4739,0.0000,-0.00016890,-0.00138360,0.00000000,-0.00635721,0.02925196,0.04711292,-0.3454,0.0658,-9.4610,0.019831,0.044951,0.029560,3.4723,-12.8314,13.1441,28.4811,0.3690,167,0,-1,0.005158,-0.004977,-0.370288,-0.030835,0.003459,-0.007929,-0.2470,0.0498,0.6003
15869,11.0,0.003860,-0.001293,-0.371669,0.004014,-0.002068,-0.018494,-0.1684,-1.6095,0.0000,-0.00018800,-0.00067679,0.00000000,-0.00673425,0.02931429,0.04712209,-0.2874,-0.0369,-9.5874,0.002950,-0.059381,0.027901,3.4723,-12.8314,13.1441,28.4811,0.3690,161,1,0,0.005367,-0.005466,-0.370274,-0.028074,-0.002279,-0.000125,-0.2372,0.0773,0.6515
15880,11.0,0.004569,-0.001309,-0.370128,0.011925,-0.003643,0.001386,-0.1720,-1.7116,0.0000,-0.00020198,-0.00034360,0.00000000,-0.00715590,0.02942868,0.03817125,-0.2489,-0.1030,-9.7944,-0.009682,-0.089370,0.026226,3.4723,-12.8314,13.1441,28.4811,0.3690,163,0,0,0.005685,-0.005455,-0.370266,-0.024394,-0.003109,0.001831,-0.2347,0.0327,0.7269
15891,11.0,0.004995,-0.001316,-0.370124,0.016300,-0.004453,-0.000620,-0.1693,-1.7621,0.0000,-0.00023192,-0.00020924,0.00000000,-0.00739969,0.02956678,0.03817880,-0.2028,-0.0578,-9.9531,-0.003558,-0.052456,0.001511,3.4723,-12.8314,13.1441,28.4467,0.3730,168,0,0,0.006128,-0.005455,-0.370246,-0.019402,-0.004431,0.002087,-0.2393,-0.0255,0.7451
15902,11.0,0.003848,-0.000438,-0.370015,0.002620,0.005434,-0.001266,-0.0942,-1.6458,0.0000,-0.00070497,-0.00088677,0.00000000,-0.00707384,0.02933186,0.03750447,-0.1821,-0.0026,-9.9689,0.016613,0.037924,-0.024247,3.4723,-12.8314,13.1441,28.4467,0.3730,167,-1,1,0.006487,-0.004897,-0.372062,-0.015169,0.000135,-0.018608,-0.2274,-0.0748,0.7526
15913,11.0,0.002813,-0.000342,-0.371582,-0.008928,0.005336,-0.019616,-0.0669,-1.4916,0.0000,-0.00072280,-0.00143356,0.00000000,-0.00660892,0.02926806,0.04535890,-0.2402,-0.0033,-9.7980,0.039058,0.126392,-0.009856,3.4723,-12.8314,13.1441,28.4467,0.3730,167,0,0,0.005669,-0.004328,-0.372121,-0.023701,0.005429,-0.018735,-0.2043,-0.0320,0.7542
15924,11.0,0.001677,-0.000270,-0.371691,-0.020451,0.004479,-0.016726,-0.0476,-1.3303,0.0000,-0.00073298,-0.00196561,0.00000000,-0.00632434,0.02926762,0.04484187,-0.2344,-0.0574,-9.6062,0.027856,0.141599,0.007401,3.4723,-12.8314,13.1441,28.4467,0.3680,168,0,0,0.005055,-0.004276,-0.372310,-0.029644,0.004813,-0.019130,-0.1823,0.0449,0.7640
15935,11.0,0.001862,-0.001935,-0.371851,-0.016184,-0.016058,-0.012396,-0.1673,-1.3055,0.0000,0.00014166,-0.00175411,0.00000000,-0.00645691,0.02981888,0.04483169,-0.2614,-0.0736,-9.3689,-0.007023,0.081572,-0.011307,3.4723,-12.8314,13.1441,28.4467,0.3680,168,1,-2,0.003666,-0.004214,-0.369551,-0.041953,0.002057,0.015760,-0.1538,0.2208,0.7986
15946,11.0,0.002028,-0.001961,-0.369670,-0.013052,-0.014583,0.018129,-0.1593,-1.3429,0.0000,0.00006292,-0.00157218,0.00000000,-0.00686325,0.02979152,0.03333304,-0.2958,0.0350,-9.4196,-0.003465,-0.023043,-0.036780,3.4723,-12.8314,13.1441,28.4467,0.3680,165,0,0,0.003846,-0.005297,-0.369372,-0.038304,-0.010918,0.020161,-0.1775,0.2564,0.8082
15957,11.0,0.002714,-0.002829,-0.369459,-0.003722,-0.022109,0.020185,-0.2102,-1.4535,0.0000,0.00043486,-0.00114488,0.00000000,-0.00717355,0.02996254,0.03332982,-0.2363,0.1028,-9.5873,-0.003585,-0.089247,-0.019905,2.6213,-13.2155,12.4196,28.4467,0.3730,167,0,-1,0.004142,-0.005863,-0.371257,-0.032990,-0.015440,0.001830,-0.1883,0.2095,0.7948
15968,11.0,0.003422,-0.002874,-0.369114,0.005439,-0.018570,0.021095,-0.2013,-1.5597,0.0000,0.00033615,-0.00075845,0.00000000,-0.00745169,0.02989295,0.03268661,-0.1887,0.1922,-9.8299,-0.005574,-0.090722,0.003881,2.6213,-13.2155,12.4196,28.4467,0.3730,163,0,0,0.004609,-0.005875,-0.371232,-0.026924,-0.013349,0.003279,-0.1884,0.1462,0.7931
15980,12.0,0.003723,-0.002895,-0.371071,0.009083,-0.015078,-0.006745,-0.1832,-1.5994,0.0000,0.00024439,-0.00064698,0.00000000,-0.00737620,0.02968309,0.04349252,-0.1910,0.1754,-9.9698,0.010231,-0.038802,0.025577,2.6213,-13.2155,12.4196,28.4467,0.3730,167,0,0,0.005069,-0.005891,-0.371073,-0.021128,-0.011006,0.004487,-0.1907,0.0845,0.8004
15991,11.0,0.003621,-0.002856,-0.371059,0.007692,-0.012422,-0.007707,-0.1534,-1.5786,0.0000,0.00013754,-0.00075631,0.00000000,-0.00732242,0.02961829,0.04299564,-0.1999,0.0949,-9.9597,0.026089,0.010208,0.045522,2.6213,-13.2155,12.4196,28.4467,0.3680,167,0,0,0.005338,-0.005872,-0.369147,-0.017702,-0.006885,0.021559,-0.1726,0.0486,0.8036
16002,11.0,0.003075,-0.002885,-0.371145,0.000959,-0.012544,-0.007779,-0.1498,-1.4898,0.0000,0.00006742,-0.00109302,0.00000000,-0.00714766,0.02971031,0.04299681,-0.2402,-0.0759,-9.7709,-0.009255,0.072679,0.050905,2.6213,-13.2155,12.4196,28.4467,0.3680,166,0,0,0.005081,-0.005852,-0.368936,-0.020639,-0.006312,0.020558,-0.1593,0.0822,0.8468
16013,11.0,0.002721,-0.002937,-0.369316,-0.003118,-0.013423,0.015949,-0.1571,-1.4349,0.0000,0.00001686,-0.00128324,0.00000000,-0.00720576,0.02967237,0.03374187,-0.2560,-0.1234,-9.6213,-0.021062,0.048865,0.024007,2.6213,-13.2155,12.4196,28.4467,0.3680,166,0,0,0.004371,-0.005888,-0.368363,-0.028194,-0.008204,0.023251,-0.1665,0.1764,0.9269
16024,11.0,0.002751,-0.002939,-0.369131,-0.002765,-0.013729,0.017734,-0.1434,-1.4417,0.0000,-0.00007613,-0.00124566,0.00000000,-0.00719595,0.02975230,0.03374236,-0.2852,-0.1348,-9.6105,0.002264,-0.004390,0.006001,2.6213,-13.2155,12.4196,28.4467,0.3730,171,0,0,0.004128,-0.004816,-0.371010,-0.030373,0.002267,-0.006245,-0.1549,0.2015,0.9461
16035,11.0,0.003084,-0.002931,-0.368807,0.001042,-0.013067,0.019679,-0.1270,-1.4929,0.0000,-0.00016470,-0.00104979,0.00000000,-0.00733321,0.02969010,0.03311691,-0.2816,-0.0557,-9.7335,0.008649,-0.044050,-0.016956,2.6213,-13.2155,12.4196,28.4467,0.3730,169,0,0,0.004122,-0.004804,-0.370962,-0.030106,0.000260,-0.003207,-0.1540,0.2006,0.9628
16046,11.0,0.003504,-0.002930,-0.370930,0.005738,-0.011113,-0.008875,-0.1124,-1.5524,0.0000,-0.00024073,-0.00083504,0.00000000,-0.00727792,0.02963585,0.04430848,-0.2561,0.0836,-9.9004,0.007753,-0.054629,-0.022408,2.6213,-13.2155,12.4196,28.4467,0.3730,168,0,0,0.004543,-0.004761,-0.371011,-0.025221,-0.001121,-0.002224,-0.1423,0.1397,0.9706
16057,11.0,0.002826,-0.002912,-0.370947,-0.002360,-0.008835,-0.010682,-0.0934,-1.5162,0.0000,-0.00031442,-0.00123750,0.00000000,-0.00705891,0.02959264,0.04382819,-0.2559,0.1171,-10.0332,0.015610,-0.021550,0.011199,2.2067,-13.6041,13.8763,28.4467,0.3690,163,-1,0,0.004784,-0.004745,-0.369749,-0.022494,-0.000603,0.010608,-0.1373,0.1062,0.9715
16068,11.0,0.002658,-0.002934,-0.371079,-0.003771,-0.008200,-0.013385,-0.0919,-1.4919,0.0000,-0.00035529,-0.00131618,0.00000000,-0.00702029,0.02955944,0.04382876,-0.2540,0.0256,-10.0088,-0.005692,0.022121,0.050101,2.2067,-13.6041,13.8763,28.4467,0.3690,163,0,0,0.004335,-0.004736,-0.369654,-0.027362,0.000061,0.008378,-0.1285,0.1028,0.9914
16079,11.0,0.002093,-0.003039,-0.369876,-0.009482,-0.010842,0.001225,-0.1228,-1.4068,0.0000,-0.00035221,-0.00160218,0.00000000,-0.00698636,0.02951018,0.03739578,-0.2467,-0.1941,-9.8742,-0.048095,0.079359,0.070760,2.2067,-13.6041,13.8763,28.4467,0.3690,167,0,0,0.004020,-0.004780,-0.369386,-0.029555,-0.001473,0.006038,-0.1471,0.1424,0.9708
16090,11.0,0.001429,-0.003116,-0.369855,-0.016399,-0.014401,0.002529,-0.1395,-1.3134,0.0000,-0.00039931,-0.00190563,0.00000000,-0.00678842,0.02964897,0.03739657,-0.3042,-0.3428,-9.6503,-0.036863,0.088931,0.049144,2.2067,-13.6041,13.8763,28.5049,0.3740,167,0,0,0.003634,-0.004844,-0.369328,-0.032989,-0.004598,0.005572,-0.1734,0.1945,1.0250
16101,11.0,0.000918,-0.003159,-0.369710,-0.020619,-0.017472,0.006138,-0.1430,-1.2490,0.0000,-0.00047675,-0.00208642,0.00000000,-0.00669241,0.02960146,0.03689183,-0.2734,-0.3706,-9.5559,-0.020387,0.066037,-0.001081,2.2067,-13.6041,13.8763,28.5049,0.3740,167,0,0,0.002827,-0.004926,-0.372463,-0.039841,-0.011997,-0.021942,-0.2061,0.2956,1.0941
16112,11.0,0.000762,-0.003156,-0.371966,-0.020354,-0.016800,-0.018719,-0.1201,-1.2425,0.0000,-0.00060969,-0.00204369,0.00000000,-0.00645572,0.02984021,0.04781798,-0.2683,-0.0984,-9.5530,0.007726,0.015847,-0.094364,2.2067,-13.6041,13.8763,28.5049,0.3740,168,0,0,0.002550,-0.004385,-0.372555,-0.041252,-0.008682,-0.017744,-0.1984,0.3265,1.0797
16123,11.0,0.000724,-0.003121,-0.372083,-0.018797,-0.013294,-0.016285,-0.0884,-1.2548,0.0000,-0.00072749,-0.00193901,0.00000000,-0.00653059,0.02975286,0.04742805,-0.2688,0.1497,-9.6258,0.027511,-0.001990,-0.089902,2.2067,-13.6041,13.8763,28.5049,0.3690,169,0,0,0.002428,-0.004376,-0.372719,-0.041058,-0.009550,-0.015137,-0.1921,0.3353,1.0447
16134,11.0,0.000705,-0.003072,-0.372256,-0.017136,-0.008776,-0.015164,-0.0567,-1.2697,0.0000,-0.00081687,-0.00183126,0.00000000,-0.00657089,0.02953015,0.04742653,-0.2637,0.2721,-9.6568,0.034171,-0.005224,-0.047246,2.2067,-13.6041,13.8763,28.5049,0.3690,169,0,0,0.002355,-0.004315,-0.370313,-0.039211,-0.005292,0.014147,-0.1567,0.3318,0.9850
16145,11.0,0.000527,-0.003094,-0.370441,-0.017257,-0.006714,0.009330,-0.0567,-1.2565,0.0000,-0.00084019,-0.00182510,0.00000000,-0.00676272,0.02928164,0.03832340,-0.2441,0.1608,-9.6233,-0.002810,0.020932,0.049490,2.2067,-13.6041,13.8763,28.5049,0.3690,174,0,0,0.002278,-0.003747,-0.370164,-0.038535,0.003179,0.015557,-0.1308,0.3340,0.9920
16156,11.0,0.000355,-0.003164,-0.370327,-0.017279,-0.008633,0.011456,-0.0729,-1.2417,0.0000,-0.00086081,-0.00181264,0.00000000,-0.00674289,0.02944277,0.03832311,-0.2394,-0.1538,-9.5757,-0.031642,0.024086,0.085297,3.0431,-13.2155,12.7856,28.5049,0.3730,168,0,0,0.002168,-0.003749,-0.369868,-0.038382,0.003823,0.018725,-0.1315,0.3432,1.0300
16167,11.0,0.000399,-0.003265,-0.370093,-0.014602,-0.012350,0.015391,-0.1018,-1.2565,0.0000,-0.00086864,-0.00168245,0.00000000,-0.00684624,0.02942462,0.03788836,-0.2095,-0.3119,-9.5126,-0.048244,-0.001340,0.040231,3.0431,-13.2155,12.7856,28.5392,0.3730,168,0,0,0.001992,-0.003824,-0.371631,-0.037523,-0.001865,0.002375,-0.1687,0.3612,1.1525
16178,11.0,0.000636,-0.003288,-0.371545,-0.009860,-0.014346,-0.001191,-0.0936,-1.3003,0.0000,-0.00096797,-0.00146127,0.00000000,-0.00687612,0.02974798,0.04532721,-0.1912,-0.2756,-9.5473,-0.009885,-0.031383,-0.046275,3.0431,-13.2155,12.7856,28.5392,0.3730,166,0,0,0.002026,-0.003873,-0.371500,-0.035583,-0.005941,0.006333,-0.1947,0.3571,1.1874
16189,11.0,0.000955,-0.003268,-0.371480,-0.004851,-0.014982,0.001076,-0.0735,-1.3550,0.0000,-0.00107516,-0.00122205,0.00000000,-0.00706181,0.02965148,0.04499151,-0.2088,-0.2093,-9.6343,0.011336,-0.044777,-0.071633,3.0431,-13.2155,12.7856,28.5392,0.3690,165,0,0,0.002152,-0.003891,-0.371423,-0.032695,-0.009038,0.009045,-0.2056,0.3385,1.1767
16200,11.0,0.001295,-0.003339,-0.371467,0.000010,-0.013880,0.001297,-0.0826,-1.4045,0.0000,-0.00112329,-0.00100786,0.00000000,-0.00730142,0.02954738,0.04499098,-0.1958,0.0474,-9.7431,-0.023879,-0.041622,-0.063779,3.0431,-13.2155,12.7856,28.5392,0.3690,168,0,0,0.002561,-0.003853,-0.369611,-0.026227,-0.011376,0.027937,-0.1917,0.2786,1.1373
16211,11.0,0.001607,-0.003445,-0.369998,0.003963,-0.011816,0.018111,-0.1055,-1.4461,0.0000,-0.00113300,-0.00083454,0.00000000,-0.00755261,0.02933624,0.03845252,-0.2052,0.1948,-9.7746,-0.037229,-0.035301,-0.047109,3.0431,-13.2155,12.7856,28.5392,0.3690,168,0,0,0.002784,-0.003883,-0.369328,-0.023242,-0.010962,0.028581,-0.2017,0.2501,1.1192
16222,11.0,0.002026,-0.003504,-0.369806,0.008129,-0.009715,0.016908,-0.1133,-1.5017,0.0000,-0.00115979,-0.00062128,0.00000000,-0.00769333,0.02917895,0.03844975,-0.2629,0.1749,-9.8774,-0.017256,-0.050615,0.002796,3.0431,-13.2155,12.7856,28.5392,0.3720,168,0,0,0.003233,-0.003988,-0.370622,-0.018610,-0.008049,0.008290,-0.2360,0.1941,1.1057
16233,11.0,0.002491,-0.004442,-0.369527,0.012975,-0.018596,0.015981,-0.1916,-1.5590,0.0000,-0.00068269,-0.00040835,0.00000000,-0.00783839,0.02947456,0.03796798,-0.2105,0.0952,-9.9683,-0.039608,-0.053182,0.045642,3.0431,-13.2155,12.7856,28.5049,0.3720,169,0,-1,0.003504,-0.004019,-0.370460,-0.016394,-0.006804,0.008308,-0.2463,0.1603,1.1244
16244,11.0,0.002822,-0.004588,-0.370724,0.015753,-0.018977,-0.002692,-0.2199,-1.5897,0.0000,-0.00073671,-0.00030815,0.00000000,-0.00788685,0.02971724,0.04398993,-0.2173,-0.0409,-10.0314,-0.057727,-0.032553,0.030708,3.0431,-13.2155,12.7856,28.5049,0.3720,171,0,0,0.003811,-0.004621,-0.370385,-0.013654,-0.012413,0.006682,-0.2777,0.1271,1.1642
16255,11.0,0.002470,-0.004559,-0.370687,0.011136,-0.017630,-0.004239,-0.1903,-1.5268,0.0000,-0.00087797,-0.00061593,0.00000000,-0.00771770,0.02963212,0.04362359,-0.1595,-0.0603,-9.9945,0.020909,0.044417,-0.010500,3.0394,-13.6007,12.7894,28.5049,0.3690,171,0,0,0.004108,-0.004756,-0.369457,-0.011647,-0.013574,0.011442,-0.3271,0.1001,1.2224
16266,11.0,0.001621,-0.004441,-0.370739,0.001238,-0.015055,-0.005143,-0.1284,-1.3960,0.0000,-0.00107143,-0.00119405,0.00000000,-0.00757478,0.02965986,0.04363105,-0.1672,-0.0306,-9.8473,0.061873,0.102258,-0.039230,3.0394,-13.6007,12.7894,28.5049,0.3690,164,0,0,0.003884,-0.004739,-0.369352,-0.014340,-0.013457,0.009548,-0.3122,0.1284,1.2303
16278,12.0,0.000552,-0.004380,-0.369692,-0.010528,-0.012779,0.008324,-0.0848,-1.2349,0.0000,-0.00120820,-0.00182091,0.00000000,-0.00726053,0.02949429,0.03881559,-0.2056,0.0131,-9.7088,0.041111,0.131519,-0.054561,3.0394,-13.6007,12.7894,28.5049,0.3690,167,0,0,0.002716,-0.004619,-0.369055,-0.026860,-0.011476,0.010298,-0.2406,0.2723,1.1823
16290,12.0,-0.000114,-0.004418,-0.369564,-0.016803,-0.011610,0.012912,-0.0804,-1.1423,0.0000,-0.00127534,-0.00213109,0.00000000,-0.00705465,0.02945304,0.03881649,-0.2290,0.0322,-9.3860,-0.005475,0.082572,-0.016950,3.0394,-13.6007,12.7894,28.4124,0.3710,169,0,0,0.002036,-0.004618,-0.368940,-0.033687,-0.010405,0.012527,-0.2284,0.3590,1.1674
16301,11.0,-0.000154,-0.004447,-0.369252,-0.015539,-0.011388,0.019600,-0.0788,-1.1477,0.0000,-0.00133448,-0.00204652,0.00000000,-0.00712283,0.02939839,0.03818090,-0.2286,-0.0434,-9.3155,-0.009128,0.004334,0.015702,3.0394,-13.6007,12.7894,28.4124,0.3710,167,0,0,0.001286,-0.004655,-0.370060,-0.039475,-0.009739,0.007228,-0.2287,0.4499,1.1801
16312,11.0,0.000416,-0.003669,-0.370068,-0.007457,-0.003405,0.011058,-0.0375,-1.2369,0.0000,-0.00186219,-0.00162435,0.00000000,-0.00739830,0.02905242,0.04268574,-0.2174,-0.1642,-9.4420,-0.029561,-0.070130,0.003946,3.0394,-13.6007,12.7894,28.4124,0.3710,171,0,1,0.001357,-0.004670,-0.369816,-0.037230,-0.010353,0.013419,-0.2333,0.4375,1.2031
16323,11.0,0.001132,-0.003782,-0.369828,0.001954,-0.006149,0.014209,-0.0738,-1.3400,0.0000,-0.00182446,-0.00116797,0.00000000,-0.00775074,0.02906483,0.04220588,-0.1694,-0.1494,-9.5972,-0.052888,-0.085311,-0.027441,3.0394,-13.6007,12.7894,28.4124,0.3690,169,0,0,0.001679,-0.004153,-0.369663,-0.032415,-0.005965,0.017156,-0.2381,0.3927,1.2202
16335,12.0,0.001544,-0.003869,-0.369658,0.006562,-0.006841,0.014233,-0.0959,-1.3954,0.0000,-0.00182185,-0.00094836,0.00000000,-0.00795518,0.02910438,0.04220546,-0.2135,-0.0081,-9.7639,-0.034007,-0.047025,-0.068039,3.0394,-13.6007,12.7894,28.4124,0.3690,168,0,0,0.002517,-0.004264,-0.368838,-0.021574,-0.009447,0.025251,-0.2909,0.2865,1.2166
16346,11.0,0.001568,-0.003862,-0.369082,0.006209,-0.004701,0.018478,-0.0849,-1.3943,0.0000,-0.00186312,-0.00097589,0.00000000,-0.00795156,0.02904365,0.04041723,-0.2306,0.1647,-9.8224,0.008739,-0.003580,-0.081830,3.0394,-13.6007,12.7894,28.4124,0.3690,169,0,0,0.002754,-0.004303,-0.368585,-0.019033,-0.009677,0.025381,-0.3059,0.2559,1.1926
16357,11.0,0.001399,-0.003822,-0.368882,0.003573,-0.001299,0.017809,-0.0652,-1.3670,0.0000,-0.00189640,-0.00111254,0.00000000,-0.00784814,0.02885023,0.04041714,-0.2469,0.2757,-9.8270,0.025106,0.018598,-0.075494,3.0541,-13.6053,13.1404,28.4124,0.3710,171,0,0,0.002823,-0.004315,-0.368156,-0.018639,-0.008521,0.027148,-0.3063,0.2481,1.1602
16368,11.0,0.001155,-0.003829,-0.368547,0.000198,0.002463,0.019509,-0.0619,-1.3291,0.0000,-0.00188737,-0.00127555,0.00000000,-0.00774166,0.02884787,0.03981266,-0.2628,0.3971,-9.7625,0.005035,0.030814,-0.035547,3.0541,-13.6053,13.1404,28.4124,0.3710,163,0,0,0.002587,-0.004282,-0.369659,-0.022428,-0.002655,0.007045,-0.2773,0.2741,1.1023
16379,11.0,0.001095,-0.003881,-0.369737,-0.001430,0.003824,0.003735,-0.0798,-1.3175,0.0000,-0.00182775,-0.00130720,0.00000000,-0.00761189,0.02881652,0.04571694,-0.3244,0.2577,-9.7178,-0.019708,0.011095,0.029152,3.0541,-13.6053,13.1404,28.4124,0.3710,168,0,0,0.002418,-0.004287,-0.369448,-0.024848,0.000462,0.008910,-0.2724,0.2952,1.0915
16389,10.0,0.000411,-0.003954,-0.369591,-0.009348,0.003564,0.005802,-0.1041,-1.2826,0.0000,-0.00175976,-0.00169535,0.00000000,-0.00735258,0.02885825,0.04526724,-0.2782,0.1465,-9.6787,-0.031237,-0.014395,0.068992,3.0541,-13.6053,13.1404,28.4124,0.3690,165,-1,0,0.002343,-0.004319,-0.369356,-0.026444,0.002186,0.009589,-0.2814,0.3060,1.0910
16400,11.0,0.000732,-0.003905,-0.369531,-0.004710,0.002122,0.005165,-0.0891,-1.3374,0.0000,-0.00178110,-0.00144656,0.00000000,-0.00750395,0.02899203,0.04526588,-0.2381,-0.1052,-9.8203,0.017065,-0.045359,0.014440,3.0541,-13.6053,13.1404,28.4124,0.3690,166,0,0,0.001993,-0.004385,-0.368871,-0.030110,0.001063,0.014004,-0.3077,0.2905,1.1811
16411,11.0,0.000900,-0.003779,-0.370166,-0.002282,0.001881,-0.004861,-0.0475,-1.3692,0.0000,-0.00184504,-0.00131773,0.00000000,-0.00754673,0.02893608,0.04810641,-0.2441,-0.0908,-9.9524,0.053157,-0.030054,-0.036380,3.0541,-13.6053,13.1404,28.4124,0.3710,165,0,0,0.002196,-0.004352,-0.368732,-0.027434,-0.000478,0.013893,-0.2990,0.2593,1.2012
16422,11.0,0.000455,-0.003676,-0.370229,-0.005932,0.002694,-0.006639,-0.0139,-1.3063,0.0000,-0.00188763,-0.00158684,0.00000000,-0.00764425,0.02882963,0.04811413,-0.1406,0.0286,-9.9232,0.044865,0.049760,-0.078328,3.0541,-13.6053,13.1404,28.4124,0.3710,164,0,0,0.002289,-0.004192,-0.369823,-0.025085,-0.001969,-0.002325,-0.2380,0.2327,1.1795
16433,11.0,-0.000593,-0.004391,-0.370166,-0.015920,-0.003852,-0.005294,-0.0250,-1.1633,0.0000,-0.00144463,-0.00216827,0.00000000,-0.00728379,0.02911700,0.04753089,-0.1322,0.2049,-9.7890,0.057103,0.125023,-0.103053,3.0541,-13.6053,13.1404,28.4124,0.3710,165,0,-1,0.001937,-0.004133,-0.369723,-0.027795,-0.001406,-0.001909,-0.2098,0.2737,1.1464
16444,11.0,-0.002013,-0.004264,-0.370605,-0.029958,0.001539,-0.007226,0.0251,-0.9753,0.0000,-0.00151714,-0.00289842,0.00000000,-0.00675408,0.02885965,0.04916456,-0.2104,0.3740,-9.5167,0.066524,0.170518,-0.094777,3.0541,-13.6053,13.1404,28.4124,0.3710,166,0,0,0.000402,-0.004548,-0.369751,-0.041356,-0.001260,-0.000027,-0.1434,0.4580,1.0648
16455,11.0,-0.002146,-0.005128,-0.370565,-0.028560,-0.004661,-0.000687,-0.0368,-0.9094,0.0000,-0.00099053,-0.00277980,0.00000000,-0.00684653,0.02926497,0.04878297,-0.2438,0.3796,-9.2614,-0.008908,0.121826,-0.031059,1.7885,-13.9916,12.7742,28.4705,0.3680,173,1,-1,-0.000500,-0.004498,-0.368550,-0.049152,0.002341,0.016157,-0.1092,0.5676,1.0399
16466,11.0,-0.002408,-0.005284,-0.370535,-0.028414,-0.002953,0.006157,-0.0832,-0.8866,0.0000,-0.00091981,-0.00274786,0.00000000,-0.00687270,0.02932509,0.04878296,-0.1951,0.3142,-9.1369,-0.062460,0.038857,-0.000826,1.7885,-13.9916,12.7742,28.4705,0.3680,173,0,0,-0.000590,-0.005060,-0.368363,-0.047950,-0.000876,0.021447,-0.1228,0.6363,1.0266
16477,11.0,-0.000717,-0.005368,-0.369015,-0.007184,-0.000980,0.027300,-0.1057,-1.0807,0.0000,-0.00089341,-0.00157592,0.00000000,-0.00795477,0.02951663,0.04295842,-0.2692,0.2892,-9.3461,-0.031303,-0.110899,0.009481,1.7885,-13.9916,12.7742,28.4705,0.3680,166,1,0,-0.000199,-0.005218,-0.367671,-0.039866,0.002405,0.034936,-0.1881,0.6425,0.8668
