timestamp_ms,dt_ms,pos_x,pos_y,pos_z,vel_x,vel_y,vel_z,roll_deg,pitch_deg,yaw_deg,gyro_bias_x,gyro_bias_y,gyro_bias_z,accel_bias_x,accel_bias_y,accel_bias_z,raw_accel_x,raw_accel_y,raw_accel_z,raw_gyro_x,raw_gyro_y,raw_gyro_z,raw_baro_alt,raw_tof,raw_flow_squal,raw_flow_dx,raw_flow_dy,dev_pos_x,dev_pos_y,dev_pos_z,dev_vel_x,dev_vel_y,dev_vel_z,dev_roll_deg,dev_pitch_deg,dev_yaw_deg
12107,10.0,-0.000471,0.000181,-0.295908,-0.042358,0.014746,0.003899,-0.0693,-0.0474,-0.0262,0.00000000,0.00000000,0.01801334,-0.00057611,-0.00174651,0.00000000,0.9605,-0.6827,-9.3459,-0.128955,-0.102059,-0.027112,19.1221,0.2960,128,-3,1,-0.000230,-0.000878,-0.293985,0.009100,-0.014049,0.009298,1.2101,5.1272,-0.0547
12118,11.0,-0.000202,0.000405,-0.295852,-0.006095,0.017486,0.006031,1.2102,2.9463,-0.0139,-0.00000465,-0.00001161,0.01801332,-0.00092937,-0.00180618,0.00000021,1.0838,-0.4301,-9.4887,-0.014084,-0.110384,-0.028245,19.1221,0.2960,127,0,1,-0.000383,-0.000810,-0.293628,0.007246,-0.016412,0.017914,1.1685,5.0681,-0.0423
12129,11.0,0.000007,0.000660,-0.292975,0.007912,0.017911,0.130605,1.2205,2.8046,-0.0441,-0.00000471,-0.00001144,0.01801329,-0.00119201,-0.00188689,-0.00008400,1.0301,-0.3936,-9.6623,-0.014864,-0.105087,-0.042456,19.1221,0.2960,127,0,1,-0.000151,-0.000653,-0.293440,0.010590,-0.011979,0.020214,1.3374,5.0307,0.0121
12140,11.0,0.000304,0.000865,-0.294237,0.013680,0.018159,0.050241,1.2862,3.7620,-0.0613,-0.00000591,-0.00002335,0.01801326,-0.00146157,-0.00190456,-0.00002633,1.0256,-0.2562,-9.7108,-0.070400,-0.098411,-0.051841,19.1221,0.2950,127,0,1,0.000057,-0.000467,-0.293233,0.014030,-0.008587,0.021446,1.4122,4.9215,0.0654
12152,12.0,0.000507,0.000841,-0.293456,0.017635,0.014264,0.055242,1.1298,3.7043,-0.1382,-0.00000532,-0.00002331,0.01801343,-0.00149386,-0.00137816,-0.00010156,0.9384,-0.0774,-9.7389,-0.074093,-0.075257,-0.048734,19.1221,0.2950,124,0,0,0.000503,-0.000370,-0.293334,0.018231,-0.004023,0.016868,1.3801,4.8105,0.0584
12163,11.0,0.000683,0.000823,-0.292847,0.017506,0.010947,0.055951,0.8993,4.1906,-0.1855,-0.00000200,-0.00003516,0.01801361,-0.00144119,-0.00093363,-0.00010614,0.9805,-0.0981,-9.6847,-0.056862,-0.049253,-0.030940,19.1221,0.2950,121,0,0,0.000702,-0.000412,-0.293071,0.019007,-0.003273,0.018066,1.2661,4.7852,0.0479
12174,11.0,0.000549,0.000571,-0.294625,0.014185,0.004261,0.013735,0.7114,4.3217,-0.2789,-0.00000026,-0.00003669,0.01801421,-0.00050131,0.00019639,0.00129631,0.9909,-0.1256,-9.6458,-0.039592,-0.039844,-0.017197,19.1221,0.2960,121,-1,-1,0.000774,-0.000682,-0.294065,0.016457,-0.004634,0.004418,1.0734,4.8223,-0.0435
12185,11.0,0.000695,0.000557,-0.294469,0.014248,0.003239,0.014895,0.6303,4.5641,-0.3095,0.00000134,-0.00004720,0.01801432,-0.00051052,0.00039573,0.00129277,0.9684,-0.0875,-9.6495,-0.033646,-0.044367,-0.018313,19.1221,0.2960,125,0,0,0.000676,-0.000912,-0.293946,0.014181,-0.006759,0.006176,0.9820,4.8414,-0.1181
12196,11.0,0.000545,0.000310,-0.294142,0.010403,-0.001198,0.018325,0.4852,4.6780,-0.3954,0.00000350,-0.00004958,0.01801504,0.00066157,0.00144087,0.00109329,0.9116,-0.0630,-9.6707,-0.029075,-0.029410,-0.014930,19.1221,0.2960,122,-1,-1,0.000792,-0.000937,-0.293880,0.014598,-0.005785,0.007105,0.9256,4.8444,-0.2466
12207,11.0,0.000346,0.000318,-0.293957,0.005441,-0.000783,0.018182,0.4208,4.9147,-0.4097,0.00000766,-0.00005902,0.01801503,0.00185155,0.00132732,0.00120960,0.9275,-0.0060,-9.7524,-0.000280,-0.002798,-0.008476,19.1221,0.2950,121,-1,0,0.000535,-0.001185,-0.293778,0.008357,-0.006147,0.007894,0.8051,4.8991,-0.3034
12218,11.0,0.000305,0.000328,-0.293675,0.004316,0.001527,0.018686,0.4447,4.9674,-0.4148,0.00000759,-0.00006022,0.01801501,0.00231151,0.00129469,0.00098834,0.8981,0.1284,-9.8280,0.034145,0.016940,0.008251,19.1221,0.2950,127,0,0,0.000548,-0.001198,-0.293700,0.008155,-0.004085,0.007840,0.7906,4.8927,-0.3106
12229,11.0,0.000213,0.000154,-0.293480,0.001988,-0.001061,0.016819,0.1534,5.0476,-0.4431,0.00003086,-0.00006198,0.01801559,0.00292683,0.00189319,0.00103077,0.8572,0.2328,-9.9391,0.031791,0.041561,0.019667,19.1776,0.2950,124,0,-1,0.000486,-0.001181,-0.293460,0.005817,0.001526,0.007114,0.7447,4.9299,-0.2631
12241,12.0,0.000132,0.000138,-0.293596,-0.000456,0.001828,0.011477,0.1425,5.1179,-0.4380,0.00003127,-0.00006359,0.01801563,0.00329766,0.00201412,0.00229418,0.8088,0.2458,-9.9143,-0.002951,0.042566,0.030901,19.1776,0.2950,125,0,0,0.000409,-0.001361,-0.293648,0.003820,0.001145,0.002523,0.6305,4.9588,-0.2269
12252,11.0,0.000065,0.000138,-0.293473,-0.001772,0.002105,0.010787,-0.0475,5.0823,-0.4194,0.00005160,-0.00005469,0.01801552,0.00375976,0.00179875,0.00233581,0.7547,0.2299,-9.8407,-0.040041,0.033018,0.026215,19.1776,0.2950,123,0,0,0.000338,-0.001374,-0.293631,0.001779,0.004237,0.000954,0.6001,4.9808,-0.2214
12263,11.0,0.000063,-0.000125,-0.293279,-0.002180,-0.001600,0.012191,-0.1982,5.0791,-0.4870,0.00005783,-0.00005419,0.01801696,0.00367617,0.00321416,0.00187778,0.7979,0.0962,-9.7255,-0.066583,0.009608,0.021130,19.1776,0.2950,120,0,-1,0.000252,-0.001412,-0.293732,-0.001057,0.007287,-0.001781,0.4202,4.9724,-0.1786
12274,11.0,0.000074,-0.000177,-0.293555,-0.001798,-0.002266,0.008873,-0.2335,5.0333,-0.5017,0.00005397,-0.00004687,0.01801726,0.00340762,0.00349369,0.00454681,0.7981,-0.0096,-9.6355,-0.077753,0.002043,0.019956,19.1776,0.2950,118,0,0,0.000252,-0.001641,-0.293749,-0.001240,0.004356,-0.001498,0.2858,4.9472,-0.1964
12285,11.0,0.000067,-0.000221,-0.293397,-0.002016,-0.003780,0.011288,-0.2839,5.0363,-0.4881,0.00005424,-0.00004645,0.01801732,0.00335755,0.00354674,0.00414824,0.8081,-0.0798,-9.6091,-0.076663,0.013423,0.043840,19.1776,0.2950,120,0,0,0.000271,-0.001679,-0.293699,-0.001182,0.003955,0.000163,0.2071,4.9232,-0.2091
12296,11.0,0.000027,-0.000272,-0.293257,-0.002152,-0.004761,0.013938,-0.2131,5.0505,-0.4886,0.00003082,-0.00004538,0.01801771,0.00349093,0.00407076,0.00415697,0.8482,-0.1770,-9.5296,-0.052636,0.024530,0.061118,19.1776,0.2960,126,0,0,0.000251,-0.001749,-0.293666,-0.001229,0.001253,0.003505,0.0704,4.8941,-0.0965
12307,11.0,-0.000008,-0.000283,-0.294036,-0.002440,-0.007282,0.005769,-0.2151,5.0686,-0.4514,0.00002903,-0.00004530,0.01801738,0.00287691,0.00379436,0.01214204,0.8375,-0.2679,-9.5018,-0.030034,0.019797,0.060374,19.1776,0.2960,123,0,0,0.000216,-0.001776,-0.294415,-0.001326,-0.000354,-0.003144,0.0366,4.8926,-0.1047
12318,11.0,-0.000046,-0.000312,-0.293961,-0.002378,-0.007770,0.007836,-0.0898,5.0919,-0.4459,-0.00000484,-0.00004820,0.01801752,0.00289222,0.00420437,0.01214419,0.8901,-0.2448,-9.5693,-0.004219,0.017563,0.062991,19.1776,0.2960,126,0,0,0.000148,-0.001800,-0.294362,-0.001561,-0.004443,0.002127,0.0080,4.8832,-0.0981
12329,11.0,-0.000089,-0.000311,-0.293805,-0.001608,-0.008611,0.009434,-0.0531,5.1080,-0.3900,-0.00000876,-0.00004916,0.01801672,0.00306701,0.00370079,0.01152109,0.9688,-0.1937,-9.6775,0.008627,0.015541,0.068524,19.1776,0.2960,127,0,0,0.000114,-0.001593,-0.294332,-0.000984,-0.003128,0.003627,0.0200,4.8752,-0.0402
12340,11.0,-0.000125,-0.000335,-0.294310,-0.001205,-0.008691,0.002214,0.0432,5.1767,-0.3799,-0.00003970,-0.00006796,0.01801658,0.00225886,0.00394706,0.01738201,1.0206,-0.2120,-9.7434,-0.000243,0.019561,0.055243,19.1776,0.2960,124,0,0,0.000030,-0.001588,-0.294635,0.000772,-0.005339,0.000275,0.0244,4.8851,-0.0030
12351,11.0,-0.000134,-0.000352,-0.294236,0.000121,-0.009925,0.002887,0.0559,5.1803,-0.3480,-0.00004409,-0.00006818,0.01801565,0.00232681,0.00347951,0.01687325,1.0133,-0.2423,-9.7349,-0.019886,0.003920,0.030151,19.1776,0.2960,126,0,0,-0.000000,-0.001597,-0.294634,0.001593,-0.006328,0.000001,0.0343,4.9040,-0.0097
12362,11.0,-0.000103,-0.000408,-0.294198,0.000774,-0.010649,0.004057,0.1232,5.1790,-0.3807,-0.00008522,-0.00007117,0.01801577,0.00208052,0.00404450,0.01685309,0.9169,-0.2852,-9.6410,-0.048918,-0.007417,0.008475,19.1776,0.2970,126,0,0,-0.000004,-0.001608,-0.294550,0.002864,-0.007824,0.000987,0.0067,4.8890,0.0030
12373,11.0,-0.000046,-0.000449,-0.295010,0.001277,-0.012728,-0.003932,0.1103,5.1575,-0.3513,-0.00009143,-0.00006850,0.01801443,0.00105297,0.00360825,0.02569574,0.8505,-0.3364,-9.5327,-0.060102,-0.018139,0.018178,19.1433,0.2970,127,0,0,0.000068,-0.001668,-0.295445,0.004189,-0.011441,-0.006047,-0.0480,4.8513,-0.0292
12384,11.0,-0.000020,-0.000493,-0.295047,0.001814,-0.012430,-0.002646,0.1659,5.1639,-0.3359,-0.00012425,-0.00007499,0.01801386,0.00083731,0.00372202,0.02567540,0.9290,-0.2004,-9.6206,-0.028395,-0.007236,0.048969,19.1433,0.2970,127,0,0,0.000120,-0.001710,-0.295418,0.004648,-0.013004,-0.003423,-0.0534,4.8251,-0.0696
12395,11.0,-0.000031,-0.000519,-0.294995,0.003063,-0.011951,-0.001028,0.1834,5.1764,-0.2863,-0.00013152,-0.00007767,0.01801253,0.00112448,0.00315361,0.02487025,1.0455,-0.1343,-9.6691,-0.015716,0.006038,0.053280,19.1433,0.2970,127,0,0,0.000146,-0.001735,-0.295447,0.005369,-0.013768,-0.002361,-0.0838,4.8026,-0.1222
12406,11.0,-0.000022,-0.000572,-0.294872,0.004109,-0.011976,0.000508,0.2140,5.2439,-0.2922,-0.00016580,-0.00011583,0.01801219,0.00056962,0.00339140,0.02343473,1.1141,-0.2099,-9.7283,-0.048681,0.007838,0.025208,19.1433,0.2960,130,0,0,0.000130,-0.001782,-0.295091,0.007560,-0.013886,0.002701,-0.1084,4.8084,-0.0814
12417,11.0,-0.000022,-0.000404,-0.294807,0.005216,-0.009712,0.001258,0.2330,5.2611,-0.2174,-0.00018800,-0.00011993,0.01800785,0.00091070,0.00193975,0.02283507,1.0666,-0.2305,-9.7260,-0.068859,0.010107,0.010448,19.1433,0.2960,127,0,1,0.000135,-0.001618,-0.295065,0.008902,-0.011826,0.002590,-0.1047,4.8339,-0.0676
12428,11.0,-0.000045,-0.000457,-0.294789,0.004961,-0.009920,0.002179,0.2400,5.3184,-0.2387,-0.00021788,-0.00014617,0.01800790,0.00086775,0.00222248,0.02282573,1.0202,-0.1847,-9.6480,-0.057637,0.024587,0.010513,19.1433,0.2960,131,0,0,0.000137,-0.001454,-0.294956,0.010168,-0.010523,0.003447,-0.1400,4.8287,-0.0350
12439,11.0,-0.000084,-0.000479,-0.295242,0.004397,-0.009448,-0.002465,0.2495,5.3513,-0.2261,-0.00022607,-0.00015458,0.01800663,0.00089953,0.00184840,0.02763753,0.9740,-0.1151,-9.6362,-0.013859,0.023731,0.005399,19.1433,0.2970,131,0,0,0.000085,-0.001526,-0.295472,0.010462,-0.012122,-0.001584,-0.2017,4.8629,-0.0574
12450,11.0,0.000138,-0.000503,-0.295264,0.007065,-0.008410,-0.001616,0.2575,5.3335,-0.2150,-0.00023470,-0.00014620,0.01800481,-0.00004317,0.00153506,0.02755246,0.9475,-0.0519,-9.6588,-0.011919,0.005356,-0.010831,19.1433,0.2970,124,1,0,0.000055,-0.001546,-0.295484,0.009977,-0.012007,-0.000754,-0.2068,4.8828,-0.0736
12461,11.0,0.000410,-0.000533,-0.295176,0.009608,-0.007760,0.000842,0.2504,5.2932,-0.2152,-0.00024035,-0.00012871,0.01800322,-0.00085006,0.00124779,0.02648796,0.8911,-0.0640,-9.6284,-0.025830,-0.014823,-0.022686,19.0878,0.2960,124,1,0,0.000253,-0.001561,-0.295489,0.012325,-0.011697,-0.000073,-0.2250,4.8623,-0.0713
12472,11.0,0.000516,-0.000574,-0.294931,0.009622,-0.007300,0.005011,0.2275,5.2671,-0.2418,-0.00024829,-0.00012600,0.01800269,-0.00059065,0.00111871,0.02432673,0.8882,-0.0593,-9.6092,-0.048427,-0.037148,-0.031764,19.0878,0.2960,125,0,0,0.000786,-0.001618,-0.295074,0.016871,-0.011238,0.006165,-0.2841,4.7909,-0.1068
12483,11.0,0.000852,-0.000612,-0.294793,0.012553,-0.007353,0.007436,0.2047,5.2073,-0.2474,-0.00025286,-0.00010314,0.01800132,-0.00156958,0.00091721,0.02350157,0.8715,-0.1003,-9.6101,-0.045021,-0.041066,-0.023152,19.0878,0.2960,127,1,0,0.000890,-0.001657,-0.294914,0.016714,-0.011140,0.008568,-0.3189,4.7623,-0.1419
12494,11.0,0.000957,-0.000434,-0.294701,0.011955,-0.004758,0.009265,0.2289,5.1844,-0.2349,-0.00030420,-0.00009855,0.01799768,-0.00123920,0.00029153,0.02352060,0.8471,-0.1527,-9.5813,-0.054614,-0.032766,-0.013142,19.0878,0.2970,125,0,1,0.001322,-0.001518,-0.294718,0.018860,-0.009410,0.011166,-0.3795,4.6768,-0.3182
12505,11.0,0.000803,-0.000470,-0.295193,0.007655,-0.006750,0.004372,0.1924,5.2152,-0.2534,-0.00030796,-0.00012949,0.01799792,-0.00051078,0.00021422,0.02916527,0.8172,-0.2567,-9.5418,-0.064390,-0.013685,-0.003653,19.0878,0.2970,124,-1,0,0.001421,-0.001344,-0.295439,0.018336,-0.008185,0.003546,-0.4136,4.6471,-0.3052
12516,11.0,0.000630,-0.000278,-0.295132,0.003661,-0.005041,0.006680,0.2440,5.2215,-0.2712,-0.00038882,-0.00013443,0.01799585,0.00109580,0.00002551,0.02928922,0.7823,-0.2680,-9.5373,-0.036174,-0.013688,0.004925,19.1089,0.2970,129,-1,1,0.001281,-0.001383,-0.295395,0.014731,-0.010157,0.005473,-0.4397,4.6424,-0.3608
12527,11.0,0.000675,-0.000265,-0.294960,0.002282,-0.005598,0.009396,0.2705,5.2075,-0.2564,-0.00039767,-0.00013289,0.01799448,0.00112094,-0.00029773,0.02845318,0.7403,-0.1842,-9.6061,0.025447,-0.019724,0.016749,19.1089,0.2950,125,0,0,0.001173,-0.001206,-0.295139,0.010099,-0.011176,0.010430,-0.4578,4.6073,-0.3884
12539,12.0,0.000739,-0.000254,-0.294259,0.001865,-0.005569,0.016929,0.3252,5.1633,-0.2593,-0.00043079,-0.00010497,0.01799391,0.00188087,-0.00025859,0.02336583,0.7846,-0.1573,-9.6956,0.041665,-0.033463,0.028047,19.1089,0.2950,130,0,0,0.001218,-0.001194,-0.294428,0.009050,-0.012063,0.018353,-0.4547,4.5797,-0.3786
12550,11.0,0.000840,-0.000260,-0.294007,0.002556,-0.004543,0.017252,0.3375,5.1237,-0.2383,-0.00043753,-0.00009447,0.01799268,0.00159195,-0.00047473,0.02271325,0.8548,-0.0262,-9.7972,0.007072,-0.047427,0.030550,19.1089,0.2950,130,0,0,0.001348,-0.001173,-0.293970,0.008830,-0.012578,0.019734,-0.4169,4.5048,-0.3778
12561,11.0,0.000723,-0.000291,-0.293817,0.000378,-0.004837,0.017243,0.3236,5.1073,-0.2452,-0.00045697,-0.00010537,0.01799341,0.00234155,-0.00026318,0.02277518,0.8387,-0.1248,-9.7518,-0.043269,-0.043919,0.037320,19.1089,0.2970,128,-1,0,0.001445,-0.001184,-0.293660,0.009524,-0.012000,0.020562,-0.4193,4.4666,-0.3740
12572,11.0,0.000834,-0.000331,-0.294790,0.001292,-0.005049,0.004169,0.2942,5.0678,-0.2244,-0.00046101,-0.00009001,0.01799245,0.00098916,-0.00020843,0.03261254,0.8269,-0.0968,-9.6891,-0.055433,-0.043374,0.034416,19.1089,0.2970,128,0,0,0.001336,-0.001211,-0.295051,0.007829,-0.012390,0.002767,-0.4506,4.4359,-0.3548
12583,11.0,0.000943,-0.000347,-0.294742,0.001711,-0.004753,0.004566,0.2952,5.0138,-0.2136,-0.00047358,-0.00005350,0.01799173,0.00101004,-0.00024828,0.03261499,0.7688,-0.0767,-9.7110,-0.013533,-0.048514,0.032818,19.1089,0.2970,126,0,0,0.001547,-0.001284,-0.294899,0.009378,-0.013224,0.004578,-0.5171,4.3524,-0.3459
12594,11.0,0.001072,-0.000357,-0.294575,0.002150,-0.004807,0.006843,0.2957,4.9656,-0.1901,-0.00048010,-0.00003648,0.01799054,0.00062854,-0.00042548,0.03161443,0.7581,-0.1075,-9.6647,-0.009370,-0.057275,0.038478,19.0508,0.2960,129,0,0,0.001656,-0.001301,-0.294852,0.009715,-0.013297,0.004848,-0.5282,4.3038,-0.5340
12605,11.0,0.001218,-0.000381,-0.294721,0.003306,-0.005218,0.005117,0.2960,4.9073,-0.1930,-0.00051081,-0.00000665,0.01799041,0.00016741,-0.00010693,0.03344738,0.7985,-0.1466,-9.6585,-0.027502,-0.063383,0.034887,19.0508,0.2960,133,0,0,0.001913,-0.001338,-0.294910,0.011017,-0.014016,0.004688,-0.5525,4.1991,-0.5255
12616,11.0,0.001140,-0.000389,-0.294582,0.002027,-0.005556,0.005703,0.2974,4.8762,-0.1797,-0.00051924,-0.00002485,0.01798970,0.00068729,-0.00032179,0.03276294,0.8573,-0.1439,-9.7805,-0.008075,-0.067336,0.032005,19.0508,0.2960,129,-1,0,0.001844,-0.001359,-0.294860,0.009894,-0.014758,0.005315,-0.5800,4.1539,-0.5078
12627,11.0,0.001270,-0.000396,-0.294526,0.003822,-0.005330,0.004508,0.3120,4.8373,-0.1680,-0.00054282,-0.00002783,0.01798856,-0.00008167,-0.00028625,0.03268977,0.9021,-0.1055,-9.8445,0.001601,-0.060966,0.033039,19.0508,0.2960,131,0,0,0.001776,-0.001376,-0.294666,0.009144,-0.015174,0.006618,-0.5788,4.1194,-0.5194
12638,11.0,0.001370,-0.000403,-0.294677,0.005693,-0.004905,0.000975,0.3187,4.8026,-0.1448,-0.00055190,-0.00001913,0.01798720,-0.00040948,-0.00045632,0.03422761,0.9488,-0.0748,-9.8452,-0.000418,-0.047223,0.038732,19.0508,0.2960,131,0,0,0.001905,-0.001385,-0.294605,0.011252,-0.015562,0.005602,-0.5892,4.0619,-0.5006
12649,11.0,0.001425,-0.000419,-0.294675,0.007067,-0.004301,-0.000673,0.3151,4.8141,-0.1058,-0.00055495,-0.00007486,0.01798593,-0.00125787,-0.00063219,0.03414797,1.0108,-0.0411,-9.8757,-0.013406,-0.021150,0.056681,19.0508,0.2960,130,0,0,0.002098,-0.001414,-0.294935,0.015228,-0.015324,-0.001083,-0.5999,3.9971,-0.4730
12660,11.0,0.001444,-0.000431,-0.294555,0.007811,-0.003661,-0.000162,0.3151,4.8164,-0.0765,-0.00056075,-0.00008704,0.01798528,-0.00090747,-0.00075996,0.03308297,0.9733,-0.0342,-9.8300,-0.008680,-0.005790,0.057377,18.9927,0.2960,130,0,0,0.002156,-0.001436,-0.294954,0.016723,-0.015038,-0.002642,-0.6066,3.9977,-0.4542
12671,11.0,0.001444,-0.000441,-0.294769,0.007941,-0.003834,-0.002862,0.3217,4.8438,-0.0641,-0.00058572,-0.00014318,0.01798508,-0.00136454,-0.00056918,0.03469886,0.9620,-0.1186,-9.7489,-0.009165,0.005440,0.046922,18.9927,0.2960,124,0,0,0.002201,-0.001471,-0.295116,0.018234,-0.014754,-0.005356,-0.6270,3.9949,-0.4068
12682,11.0,0.001466,-0.000459,-0.294697,0.008888,-0.004584,-0.001251,0.3084,4.8474,-0.0446,-0.00059133,-0.00015742,0.01798450,-0.00101185,-0.00068092,0.03390002,0.9936,-0.1572,-9.6923,-0.027984,-0.004568,0.042912,18.9927,0.2960,122,0,0,0.002205,-0.001486,-0.295044,0.018760,-0.015263,-0.004115,-0.6451,3.9893,-0.3775
12693,11.0,0.001067,-0.000484,-0.294708,0.004703,-0.005514,-0.000749,0.3038,4.9027,-0.0764,-0.00064039,-0.00031693,0.01798659,-0.00015462,-0.00015825,0.03395106,1.0379,-0.1948,-9.6756,-0.036209,-0.016001,0.019555,18.9927,0.2960,128,-2,0,0.001850,-0.001530,-0.295124,0.015704,-0.017064,-0.003783,-0.6880,4.0039,-0.5539
12704,11.0,0.000703,-0.000505,-0.294749,0.001584,-0.007396,0.000124,0.2810,4.9135,-0.1031,-0.00065084,-0.00040142,0.01798691,0.00137282,-0.00035500,0.03438661,1.0127,-0.2807,-9.6003,-0.040193,-0.037657,-0.017958,18.9927,0.2960,131,-2,0,0.001490,-0.001557,-0.295125,0.012634,-0.018193,-0.002892,-0.6958,4.0281,-0.5807
12715,11.0,0.000811,-0.000537,-0.294739,0.003502,-0.008846,0.001632,0.2809,4.8889,-0.1666,-0.00073542,-0.00041170,0.01798723,0.00061653,0.00049402,0.03430448,0.9252,-0.2801,-9.5931,-0.043535,-0.044570,-0.025575,18.9927,0.2960,131,0,0,0.001155,-0.001581,-0.295148,0.010297,-0.019992,-0.001781,-0.7314,4.0127,-0.5886
12726,11.0,0.000913,-0.000331,-0.294583,0.004779,-0.006586,0.004200,0.2921,4.8569,-0.1301,-0.00079970,-0.00039904,0.01797764,0.00051141,-0.00051380,0.03324672,0.8782,-0.1855,-9.6489,-0.021473,-0.043964,-0.016465,18.9927,0.2950,128,0,1,0.001365,-0.001439,-0.294999,0.014348,-0.020390,0.002474,-0.7584,3.9484,-0.6280
12738,12.0,0.001202,-0.000346,-0.294204,0.008173,-0.006411,0.008161,0.3044,4.8307,-0.1310,-0.00083345,-0.00037138,0.01797506,-0.00040851,-0.00046245,0.03069995,0.8947,-0.1128,-9.7266,0.000832,-0.024048,0.004850,19.0508,0.2950,130,1,0,0.001673,-0.001468,-0.294553,0.018006,-0.020933,0.007792,-0.7580,3.9134,-0.6618
12750,12.0,0.001201,-0.000370,-0.294023,0.008002,-0.005565,0.008400,0.2989,4.8452,-0.1215,-0.00084434,-0.00039438,0.01797401,0.00002805,-0.00063634,0.03005600,0.9223,-0.0331,-9.8055,-0.015016,0.009454,0.023697,19.0508,0.2950,130,0,0,0.002197,-0.001508,-0.294294,0.023511,-0.020731,0.008611,-0.7653,3.8673,-0.6607
12761,11.0,0.001384,-0.000392,-0.293936,0.010280,-0.004904,0.007323,0.2870,4.8714,-0.0985,-0.00084717,-0.00041940,0.01797198,-0.00093851,-0.00081586,0.02997065,0.9676,-0.0315,-9.8312,-0.023036,0.029001,0.027362,19.0508,0.2960,129,1,0,0.002192,-0.001534,-0.294069,0.023205,-0.020148,0.009425,-0.7854,3.8688,-0.6436
12772,11.0,0.001309,-0.000426,-0.294382,0.009307,-0.004056,0.000130,0.2635,4.9136,-0.0966,-0.00085209,-0.00046551,0.01797194,-0.00061043,-0.00083227,0.03380933,0.9623,0.0088,-9.8342,-0.040712,0.044083,0.020242,19.0508,0.2960,127,0,0,0.002328,-0.001601,-0.294775,0.024534,-0.018915,-0.001319,-0.8254,3.9124,-0.6194
12783,11.0,0.000795,-0.000247,-0.294377,0.002307,-0.001481,0.000884,0.2333,4.9839,-0.0721,-0.00090970,-0.00061426,0.01796679,0.00144610,-0.00144771,0.03396809,0.8621,-0.0555,-9.6686,-0.077341,0.041123,0.016020,19.0508,0.2960,127,-2,1,0.002276,-0.001645,-0.294679,0.023283,-0.018314,-0.000774,-0.8566,3.9540,-0.6180
12794,11.0,0.000763,-0.000294,-0.294244,0.001606,-0.002839,0.004286,0.1799,5.0057,-0.0818,-0.00090353,-0.00062735,0.01796780,0.00171339,-0.00138164,0.03315205,0.8346,-0.1368,-9.5534,-0.081987,0.028126,0.010596,19.0508,0.2950,130,0,0,0.001815,-0.001485,-0.294685,0.016976,-0.016113,-0.000247,-0.9037,3.9935,-0.6136
12805,11.0,0.000756,-0.000332,-0.294008,0.002086,-0.004514,0.009117,0.1553,5.0212,-0.1356,-0.00096744,-0.00065448,0.01797022,0.00161616,-0.00059974,0.03188560,0.9175,-0.2076,-9.4775,-0.063933,0.012108,-0.004368,19.0508,0.2950,130,0,0,0.001787,-0.001586,-0.294284,0.015923,-0.018814,0.007077,-0.9995,4.0140,-0.6356
12816,11.0,0.000789,-0.000346,-0.293805,0.003143,-0.006312,0.013371,0.1386,5.0140,-0.1540,-0.00097924,-0.00065325,0.01796859,0.00166255,-0.00075106,0.03125681,0.9262,-0.2421,-9.4403,-0.029274,-0.011817,-0.023710,19.0508,0.2950,132,0,0,0.001799,-0.001623,-0.294199,0.016567,-0.020578,0.009838,-1.0444,4.0075,-0.6381
12827,11.0,0.001091,-0.000126,-0.293641,0.006791,-0.004936,0.016525,0.1478,4.9784,-0.1365,-0.00105454,-0.00058714,0.01795700,0.00080273,-0.00161914,0.03118095,0.8849,-0.2206,-9.4505,-0.015137,-0.030893,-0.042544,19.0508,0.2950,130,1,1,0.001836,-0.001649,-0.293944,0.017509,-0.022316,0.014399,-1.0747,3.9907,-0.6462
12838,11.0,0.001168,-0.000121,-0.293629,0.006523,-0.004859,0.016231,0.1586,4.9578,-0.1642,-0.00107100,-0.00058675,0.01795485,0.00067903,-0.00178957,0.03244350,0.8098,-0.0863,-9.5790,0.014137,-0.033319,-0.041136,19.0508,0.2950,124,0,0,0.002199,-0.001473,-0.293815,0.021284,-0.022268,0.017978,-1.0987,3.9232,-0.6663
12849,11.0,0.001220,-0.000115,-0.293445,0.005631,-0.003775,0.017250,0.1730,4.9371,-0.1673,-0.00107048,-0.00056149,0.01795254,0.00113051,-0.00215183,0.03248615,0.7662,0.0126,-9.6551,0.023990,-0.023191,-0.010899,19.0508,0.2950,130,0,0,0.002277,-0.001482,-0.293629,0.020990,-0.021940,0.019436,-1.0809,3.9038,-0.7107
12860,11.0,0.001270,-0.000114,-0.293145,0.004553,-0.002015,0.018421,0.1871,4.9248,-0.1688,-0.00107938,-0.00056306,0.01795147,0.00122580,-0.00225937,0.03169585,0.7557,0.0914,-9.7647,0.018531,-0.020691,0.008688,19.0508,0.2940,130,0,0,0.002338,-0.001487,-0.293288,0.020441,-0.021080,0.021962,-1.0783,3.8790,-0.7176
12871,11.0,0.001307,-0.000122,-0.292932,0.003937,-0.000245,0.017546,0.1736,4.9133,-0.1334,-0.00101576,-0.00055075,0.01794882,0.00147861,-0.00302593,0.03161446,0.8011,0.1391,-9.8438,0.000292,-0.014193,0.013520,19.0878,0.2940,130,0,0,0.002235,-0.001507,-0.292992,0.016392,-0.017655,0.020155,-1.0702,3.8506,-0.7121
12882,11.0,0.001353,-0.000149,-0.292668,0.003684,0.000588,0.017849,0.1493,4.9048,-0.1373,-0.00100693,-0.00054935,0.01794987,0.00150898,-0.00294027,0.03108910,0.8184,0.0761,-9.7991,-0.036412,-0.013463,0.018379,19.0878,0.2940,133,0,0,0.002278,-0.001527,-0.292698,0.016115,-0.016208,0.020226,-1.0803,3.8419,-0.7072
12893,11.0,0.001394,-0.000179,-0.292470,0.003453,0.000673,0.018254,0.1132,4.8966,-0.1320,-0.00097771,-0.00053845,0.01795052,0.00163697,-0.00303124,0.03110473,0.8111,0.0261,-9.7086,-0.048257,-0.009680,0.018898,19.0878,0.2950,132,0,0,0.002326,-0.001557,-0.292500,0.016179,-0.015527,0.019380,-1.1137,3.8182,-0.8695
12904,11.0,0.001673,-0.000194,-0.293119,0.006449,-0.000578,0.009336,0.0925,4.8724,-0.1400,-0.00097413,-0.00047023,0.01795091,0.00037645,-0.00297125,0.03684037,0.8518,-0.1188,-9.6363,-0.031685,-0.017101,0.012778,19.0878,0.2950,133,1,0,0.002420,-0.001632,-0.293352,0.016670,-0.015937,0.007679,-1.1828,3.7955,-0.8600
12915,11.0,0.001728,-0.000190,-0.293008,0.006202,-0.001491,0.010826,0.1046,4.8580,-0.1707,-0.00102435,-0.00046821,0.01795221,0.00049903,-0.00252380,0.03684425,0.8144,-0.1305,-9.6033,0.002871,-0.022242,0.007360,19.0878,0.2950,129,0,0,0.002687,-0.001663,-0.293271,0.019573,-0.017097,0.008599,-1.1918,3.7788,-0.8867
12926,11.0,0.001753,-0.000173,-0.292793,0.006313,-0.001319,0.011936,0.1262,4.8523,-0.1683,-0.00103456,-0.00048205,0.01795105,0.00070300,-0.00262056,0.03619047,0.8904,-0.0412,-9.7383,0.030110,-0.013706,0.014398,19.0878,0.2940,125,0,0,0.002792,-0.001676,-0.292939,0.019756,-0.018910,0.012106,-1.1861,3.7513,-0.9036
12937,11.0,0.001745,-0.000152,-0.292819,0.006112,-0.000357,0.008705,0.1491,4.8656,-0.1435,-0.00101888,-0.00054249,0.01794874,0.00044512,-0.00296184,0.03716227,0.9182,0.0360,-9.8664,0.039478,0.001121,0.023341,19.0297,0.2940,129,0,0,0.002820,-0.001670,-0.293141,0.020060,-0.018792,0.008428,-1.1767,3.7361,-0.8907
12948,11.0,0.001728,-0.000159,-0.292642,0.005820,-0.000007,0.008112,0.1449,4.8778,-0.1414,-0.00101727,-0.00056936,0.01794890,0.00076548,-0.00294387,0.03656570,0.9100,0.0083,-9.8855,-0.007442,0.011087,0.019770,19.0297,0.2940,132,0,0,0.002605,-0.001666,-0.292886,0.017756,-0.017486,0.006665,-1.1533,3.7570,-0.8677
12959,11.0,0.001732,-0.000179,-0.292561,0.005416,-0.000239,0.006571,0.1241,4.8895,-0.1483,-0.00101441,-0.00060752,0.01794966,0.00073346,-0.00284889,0.03656023,0.8800,-0.0292,-9.8747,-0.032690,0.006462,0.009875,19.0297,0.2940,132,0,0,0.002605,-0.001666,-0.292886,0.017756,-0.017486,0.006665,-1.1533,3.7570,-0.8677
12970,11.0,0.002006,-0.000211,-0.292661,0.007031,-0.001661,0.005147,0.0848,4.8728,-0.1648,-0.00100727,-0.00053782,0.01795040,-0.00003098,-0.00279747,0.03764920,0.7502,-0.1289,-9.6869,-0.059543,-0.008218,0.000909,19.0297,0.2940,140,1,0,0.002626,-0.001727,-0.292997,0.017608,-0.018426,0.002097,-1.2008,3.7655,-0.8737
12981,11.0,0.002283,-0.000220,-0.292598,0.008909,-0.002824,0.006203,0.0852,4.8479,-0.2147,-0.00107236,-0.00045175,0.01795201,-0.00040569,-0.00225106,0.03761476,0.7807,-0.1537,-9.6448,-0.016501,-0.015875,-0.010306,19.0297,0.2940,140,1,0,0.003132,-0.001809,-0.292806,0.021409,-0.020831,0.004767,-1.2591,3.7287,-0.9114
12992,11.0,0.002300,-0.000216,-0.292405,0.008009,-0.004258,0.008928,0.0870,4.8512,-0.2178,-0.00108699,-0.00047832,0.01795053,-0.00009229,-0.00237155,0.03685164,0.8225,-0.1945,-9.6191,-0.001321,-0.002177,0.004828,19.0297,0.2940,128,0,0,0.003394,-0.001830,-0.292754,0.023201,-0.021795,0.005776,-1.2543,3.7077,-1.0943
13003,11.0,0.002296,-0.000215,-0.292653,0.007623,-0.005229,0.005779,0.1046,4.8649,-0.2506,-0.00117645,-0.00053681,0.01795144,-0.00030951,-0.00182165,0.03908121,0.8928,-0.1794,-9.6434,0.002718,0.005202,0.010576,19.0297,0.2940,128,0,0,0.003418,-0.001839,-0.293009,0.022541,-0.023069,0.003456,-1.2630,3.6998,-1.0909
13014,11.0,0.002276,-0.000208,-0.292506,0.006984,-0.004868,0.006639,0.1199,4.8772,-0.2576,-0.00119826,-0.00057254,0.01794924,0.00005837,-0.00199635,0.03855068,0.8856,-0.0556,-9.7460,0.019139,0.010151,-0.004738,19.0508,0.2940,124,0,0,0.003421,-0.001856,-0.292925,0.021726,-0.024247,0.004823,-1.2419,3.7126,-1.1148
13026,12.0,0.002038,-0.000213,-0.292427,0.003219,-0.003838,0.006447,0.1256,4.8997,-0.2629,-0.00119769,-0.00067625,0.01794735,0.00106905,-0.00229219,0.03863265,0.8252,0.0180,-9.7528,0.009901,0.009488,-0.011210,19.0508,0.2940,125,-1,0,0.003415,-0.001863,-0.293053,0.021222,-0.023705,0.002685,-1.2193,3.7291,-1.1373
13037,11.0,0.001801,-0.000231,-0.292604,-0.000094,-0.003459,0.003795,0.1119,4.9196,-0.2766,-0.00120601,-0.00076940,0.01794693,0.00173867,-0.00234371,0.04024907,0.8164,-0.0141,-9.7143,-0.022669,0.008951,-0.010142,19.0508,0.2940,126,-1,0,0.003198,-0.001868,-0.293027,0.018093,-0.022802,0.002485,-1.2184,3.7379,-1.1401
13048,11.0,0.001818,-0.000267,-0.292552,-0.000992,-0.004419,0.005526,0.0831,4.9094,-0.3186,-0.00125923,-0.00070253,0.01794894,0.00229629,-0.00189633,0.04029551,0.7108,-0.1263,-9.5867,-0.058512,0.002136,-0.005634,19.0508,0.2940,127,0,0,0.003002,-0.001927,-0.292858,0.014503,-0.022494,0.004383,-1.2567,3.7512,-1.1650
13059,11.0,0.001838,-0.000283,-0.292371,-0.001912,-0.005037,0.008683,0.0705,4.9056,-0.3259,-0.00127276,-0.00068924,0.01794735,0.00224561,-0.00200158,0.03958071,0.7059,-0.1134,-9.5790,-0.023141,-0.003788,0.000376,19.0508,0.2940,127,0,0,0.003027,-0.001973,-0.292641,0.013750,-0.023216,0.007684,-1.2761,3.7469,-1.2008
13070,11.0,0.002038,-0.000051,-0.292626,0.000602,-0.002474,0.005664,0.0994,4.9018,-0.3174,-0.00140983,-0.00060826,0.01793674,0.00146298,-0.00244947,0.04171807,0.8323,-0.0881,-9.6291,0.011986,0.011376,0.011606,19.0508,0.2940,130,1,1,0.003489,-0.001818,-0.292982,0.017499,-0.021976,0.005521,-1.2769,3.7144,-1.2259
13082,12.0,0.001964,-0.000056,-0.292451,0.000117,-0.003739,0.007537,0.0948,4.9311,-0.3153,-0.00142181,-0.00063864,0.01793573,0.00176309,-0.00254109,0.04108293,0.8754,-0.1572,-9.6772,-0.010496,0.035935,0.016636,18.9927,0.2940,125,0,0,0.003682,-0.001618,-0.292781,0.019645,-0.020042,0.008018,-1.2688,3.7080,-1.2133
13093,11.0,0.001909,-0.000067,-0.292358,-0.000786,-0.004768,0.009410,0.0952,4.9485,-0.3539,-0.00150463,-0.00063719,0.01793745,0.00213204,-0.00202012,0.04110729,0.8007,-0.1640,-9.5652,-0.019687,0.028720,0.003691,18.9927,0.2940,131,0,0,0.003584,-0.001646,-0.293028,0.018122,-0.022294,0.005036,-1.2728,3.7538,-1.2535
13104,11.0,0.001913,-0.000062,-0.292529,-0.001380,-0.005657,0.008703,0.1042,4.9473,-0.3083,-0.00152998,-0.00063084,0.01792247,0.00197127,-0.00196432,0.04284323,0.7570,-0.1700,-9.4965,0.006360,-0.001602,-0.021517,18.9927,0.2940,131,0,0,0.003556,-0.001664,-0.292860,0.016952,-0.023211,0.008232,-1.2619,3.7704,-1.2901
13115,11.0,0.001944,-0.000047,-0.292425,-0.001362,-0.005959,0.010342,0.1331,4.9289,-0.3520,-0.00161775,-0.00058388,0.01792108,0.00212645,-0.00167026,0.04285125,0.7819,-0.1428,-9.5864,0.027453,-0.018271,-0.024053,18.9927,0.2940,125,0,0,0.003568,-0.001671,-0.292766,0.016308,-0.024182,0.010595,-1.2660,3.7622,-1.3033
13126,11.0,0.001982,-0.000042,-0.292176,-0.001099,-0.005740,0.012412,0.1464,4.9141,-0.3648,-0.00164479,-0.00056367,0.01791795,0.00203975,-0.00186440,0.04202388,0.8094,-0.0804,-9.6903,0.016281,-0.020135,-0.012954,18.9927,0.2940,132,0,0,0.003649,-0.001674,-0.292920,0.016451,-0.024621,0.008756,-1.2241,3.7315,-1.3603
13137,11.0,0.002021,-0.000042,-0.292525,-0.001004,-0.005239,0.007012,0.1574,4.8956,-0.3810,-0.00168176,-0.00051954,0.01791544,0.00189061,-0.00191670,0.04491892,0.7890,-0.0493,-9.7096,0.009996,-0.019625,-0.008721,18.9927,0.2940,126,0,0,0.003694,-0.001683,-0.292831,0.016470,-0.024366,0.009059,-1.2013,3.7223,-1.3921
13148,11.0,0.001584,-0.000039,-0.292346,-0.006202,-0.005304,0.008408,0.1633,4.9084,-0.3982,-0.00170537,-0.00068040,0.01791511,0.00313291,-0.00209594,0.04439867,0.7977,-0.1017,-9.7169,0.005415,-0.011621,-0.010865,18.9927,0.2940,131,-2,0,0.003740,-0.001694,-0.292606,0.016529,-0.024088,0.010768,-1.2018,3.7022,-1.3987
13159,11.0,0.001597,-0.000038,-0.292257,-0.005620,-0.004878,0.007861,0.1746,4.8966,-0.4151,-0.00174158,-0.00063699,0.01791279,0.00302122,-0.00213952,0.04438814,0.8135,-0.0557,-9.7818,0.010879,-0.010311,-0.008757,19.0508,0.2930,126,0,0,0.003391,-0.001706,-0.292281,0.011914,-0.024098,0.012171,-1.1864,3.6955,-1.4359
13170,11.0,0.001573,-0.000026,-0.291976,-0.005452,-0.003840,0.009098,0.1977,4.8978,-0.4166,-0.00176543,-0.00062185,0.01791015,0.00300807,-0.00230655,0.04320659,0.8236,-0.0028,-9.8325,0.030930,0.003928,0.007470,19.0508,0.2930,127,0,0,0.003413,-0.001716,-0.292163,0.012304,-0.023547,0.011655,-1.1671,3.6929,-1.4606
13181,11.0,0.001527,-0.000021,-0.291882,-0.005159,-0.003209,0.007951,0.2114,4.9096,-0.4119,-0.00177960,-0.00062948,0.01790793,0.00285226,-0.00246041,0.04319232,0.8650,-0.0268,-9.8335,0.017400,0.015872,0.015496,19.0508,0.2930,127,0,0,0.003410,-0.001716,-0.292050,0.012559,-0.022793,0.010827,-1.1555,3.6849,-1.4602
13192,11.0,0.001713,-0.000037,-0.291684,-0.001635,-0.003564,0.009343,0.1987,4.9114,-0.4169,-0.00178841,-0.00053515,0.01790612,0.00225215,-0.00252013,0.04248605,0.9197,-0.0926,-9.7175,-0.022714,0.019326,0.006189,19.0508,0.2950,132,1,0,0.003558,-0.001740,-0.291701,0.015592,-0.021954,0.010506,-1.1381,3.6974,-1.4212
13203,11.0,0.001695,-0.000052,-0.292854,-0.001255,-0.004488,-0.004576,0.1943,4.9202,-0.4591,-0.00187095,-0.00055105,0.01790657,0.00149948,-0.00200837,0.04980864,0.8737,-0.1635,-9.6333,-0.023595,0.010042,-0.016873,19.0508,0.2950,130,0,0,0.003743,-0.001770,-0.293289,0.018328,-0.022160,-0.007459,-1.1351,3.7146,-1.4385
13214,11.0,0.001715,-0.000059,-0.292808,-0.000923,-0.005035,-0.001429,0.1972,4.9139,-0.3213,-0.00189193,-0.00053691,0.01786928,0.00152254,-0.00152346,0.04930180,0.8224,-0.1404,-9.5314,-0.008194,-0.008710,-0.029925,19.0508,0.2950,133,0,0,0.003744,-0.001818,-0.293422,0.018311,-0.023717,-0.005387,-1.1497,3.7266,-1.4896
13225,11.0,0.001751,-0.000055,-0.292815,-0.000495,-0.005438,0.000251,0.2127,4.8989,-0.3630,-0.00197416,-0.00050834,0.01786797,0.00148184,-0.00121923,0.04929302,0.8189,-0.1461,-9.5728,0.009287,-0.018806,-0.026443,19.0508,0.2930,126,0,0,0.003776,-0.001834,-0.292764,0.018373,-0.024347,0.004210,-1.1598,3.7135,-1.5079
13236,11.0,0.001782,-0.000045,-0.292264,-0.000717,-0.004966,0.007549,0.2323,4.8871,-0.3758,-0.00200191,-0.00049264,0.01786486,0.00163122,-0.00141364,0.04621248,0.7723,-0.0681,-9.6446,0.026371,-0.016906,-0.011307,19.0508,0.2930,126,0,0,0.003822,-0.001844,-0.292715,0.018370,-0.024621,0.005794,-1.1364,3.7076,-1.5495
13247,11.0,0.001555,-0.000023,-0.292178,-0.003146,-0.003805,0.007979,0.2620,4.8920,-0.3757,-0.00201347,-0.00058258,0.01786206,0.00223259,-0.00174571,0.04626299,0.8350,-0.0082,-9.6892,0.045122,-0.008090,0.000624,19.0508,0.2930,124,-1,0,0.003685,-0.001840,-0.292463,0.015366,-0.023492,0.008796,-1.0959,3.6960,-1.5783
13257,10.0,0.001334,-0.000006,-0.291993,-0.004678,-0.002887,0.008996,0.2824,4.8955,-0.3814,-0.00203499,-0.00066296,0.01786049,0.00280609,-0.00187722,0.04568740,0.9031,-0.0145,-9.7503,0.030774,-0.009628,0.001217,19.0508,0.2950,129,-1,0,0.003487,-0.001827,-0.292374,0.013295,-0.022490,0.009106,-1.0743,3.6935,-1.5774
13269,12.0,0.001376,-0.000019,-0.293003,-0.003131,-0.002146,-0.004765,0.2753,4.8791,-0.3923,-0.00202355,-0.00065106,0.01785816,0.00178292,-0.00206643,0.05183730,0.8889,-0.0029,-9.7859,-0.007184,-0.024136,-0.013060,19.0508,0.2950,131,0,0,0.003329,-0.001833,-0.293561,0.013096,-0.020836,-0.004982,-1.0463,3.6886,-1.5920
13280,11.0,0.001450,-0.000273,-0.292974,-0.001354,-0.004029,-0.004269,0.2451,4.8533,-0.4390,-0.00192414,-0.00060580,0.01786881,0.00152941,-0.00152000,0.05133338,0.8941,0.0193,-9.7657,-0.028486,-0.034265,-0.023044,19.0508,0.2950,138,0,-1,0.003390,-0.001857,-0.293497,0.014665,-0.020235,-0.004362,-1.0472,3.6829,-1.6139
13291,11.0,0.001757,-0.000309,-0.293023,0.002314,-0.003548,-0.004705,0.2150,4.8210,-0.4591,-0.00191077,-0.00047687,0.01786723,0.00059827,-0.00168390,0.05125715,0.8424,-0.0040,-9.7624,-0.043520,-0.031547,-0.020367,19.0508,0.2930,132,1,0,0.003462,-0.002101,-0.293543,0.016255,-0.022176,-0.004899,-1.0758,3.6567,-1.5078
13302,11.0,0.001774,-0.000336,-0.292417,0.003003,-0.003083,0.002415,0.1932,4.8200,-0.4694,-0.00191361,-0.00048216,0.01786691,0.00093822,-0.00171842,0.04763645,0.9055,-0.0052,-9.7742,-0.035640,-0.003145,0.000152,19.1089,0.2930,127,0,0,0.004033,-0.002193,-0.292745,0.022921,-0.021529,0.003110,-1.1230,3.6052,-1.5427
13313,11.0,0.001727,-0.000355,-0.292390,0.003455,-0.003454,0.002437,0.1805,4.8507,-0.4805,-0.00195276,-0.00059371,0.01786701,0.00051095,-0.00150003,0.04759389,0.9668,-0.0903,-9.7135,-0.029169,0.025585,0.008242,19.1089,0.2930,129,0,0,0.004054,-0.002228,-0.292717,0.023017,-0.021252,0.002613,-1.1339,3.6228,-1.5552
13324,11.0,0.001648,-0.000371,-0.292270,0.003272,-0.004949,0.004377,0.1781,4.8826,-0.1811,-0.00197061,-0.00064577,0.01779436,0.00101545,-0.00039249,0.04712951,0.9331,-0.2144,-9.6376,-0.028730,0.040566,0.015423,19.1089,0.2950,126,0,0,0.004027,-0.002254,-0.292577,0.023251,-0.021751,0.003881,-1.1554,3.6354,-1.5500
13335,11.0,0.001593,-0.000374,-0.293145,0.002408,-0.005865,-0.004296,0.1892,4.9041,-0.2098,-0.00208027,-0.00068496,0.01779418,0.00084160,0.00011898,0.05217995,0.8328,-0.1863,-9.5210,-0.004377,0.027685,0.002820,19.1089,0.2950,132,0,0,0.003915,-0.002294,-0.293681,0.022091,-0.024110,-0.006142,-1.1613,3.7042,-1.5577
13346,11.0,0.001344,-0.000366,-0.293113,-0.000680,-0.006501,-0.001425,0.2010,4.9218,-0.2223,-0.00211527,-0.00080650,0.01779179,0.00159845,-0.00007240,0.05186376,0.8225,-0.1720,-9.5355,0.013222,0.008298,-0.009566,19.1089,0.2950,127,-1,0,0.003880,-0.002305,-0.293643,0.020963,-0.024817,-0.003152,-1.1389,3.7318,-1.5831
13357,11.0,0.001331,-0.000357,-0.293120,-0.000720,-0.006516,0.000171,0.2246,4.9236,-0.2458,-0.00220204,-0.00080451,0.01778911,0.00165536,0.00010512,0.05186405,0.8329,-0.1288,-9.5768,0.021446,0.002698,-0.008316,19.0164,0.2930,128,0,0,0.003656,-0.002305,-0.293666,0.017752,-0.025186,-0.001228,-1.1355,3.7459,-1.5875
13368,11.0,0.001310,-0.000344,-0.292388,-0.000398,-0.005469,0.008971,0.2507,4.9270,-0.2546,-0.00223784,-0.00081011,0.01778516,0.00203802,-0.00010213,0.04800283,0.8867,-0.0279,-9.6922,0.035213,0.003553,-0.007229,19.0164,0.2930,125,0,0,0.003659,-0.002309,-0.292675,0.017485,-0.024949,0.011135,-1.0910,3.7509,-1.6162
13379,11.0,0.001278,-0.000339,-0.292286,-0.000513,-0.004287,0.009482,0.2636,4.9371,-0.2629,-0.00223849,-0.00083160,0.01778131,0.00204430,-0.00044686,0.04800446,0.8599,0.0053,-9.6779,0.021843,0.011180,-0.015848,19.0164,0.2930,125,0,0,0.003655,-0.002309,-0.292563,0.017514,-0.023993,0.011542,-1.0597,3.7653,-1.6330
13390,11.0,0.001257,-0.000347,-0.292054,-0.001194,-0.003127,0.011959,0.2654,4.9449,-0.2832,-0.00225401,-0.00083704,0.01777964,0.00213643,-0.00052965,0.04734660,0.7892,0.0245,-9.6388,0.001209,0.010518,-0.018951,19.0164,0.2950,131,0,0,0.003639,-0.002312,-0.292289,0.017488,-0.022907,0.013727,-1.0478,3.7672,-1.6392
13401,11.0,0.001512,-0.000362,-0.293004,-0.000042,-0.002256,0.000502,0.2540,4.9142,-0.3021,-0.00222893,-0.00060417,0.01777703,0.00184887,-0.00082678,0.05305479,0.6443,0.0215,-9.6294,-0.011054,-0.007698,-0.022426,19.0164,0.2950,133,1,0,0.003637,-0.002344,-0.293433,0.015920,-0.021152,0.001170,-1.0452,3.7795,-1.7298
13412,11.0,0.001790,-0.000378,-0.292901,0.001140,-0.000667,0.002396,0.2481,4.8917,-0.3264,-0.00222929,-0.00047191,0.01777667,0.00114817,-0.00084455,0.05248768,0.6507,0.0999,-9.6686,-0.008589,-0.016885,-0.015920,19.0164,0.2950,128,1,0,0.004138,-0.002404,-0.293252,0.018013,-0.019369,0.004396,-1.0562,3.7376,-1.7724
13423,11.0,0.002065,-0.000391,-0.292871,0.002773,0.000712,0.003035,0.2315,4.8595,-0.3336,-0.00214209,-0.00027312,0.01777494,0.00109528,-0.00143772,0.05249311,0.6973,0.1074,-9.6758,-0.008420,-0.017417,-0.016720,19.0164,0.2930,128,1,0,0.004138,-0.002404,-0.293252,0.018013,-0.019369,0.004396,-1.0562,3.7376,-1.7724
13434,11.0,0.002091,-0.000402,-0.292287,0.003177,0.000745,0.009277,0.2171,4.8543,-0.4090,-0.00213179,-0.00027652,0.01778988,0.00132625,-0.00161822,0.04965724,0.8769,-0.0161,-9.7364,-0.016918,-0.009170,-0.017381,19.0508,0.2930,129,0,0,0.004452,-0.002456,-0.292490,0.018837,-0.017297,0.011668,-1.0741,3.6991,-1.8047
13445,11.0,0.001855,-0.000405,-0.292186,0.001448,0.000484,0.009162,0.2102,4.8795,-0.4298,-0.00213491,-0.00048138,0.01779060,0.00140755,-0.00149975,0.04965968,0.9680,-0.0518,-9.7240,-0.011105,0.004778,-0.019885,19.0508,0.2930,127,-1,0,0.004299,-0.002489,-0.292136,0.017304,-0.017186,0.012493,-1.0916,3.7052,-1.8379
13456,11.0,0.001580,-0.000403,-0.291970,-0.001822,-0.001380,0.011388,0.2011,4.9070,-0.4501,-0.00213784,-0.00061699,0.01779089,0.00218984,-0.00150400,0.04914711,0.8266,-0.2145,-9.6417,-0.014155,0.023262,-0.018513,19.0508,0.2960,135,-1,0,0.004077,-0.002496,-0.293987,0.015399,-0.017575,-0.009091,-1.0837,3.7395,-1.8667
13467,11.0,0.001549,-0.000405,-0.293516,-0.002880,-0.002389,-0.006433,0.2048,4.9090,-0.4780,-0.00221478,-0.00055582,0.01779224,0.00201090,-0.00106699,0.05771092,0.7278,-0.1564,-9.5701,-0.008629,0.015890,0.002490,19.0508,0.2960,129,0,0,0.003834,-0.002498,-0.293985,0.012635,-0.019195,-0.007323,-1.0961,3.7583,-1.8784
13478,11.0,0.001794,-0.000383,-0.293494,-0.001595,-0.001820,-0.003828,0.2348,4.8907,-0.4885,-0.00223788,-0.00042129,0.01778911,0.00132672,-0.00118576,0.05721042,0.6569,-0.0333,-9.5871,0.043507,-0.010335,-0.001248,19.0508,0.2960,137,1,0,0.003806,-0.002513,-0.293963,0.010660,-0.020842,-0.002605,-1.0774,3.7690,-1.9087
13489,11.0,0.001843,-0.000135,-0.293535,-0.001343,0.001492,-0.003687,0.2690,4.8672,-0.4775,-0.00234225,-0.00036241,0.01777584,0.00138374,-0.00195217,0.05721672,0.7854,-0.0069,-9.7087,0.038302,-0.027654,0.005500,19.0508,0.2930,136,0,1,0.004044,-0.002509,-0.293983,0.012361,-0.020156,-0.001355,-1.0393,3.7452,-1.9509
13500,11.0,0.001909,0.000094,-0.292604,-0.000013,0.004071,0.007464,0.2795,4.8447,-0.4732,-0.00244234,-0.00032747,0.01776547,0.00159012,-0.00243495,0.05233628,0.8779,-0.0271,-9.7324,-0.000079,-0.031528,0.005201,18.9610,0.2930,136,0,1,0.004098,-0.002288,-0.292920,0.012571,-0.017084,0.010332,-1.0068,3.7227,-1.9459
13511,11.0,0.001972,0.000087,-0.292527,0.002227,0.003397,0.006457,0.2655,4.8365,-0.4976,-0.00242599,-0.00039890,0.01776791,0.00066024,-0.00225688,0.05225420,0.9991,-0.0596,-9.8000,-0.019794,-0.029942,-0.015732,18.9610,0.2930,135,0,0,0.004447,-0.002108,-0.292581,0.018090,-0.014821,0.011126,-0.9939,3.6765,-1.9608
13522,11.0,0.002040,0.000076,-0.292319,0.004151,0.002157,0.007199,0.2436,4.8171,-0.5397,-0.00240490,-0.00038244,0.01777010,0.00063156,-0.00216240,0.05151955,0.9755,-0.1148,-9.7987,-0.028778,-0.029122,-0.043656,18.9610,0.2950,127,0,0,0.004516,-0.002129,-0.293431,0.019870,-0.015351,-0.000198,-0.9948,3.6796,-1.9891
13534,12.0,0.002091,0.000061,-0.293185,0.004677,0.001840,-0.003939,0.2184,4.8100,-0.5874,-0.00238163,-0.00041152,0.01777209,0.00002342,-0.00209316,0.05616838,0.8736,-0.0307,-9.7261,-0.029878,-0.016235,-0.048735,18.9610,0.2950,123,0,0,0.004652,-0.002177,-0.293452,0.022559,-0.017094,-0.001834,-1.0223,3.6621,-2.0622
13545,11.0,0.002103,0.000051,-0.293114,0.003462,0.000930,-0.001852,0.2012,4.8129,-0.6185,-0.00236859,-0.00042809,0.01777291,0.00015310,-0.00202447,0.05561626,0.7420,-0.0957,-9.6568,-0.023636,0.001790,-0.032497,18.9610,0.2950,125,0,0,0.004704,-0.002204,-0.293299,0.022699,-0.017424,0.000006,-1.0451,3.6505,-2.0924
13556,11.0,0.002088,0.000043,-0.293124,0.001817,-0.000321,0.000046,0.1944,4.8152,-0.6497,-0.00242751,-0.00037989,0.01777580,0.00082969,-0.00154805,0.05567135,0.6990,-0.1468,-9.5566,-0.022489,0.014442,-0.005437,18.9610,0.2920,124,0,0,0.004730,-0.002227,-0.293296,0.021512,-0.017937,0.000593,-1.0462,3.6573,-2.1318
13567,11.0,0.002065,0.000063,-0.291853,0.000665,-0.001505,0.016369,0.2100,4.8240,-0.6535,-0.00244108,-0.00039898,0.01777457,0.00142719,-0.00162795,0.04957529,0.7486,-0.1741,-9.5742,0.020832,0.010439,0.008621,18.9610,0.2920,123,0,0,0.004729,-0.002258,-0.291786,0.018437,-0.019711,0.018225,-1.0501,3.6734,-2.1667
13578,11.0,0.002042,0.000091,-0.291667,0.000456,-0.001179,0.017429,0.2442,4.8285,-0.6550,-0.00247072,-0.00041732,0.01777266,0.00147940,-0.00167586,0.04957897,0.8310,-0.0545,-9.6284,0.047470,0.004032,0.013876,18.9821,0.2940,126,0,0,0.004719,-0.002249,-0.291596,0.017359,-0.020653,0.019777,-1.0362,3.6773,-2.1645
13589,11.0,0.001779,0.000104,-0.291344,-0.001547,-0.000073,0.018428,0.2617,4.8462,-0.6562,-0.00247941,-0.00055060,0.01777280,0.00219381,-0.00171677,0.04896782,0.9231,0.0370,-9.7740,0.024276,0.009281,0.013716,18.9821,0.2940,125,-1,0,0.004694,-0.002224,-0.292295,0.016838,-0.019690,0.010059,-0.9665,3.6929,-2.1583
13600,11.0,0.001757,0.000091,-0.292126,-0.000530,0.000292,0.006024,0.2476,4.8616,-0.6587,-0.00244632,-0.00062472,0.01777239,0.00130211,-0.00185291,0.05360788,0.9502,0.0060,-9.8070,-0.017535,0.009660,0.003519,18.9821,0.2940,130,0,0,0.004467,-0.002220,-0.292071,0.014730,-0.018595,0.010886,-0.9476,3.7254,-2.1609
13611,11.0,0.001526,0.000068,-0.291958,-0.001816,-0.001321,0.006902,0.2133,4.8749,-0.6826,-0.00243602,-0.00073898,0.01777455,0.00189849,-0.00181201,0.05314487,0.9535,-0.1709,-9.7437,-0.052336,0.004700,-0.017578,18.9821,0.2940,130,-1,0,0.004455,-0.002241,-0.291966,0.015728,-0.018249,0.009969,-0.9597,3.7292,-2.1621
13622,11.0,0.001545,0.000051,-0.291880,-0.001231,-0.003016,0.007290,0.2017,4.8721,-0.7340,-0.00254268,-0.00073107,0.01777729,0.00171802,-0.00112271,0.05312321,0.8512,-0.2124,-9.6839,-0.036403,-0.004914,-0.030244,18.9821,0.2920,134,0,0,0.004060,-0.002293,-0.291396,0.012838,-0.020976,0.013686,-1.0051,3.7652,-2.2109
13633,11.0,0.001537,0.000057,-0.291241,-0.001043,-0.003085,0.013701,0.2112,4.8733,-0.7476,-0.00256220,-0.00072835,0.01777506,0.00193066,-0.00122195,0.05047685,0.8491,-0.0840,-9.7309,0.011781,0.001328,-0.008118,18.9240,0.2920,140,0,0,0.004083,-0.002319,-0.291258,0.013331,-0.022090,0.013999,-1.0005,3.7715,-2.2510
13644,11.0,0.001718,0.000065,-0.291094,0.001667,-0.003329,0.013014,0.2315,4.8819,-0.7555,-0.00262779,-0.00067315,0.01777250,0.00118227,-0.00103096,0.05041036,0.9021,-0.1110,-9.7807,0.018909,0.017912,0.010683,18.9240,0.2920,135,1,0,0.004086,-0.002326,-0.290951,0.013654,-0.022266,0.015900,-0.9965,3.7687,-2.2584
13655,11.0,0.001670,0.000066,-0.290797,0.001943,-0.004155,0.014432,0.2353,4.8990,-0.7062,-0.00264992,-0.00070821,0.01775210,0.00144552,-0.00086486,0.04967454,0.9380,-0.1613,-9.7558,-0.002705,0.021529,0.003249,18.9240,0.2930,130,0,0,0.004230,-0.002340,-0.291660,0.016217,-0.022764,0.003803,-0.9609,3.7960,-2.2641
13666,11.0,0.001894,0.000290,-0.291340,0.004605,-0.002054,0.006445,0.2534,4.8973,-0.7163,-0.00284441,-0.00063722,0.01773645,0.00050928,-0.00103982,0.05288517,0.8827,-0.1344,-9.7022,-0.001486,0.004510,-0.015008,18.9240,0.2930,135,1,1,0.004200,-0.002351,-0.291497,0.016345,-0.023115,0.004883,-0.9410,3.8257,-2.2837
13677,11.0,0.001918,0.000289,-0.291147,0.004470,-0.003069,0.008306,0.2498,4.8939,-0.7396,-0.00285804,-0.00065085,0.01773513,0.00062479,-0.00110328,0.05231712,0.8516,-0.1649,-9.6812,-0.007230,-0.007959,-0.021401,18.9240,0.2930,131,0,0,0.004416,-0.002162,-0.291448,0.019129,-0.021118,0.004820,-0.9322,3.8185,-2.2806
13688,11.0,0.001969,0.000282,-0.291051,0.004667,-0.003878,0.009189,0.2511,4.8829,-0.7767,-0.00294218,-0.00065980,0.01773545,0.00054968,-0.00071551,0.05230655,0.8504,-0.1586,-9.6396,-0.012074,-0.020154,-0.023685,18.9240,0.2910,130,0,0,0.004482,-0.002194,-0.291121,0.018854,-0.022498,0.008207,-0.9249,3.8181,-2.3254
13699,11.0,0.001976,0.000287,-0.290308,0.005061,-0.003965,0.016588,0.2608,4.8826,-0.7961,-0.00296501,-0.00068303,0.01773323,0.00092363,-0.00084788,0.04936767,0.9220,-0.1021,-9.7215,0.012157,-0.004304,-0.016806,18.9240,0.2910,130,0,0,0.004538,-0.002214,-0.290571,0.018966,-0.022934,0.013890,-0.9122,3.8161,-2.3594
13710,11.0,0.001904,0.000296,-0.290126,0.004737,-0.004191,0.016628,0.2785,4.9174,-0.8165,-0.00303947,-0.00081508,0.01773259,0.00074562,-0.00064904,0.04934812,0.9501,-0.1274,-9.7109,0.014538,0.032596,-0.005269,18.9240,0.2910,123,0,0,0.004550,-0.002227,-0.290143,0.019284,-0.022768,0.015227,-0.8792,3.8347,-2.3955
13722,12.0,0.001831,0.000301,-0.289788,0.003634,-0.004264,0.018448,0.2924,4.9481,-0.8325,-0.00306798,-0.00088155,0.01773040,0.00111044,-0.00078003,0.04873434,0.8709,-0.1086,-9.7063,0.015871,0.035587,-0.008800,18.9821,0.2940,120,0,0,0.004490,-0.002228,-0.289811,0.019037,-0.022831,0.017210,-0.8699,3.8568,-2.4012
13733,11.0,0.001556,0.000078,-0.291409,-0.000916,-0.005590,-0.001937,0.2934,4.9660,-0.8629,-0.00294797,-0.00097242,0.01774109,0.00161466,-0.00058910,0.05709359,0.7285,0.0123,-9.6602,0.020386,0.019425,-0.018351,18.9821,0.2940,130,-1,-1,0.004158,-0.002436,-0.291923,0.014087,-0.023902,-0.006133,-0.8384,3.9263,-2.4421
13744,11.0,0.001574,0.000073,-0.291322,-0.002417,-0.003877,0.000065,0.3026,4.9611,-0.8838,-0.00297317,-0.00095308,0.01773808,0.00157225,-0.00069731,0.05660287,0.6690,0.0518,-9.6634,0.011420,-0.006357,-0.020290,18.9821,0.2940,125,0,0,0.003922,-0.002646,-0.291842,0.010103,-0.024481,-0.003741,-0.8286,3.9434,-2.4713
13755,11.0,0.001603,0.000064,-0.291319,-0.002551,-0.002138,0.000487,0.2960,4.9447,-0.8891,-0.00290465,-0.00087582,0.01773350,0.00179485,-0.00129523,0.05662765,0.7660,0.0894,-9.6861,0.002630,-0.013858,-0.016526,18.9821,0.2920,125,0,0,0.003939,-0.002661,-0.291877,0.009173,-0.022619,-0.003097,-0.8207,3.9362,-2.4845
13766,11.0,0.001403,0.000054,-0.291015,-0.004688,-0.000296,0.004064,0.2921,4.9435,-0.9244,-0.00290399,-0.00096133,0.01773821,0.00229419,-0.00136283,0.05533066,0.8205,0.1124,-9.7094,-0.004900,-0.014357,-0.020543,18.9821,0.2920,134,-1,0,0.003792,-0.002693,-0.291424,0.007060,-0.018737,0.002402,-0.8157,3.9239,-2.5140
13777,11.0,0.001430,0.000038,-0.290969,-0.003985,0.000500,0.004300,0.2733,4.9320,-0.9368,-0.00284073,-0.00091161,0.01773718,0.00218772,-0.00169198,0.05532501,0.8276,0.0464,-9.6987,-0.018608,-0.012082,-0.014628,18.9240,0.2920,126,0,0,0.003823,-0.002716,-0.291400,0.007952,-0.017064,0.002496,-0.8183,3.9202,-2.5297
13788,11.0,0.001450,0.000017,-0.290761,-0.003254,0.000730,0.007155,0.2532,4.9254,-0.9597,-0.00282621,-0.00087904,0.01773870,0.00210115,-0.00164019,0.05460194,0.8396,0.0024,-9.6286,-0.029956,-0.007305,-0.015165,18.9240,0.2940,130,0,0,0.003852,-0.002740,-0.292319,0.008773,-0.016175,-0.008055,-0.8288,3.9088,-2.5418
13799,11.0,0.001454,-0.000000,-0.291895,-0.002555,-0.000587,-0.005758,0.2375,4.9265,-0.9809,-0.00288296,-0.00087256,0.01774193,0.00146273,-0.00115574,0.05996454,0.8630,-0.1521,-9.6009,-0.037045,0.001152,0.004758,18.9240,0.2940,130,0,0,0.003901,-0.002797,-0.292317,0.010320,-0.016206,-0.004397,-0.8621,3.9022,-2.5913
13810,11.0,0.001415,0.000005,-0.291829,-0.002345,-0.000916,-0.002654,0.2436,4.9371,-0.9765,-0.00289007,-0.00087880,0.01774117,0.00153726,-0.00118502,0.05942260,0.8629,-0.0848,-9.5602,0.005224,0.015059,0.023188,18.9240,0.2940,139,0,0,0.003909,-0.002821,-0.292356,0.010835,-0.017282,-0.003225,-0.8633,3.9125,-2.6076
13820,10.0,0.001362,0.000035,-0.291851,-0.002848,-0.001261,-0.001675,0.2774,4.9477,-0.9812,-0.00296111,-0.00087693,0.01774081,0.00172355,-0.00094803,0.05943605,0.8175,-0.1317,-9.6179,0.042594,0.019062,0.021230,18.9240,0.2920,139,0,0,0.003891,-0.002832,-0.292381,0.011182,-0.017837,-0.001764,-0.8670,3.9177,-2.5982
13831,11.0,0.001307,0.000063,-0.291255,-0.003153,-0.001008,0.006298,0.3108,4.9607,-0.9752,-0.00298279,-0.00088919,0.01773846,0.00200449,-0.00103681,0.05676832,0.8376,-0.0685,-9.6377,0.046307,0.018036,0.023054,18.9240,0.2920,130,0,0,0.004022,-0.002810,-0.291493,0.012754,-0.018187,0.009137,-0.8014,3.9381,-2.5922
13842,11.0,0.001289,0.000079,-0.291184,-0.002926,-0.000547,0.006609,0.3312,4.9622,-0.9735,-0.00298513,-0.00088267,0.01773644,0.00195594,-0.00116386,0.05676483,0.8517,-0.0372,-9.6880,0.029820,0.002248,0.014916,18.9240,0.2920,129,0,0,0.003985,-0.002794,-0.291232,0.012327,-0.017688,0.011745,-0.7613,3.9583,-2.5927
13853,11.0,0.001539,0.000082,-0.290959,0.000696,-0.000185,0.008067,0.3419,4.9419,-0.9795,-0.00299066,-0.00074082,0.01773494,0.00138547,-0.00119010,0.05602107,0.9019,-0.0308,-9.7482,0.013990,-0.014303,0.008406,18.9240,0.2940,125,1,0,0.003973,-0.002785,-0.291112,0.012336,-0.017172,0.012155,-0.7405,3.9601,-2.5857
13864,11.0,0.001588,0.000057,-0.291977,0.001740,-0.000312,-0.005059,0.3172,4.9339,-0.9972,-0.00297488,-0.00075998,0.01773586,0.00061412,-0.00117049,0.06076679,0.9097,-0.0465,-9.7323,-0.037102,-0.018444,-0.009250,18.9821,0.2940,126,0,0,0.004462,-0.002823,-0.292299,0.018513,-0.016453,-0.001992,-0.7221,3.9347,-2.5976
13875,11.0,0.001626,0.000027,-0.291928,0.003189,-0.001215,-0.003608,0.2885,4.9260,-0.9318,-0.00296470,-0.00075259,0.01770355,0.00066962,-0.00069638,0.06030644,0.9633,-0.1156,-9.6831,-0.051194,-0.012273,-0.010074,18.9821,0.2940,131,0,0,0.004520,-0.002854,-0.292321,0.019122,-0.016418,-0.002246,-0.7323,3.9378,-2.6148
13886,11.0,0.001427,0.000006,-0.291964,0.001724,-0.002157,-0.002950,0.2666,4.9399,-0.9586,-0.00301428,-0.00094125,0.01770697,0.00071810,-0.00033169,0.06030699,0.9564,-0.1367,-9.6431,-0.044586,-0.008086,-0.010870,18.9821,0.2930,125,-1,0,0.004571,-0.002891,-0.292170,0.020054,-0.017191,-0.000259,-0.7624,3.9284,-2.6244
13897,11.0,0.001195,0.000005,-0.291867,0.000194,-0.003642,-0.000502,0.2576,4.9528,-0.9776,-0.00302895,-0.00107271,0.01770682,0.00133951,-0.00039481,0.05982593,0.9600,-0.2115,-9.6114,-0.016586,0.001854,-0.013129,18.9821,0.2930,125,-1,0,0.004209,-0.002933,-0.292234,0.016568,-0.018784,0.000628,-0.7918,3.9603,-2.6207
13908,11.0,0.001162,0.000015,-0.291869,0.000589,-0.003879,0.000059,0.2770,4.9682,-0.9921,-0.00310154,-0.00113858,0.01770545,0.00109653,-0.00020167,0.05980230,0.9267,-0.1248,-9.6550,0.017043,0.011679,0.000602,18.9821,0.2930,135,0,0,0.003993,-0.002944,-0.292051,0.015105,-0.020309,0.003924,-0.7761,3.9938,-2.6542
13919,11.0,0.001110,0.000037,-0.291695,0.000093,-0.003309,0.001580,0.3078,4.9832,-0.9955,-0.00313442,-0.00116928,0.01770182,0.00130168,-0.00033075,0.05904442,0.8708,-0.0622,-9.7663,0.041988,0.018650,0.006236,18.8658,0.2950,133,0,0,0.003968,-0.002940,-0.293231,0.014962,-0.020031,-0.009151,-0.7433,4.0184,-2.6659
13931,12.0,0.001065,0.000047,-0.292887,-0.000451,-0.002131,-0.012709,0.3278,4.9974,-0.9985,-0.00312303,-0.00119386,0.01769754,0.00097160,-0.00063113,0.06411817,0.8509,0.0069,-9.7372,0.030442,0.016404,0.000817,18.8658,0.2950,129,0,0,0.003927,-0.002927,-0.293326,0.014485,-0.019335,-0.009724,-0.7164,4.0316,-2.6644
13942,11.0,0.001079,0.000042,-0.292887,-0.000554,-0.001229,-0.010583,0.3298,4.9934,-1.0171,-0.00313028,-0.00118296,0.01769657,0.00098015,-0.00066212,0.06352121,0.8203,0.0106,-9.6684,0.001608,-0.006260,-0.013130,18.8658,0.2950,133,0,0,0.003877,-0.002924,-0.293298,0.013433,-0.017200,-0.007282,-0.6761,4.0593,-2.6778
13953,11.0,0.001121,0.000025,-0.292999,-0.000119,-0.001176,-0.009693,0.3136,4.9809,-1.0413,-0.00312445,-0.00114964,0.01769645,0.00093600,-0.00068093,0.06351762,0.8372,-0.0467,-9.6294,-0.024328,-0.016255,-0.021023,18.8658,0.2930,132,0,0,0.003900,-0.002940,-0.292698,0.013307,-0.016252,0.000436,-0.6726,4.0617,-2.6948
13964,11.0,0.001182,0.000002,-0.292336,0.000474,-0.001861,0.000379,0.2897,4.9642,-1.0670,-0.00312055,-0.00111544,0.01769657,0.00108138,-0.00068522,0.06035222,0.8345,-0.1096,-9.5979,-0.037134,-0.023130,-0.022533,18.8658,0.2930,129,0,0,0.003945,-0.002965,-0.292547,0.013627,-0.016104,0.002873,-0.6870,4.0501,-2.7104
13975,11.0,0.001237,-0.000003,-0.292326,0.000961,-0.002413,0.001512,0.2906,4.9473,-1.0929,-0.00317451,-0.00108501,0.01769712,0.00101268,-0.00044188,0.06034409,0.8364,-0.1250,-9.6102,-0.008412,-0.023744,-0.013671,18.8658,0.2930,134,0,0,0.004066,-0.003024,-0.292467,0.014464,-0.017191,0.005219,-0.7158,4.0289,-2.7515
13986,11.0,0.001225,0.000008,-0.292132,0.000725,-0.002241,0.003517,0.3159,4.9502,-0.9392,-0.00319581,-0.00109366,0.01762662,0.00121464,0.00031054,0.05959726,0.8484,-0.0805,-9.7234,0.022216,0.002602,0.009307,18.8658,0.2950,127,0,0,0.004118,-0.003036,-0.293393,0.014722,-0.017491,-0.004533,-0.7011,4.0256,-2.7737
13997,11.0,0.001176,0.000018,-0.293075,-0.000195,-0.001393,-0.008601,0.3306,4.9643,-0.9285,-0.00318420,-0.00110876,0.01762363,0.00109034,0.00008203,0.06361977,0.8226,-0.0059,-9.7869,0.022523,0.020290,0.025020,18.8658,0.2950,131,0,0,0.004123,-0.003034,-0.293438,0.014529,-0.017394,-0.004410,-0.6830,4.0264,-2.6830
14008,11.0,0.001381,0.000027,-0.293037,0.001542,-0.000369,-0.007574,0.3518,4.9623,-0.9163,-0.00319550,-0.00100232,0.01762151,0.00069128,0.00003484,0.06300480,0.8017,0.0162,-9.7699,0.027287,0.010072,0.035096,18.8658,0.2950,127,1,0,0.004055,-0.003029,-0.293338,0.012641,-0.015682,-0.003692,-0.6420,4.0609,-2.6699
14019,11.0,0.001634,0.000032,-0.293123,0.003594,-0.000298,-0.008193,0.3649,4.9425,-0.9162,-0.00320406,-0.00085330,0.01761995,0.00038295,0.00001561,0.06297819,0.7976,-0.0648,-9.7709,0.016216,-0.010713,0.017963,18.8658,0.2930,127,1,0,0.004244,-0.003035,-0.292703,0.014226,-0.014671,0.003153,-0.6198,4.0659,-2.6584
14030,11.0,0.001675,0.000028,-0.292401,0.003934,-0.000398,0.000267,0.3623,4.9321,-0.9227,-0.00320267,-0.00085224,0.01762009,0.00067279,0.00000222,0.05966180,0.8846,-0.0707,-9.8029,-0.006301,-0.017184,0.007370,18.8658,0.2930,132,0,0,0.004516,-0.003049,-0.292492,0.016043,-0.014178,0.003549,-0.5933,4.0515,-2.6557
14041,11.0,0.001696,0.000022,-0.292404,0.004711,-0.000467,-0.000751,0.3585,4.9369,-0.9296,-0.00320467,-0.00093297,0.01762018,0.00024904,0.00002834,0.05962435,0.9597,-0.0662,-9.7966,-0.008779,-0.008433,0.006165,18.8658,0.2930,130,0,0,0.004560,-0.003062,-0.292234,0.016501,-0.014367,0.005104,-0.5973,4.0409,-2.6568
14052,11.0,0.001448,0.000012,-0.292241,0.003067,-0.001664,0.000229,0.3405,4.9576,-0.9383,-0.00320289,-0.00108977,0.01762207,0.00096633,0.00002654,0.05894698,1.0153,-0.1698,-9.8025,-0.030324,0.010668,0.005624,18.8658,0.2950,131,-1,0,0.004589,-0.003076,-0.292189,0.017115,-0.014381,0.004048,-0.5920,4.0523,-2.6660
14063,11.0,0.001435,-0.000009,-0.293134,0.003083,-0.003663,-0.009515,0.3262,4.9726,-0.9706,-0.00332521,-0.00114570,0.01762775,0.00053434,0.00078792,0.06253535,0.9015,-0.2617,-9.6432,-0.046462,0.013143,-0.004463,18.9821,0.2950,132,0,0,0.004158,-0.003103,-0.293500,0.013795,-0.016527,-0.010201,-0.6108,4.1042,-2.6893
14074,11.0,0.001422,-0.000017,-0.293128,0.002727,-0.005011,-0.006935,0.3180,4.9818,-0.9762,-0.00334628,-0.00117020,0.01762555,0.00067593,0.00070533,0.06211788,0.8589,-0.2195,-9.5867,-0.018294,0.010110,0.005840,18.9821,0.2930,132,0,0,0.004150,-0.003131,-0.293599,0.014024,-0.018393,-0.009627,-0.6370,4.1127,-2.6964
14085,11.0,0.001407,-0.000011,-0.293200,0.002747,-0.005136,-0.006039,0.3361,4.9916,-0.9853,-0.00342331,-0.00122182,0.01762413,0.00058285,0.00087201,0.06210787,0.9003,-0.1352,-9.6242,0.013123,0.005674,0.008841,18.9821,0.2930,137,0,0,0.004131,-0.003158,-0.292774,0.013539,-0.020109,0.002318,-0.6266,4.1368,-2.7169
14095,10.0,0.001398,-0.000002,-0.292437,0.002877,-0.005343,0.004337,0.3597,4.9939,-0.7542,-0.00345582,-0.00123704,0.01750934,0.00108630,0.00201437,0.05885945,0.9017,-0.1592,-9.6230,0.012614,0.001401,0.004904,18.9821,0.2930,128,0,0,0.004124,-0.003161,-0.292748,0.013676,-0.019865,0.003091,-0.5932,4.1550,-2.5777
14106,11.0,0.001415,-0.000009,-0.292382,0.003250,-0.006125,0.005712,0.3653,4.9950,-0.7756,-0.00356170,-0.00127240,0.01750965,0.00092847,0.00240513,0.05884206,0.9003,-0.1976,-9.5832,-0.011272,-0.006092,-0.003050,18.9821,0.2930,135,0,0,0.004125,-0.003166,-0.292551,0.013950,-0.020147,0.005841,-0.5851,4.1567,-2.5784
14118,12.0,0.001447,-0.000019,-0.292190,0.003445,-0.006510,0.008600,0.3685,4.9882,-0.7971,-0.00359672,-0.00127715,0.01750533,0.00099310,0.00226888,0.05838102,0.8696,-0.1563,-9.5849,-0.000357,-0.011955,-0.019016,19.0402,0.2950,134,0,0,0.004176,-0.003198,-0.293474,0.014742,-0.021069,-0.003237,-0.5724,4.1607,-2.6076
14130,12.0,0.001692,-0.000026,-0.293077,0.005396,-0.006778,-0.001938,0.3860,4.9768,-0.8230,-0.00369557,-0.00115968,0.01750034,0.00034609,0.00253456,0.06222693,0.8202,-0.1617,-9.6357,0.009439,-0.002477,-0.019735,19.0402,0.2950,133,1,0,0.004207,-0.003210,-0.293501,0.014769,-0.021032,-0.002016,-0.5537,4.1640,-2.6340
14141,11.0,0.001914,-0.000034,-0.293006,0.006744,-0.006662,-0.000269,0.3896,4.9764,-0.8384,-0.00373130,-0.00107753,0.01749395,0.00003661,0.00241019,0.06184398,0.8044,-0.1236,-9.6582,-0.000345,0.009076,-0.017068,19.0402,0.2950,133,1,0,0.004437,-0.003226,-0.293516,0.016884,-0.021164,-0.001017,-0.5450,4.1528,-2.6453
14152,11.0,0.001886,-0.000042,-0.293009,0.005137,-0.005492,-0.000193,0.3909,4.9885,-0.8477,-0.00373403,-0.00109744,0.01748989,0.00046870,0.00211002,0.06188390,0.7993,-0.0174,-9.7089,0.001217,0.017299,-0.005818,19.0402,0.2930,127,0,0,0.004862,-0.003060,-0.292666,0.019255,-0.018244,0.009099,-0.5163,4.1561,-2.6675
14163,11.0,0.001879,-0.000052,-0.292325,0.003865,-0.004589,0.007758,0.3912,4.9965,-0.8602,-0.00375416,-0.00112603,0.01748799,0.00083032,0.00198070,0.05925550,0.7969,-0.0313,-9.7135,-0.004091,0.007503,-0.003951,19.0402,0.2930,129,0,0,0.004845,-0.003072,-0.292482,0.017600,-0.017293,0.010244,-0.5068,4.1747,-2.6823
14174,11.0,0.001926,-0.000074,-0.292238,0.003442,-0.003925,0.008086,0.3754,4.9839,-0.8765,-0.00374740,-0.00109531,0.01748537,0.00101986,0.00180250,0.05927348,0.8032,-0.0286,-9.6881,-0.024155,-0.015299,-0.014264,19.0402,0.2930,128,0,0,0.004863,-0.003104,-0.292132,0.015419,-0.015896,0.012007,-0.5040,4.1885,-2.7070
14185,11.0,0.001980,-0.000107,-0.292035,0.003227,-0.003776,0.009573,0.3485,4.9738,-0.8936,-0.00375198,-0.00108614,0.01748467,0.00102143,0.00177831,0.05882447,0.8143,-0.0592,-9.7042,-0.044688,-0.015996,-0.010342,19.0402,0.2950,127,0,0,0.004911,-0.003132,-0.293320,0.014974,-0.015499,-0.002002,-0.5173,4.1805,-2.7202
