timestamp_ms,dt_ms,pos_x,pos_y,pos_z,vel_x,vel_y,vel_z,roll_deg,pitch_deg,yaw_deg,gyro_bias_x,gyro_bias_y,gyro_bias_z,accel_bias_x,accel_bias_y,accel_bias_z,raw_accel_x,raw_accel_y,raw_accel_z,raw_gyro_x,raw_gyro_y,raw_gyro_z,raw_mag_x,raw_mag_y,raw_mag_z,raw_baro_alt,raw_tof,raw_flow_squal,raw_flow_dx,raw_flow_dy,dev_pos_x,dev_pos_y,dev_pos_z,dev_vel_x,dev_vel_y,dev_vel_z,dev_roll_deg,dev_pitch_deg,dev_yaw_deg
56835,10.0,0.000033,0.000065,-0.277750,-0.000579,0.003425,0.001877,0.0206,-0.0039,-0.0001,0.00000000,0.00000000,0.00000000,-0.00346101,0.01357026,0.00000000,-0.7871,-0.6057,-9.5528,0.032319,-0.003993,0.045768,8.6825,-7.8494,17.7814,29.2103,0.2780,144,0,0,0.001514,0.000231,-0.314614,-0.058522,-0.048290,-0.305780,0.1193,-0.3261,0.4655
56846,11.0,0.000255,0.000144,-0.277716,0.004479,0.000044,0.004385,0.1033,-0.1601,0.0039,-0.00000017,0.00000029,-0.00000001,-0.00361733,0.01352304,0.00000003,-0.7808,-0.6746,-9.5772,0.035593,-0.049206,0.045475,8.6825,-7.8494,17.7814,29.2103,0.2780,141,0,0,0.001534,0.000255,-0.293547,-0.059879,-0.049677,-0.006189,0.1191,-0.3059,0.5339
56857,11.0,0.000563,-0.000227,-0.269995,0.006599,-0.019497,0.342080,-0.0790,-0.3750,0.0297,0.00000042,0.00000083,-0.00000010,-0.00394528,0.01387580,-0.00020902,-0.7855,-0.7566,-9.8006,0.032281,-0.068205,0.034295,8.6825,-7.8494,17.7814,29.2103,0.2780,140,0,-1,0.001701,-0.000127,-0.293291,-0.058462,-0.055013,0.010973,0.1348,-0.3517,0.5645
56868,11.0,0.000738,-0.000197,-0.276837,0.002956,-0.019921,0.024249,0.2319,-0.5694,-0.0109,-0.00000097,0.00000164,-0.00000005,-0.00417794,0.01341119,0.00005845,-0.8011,-0.7951,-9.9028,0.014137,-0.035527,0.015651,8.6825,-7.8494,17.7814,29.2103,0.2770,143,0,0,0.001914,-0.000514,-0.293118,-0.056706,-0.060373,0.023616,0.1502,-0.4051,0.5913
56880,12.0,0.000647,-0.000232,-0.276114,-0.007478,-0.022667,0.034697,0.5129,-0.4500,-0.0314,-0.00000268,0.00000110,0.00000013,-0.00401993,0.01286738,-0.00009952,-0.7985,-0.8317,-9.8822,-0.020760,0.035571,-0.011669,8.6825,-7.8494,17.7814,29.2685,0.2770,142,0,0,0.002053,-0.000540,-0.281545,-0.056993,-0.062859,0.158192,0.1480,-0.4387,0.6189
56891,11.0,0.000477,-0.000287,-0.275731,-0.016852,-0.023607,0.035262,0.8312,-0.3926,-0.0309,-0.00000527,0.00000109,0.00000036,-0.00391686,0.01229696,-0.00009777,-0.8531,-0.7320,-9.7288,-0.036645,0.054083,-0.029428,8.6825,-7.8494,17.7814,29.2685,0.2770,142,0,0,0.001913,-0.000589,-0.279901,-0.059159,-0.064469,0.170624,0.1350,-0.4324,0.6158
56902,11.0,0.000264,-0.000347,-0.276514,-0.024608,-0.022723,0.016069,1.1832,-0.4078,-0.0283,-0.00000843,0.00000148,0.00000060,-0.00395959,0.01167653,0.00057668,-0.8354,-0.6166,-9.5761,-0.024557,0.059093,-0.032049,8.6825,-7.8494,17.7814,29.2685,0.2770,139,0,0,0.001491,-0.000730,-0.275904,-0.064933,-0.065711,0.202232,0.0934,-0.3951,0.5885
56913,11.0,0.000125,-0.000395,-0.276319,-0.028335,-0.019465,0.019923,1.5237,-0.6714,-0.0179,-0.00001203,0.00000447,0.00000074,-0.00448489,0.01104334,0.00058379,-0.8507,-0.4198,-9.4139,-0.001055,0.029886,-0.021953,8.6825,-7.8494,17.7814,29.2685,0.2780,141,0,0,0.001268,-0.000793,-0.276561,-0.067667,-0.064900,0.188142,0.0830,-0.3840,0.5575
56924,11.0,0.000042,-0.000433,-0.275692,-0.028741,-0.015788,0.029799,1.8054,-1.0820,-0.0134,-0.00001558,0.00000976,0.00000078,-0.00531970,0.01047679,-0.00005969,-0.8166,-0.3499,-9.4016,0.007984,0.008193,-0.009328,8.6787,-6.6885,17.0486,29.2685,0.2780,143,0,0,0.001119,-0.000840,-0.274412,-0.069357,-0.062637,0.206970,0.0797,-0.3788,0.5471
56935,11.0,0.000014,-0.000486,-0.276388,-0.026325,-0.012982,0.019108,2.0514,-1.6725,-0.0118,-0.00001898,0.00001813,0.00000067,-0.00625183,0.01014607,0.00191002,-0.8531,-0.3966,-9.4124,-0.005363,-0.011588,0.005718,8.6787,-6.6885,17.0486,29.2685,0.2770,145,0,0,0.001000,-0.000915,-0.273789,-0.069562,-0.057079,0.197640,0.0878,-0.4088,0.5414
56946,11.0,0.000001,-0.000895,-0.275944,-0.024169,-0.021937,0.025786,1.6259,-2.1512,0.0451,-0.00001193,0.00002638,-0.00000036,-0.00719914,0.01088321,0.00126423,-0.8766,-0.4665,-9.4119,-0.021417,-0.011101,0.008927,8.6787,-6.6885,17.0486,29.2685,0.2770,140,0,-1,0.001012,-0.000959,-0.271730,-0.069424,-0.055372,0.214184,0.0818,-0.4290,0.5471
56957,11.0,0.000080,-0.000969,-0.275659,-0.018767,-0.019392,0.028550,1.8924,-2.7453,-0.0169,-0.00001761,0.00003812,-0.00000041,-0.00823895,0.01037857,0.00127899,-0.8428,-0.4970,-9.4651,-0.014145,-0.041058,0.014688,8.6787,-6.6885,17.0486,29.2685,0.2770,143,0,0,0.001037,-0.001413,-0.269506,-0.069342,-0.058744,0.230698,0.0666,-0.4491,0.5584
56968,11.0,0.000299,-0.001026,-0.275953,-0.009766,-0.016878,0.021753,2.1590,-3.4732,-0.0161,-0.00002355,0.00005377,-0.00000069,-0.00931967,0.01001381,0.00364938,-0.8430,-0.5426,-9.6700,0.001536,-0.084589,0.009708,8.6787,-6.6885,17.0486,29.2685,0.2770,140,0,0,0.001317,-0.001510,-0.264291,-0.065923,-0.056999,0.265175,0.0448,-0.5277,0.5772
56979,11.0,0.000528,-0.001064,-0.275735,-0.002183,-0.015269,0.019601,2.3868,-3.9842,-0.0136,-0.00002984,0.00006666,-0.00000090,-0.01017335,0.00961945,0.00364079,-0.7996,-0.6367,-9.9157,0.008901,-0.079503,0.011685,8.6787,-6.6885,17.0486,29.2685,0.2770,143,0,0,0.001608,-0.001534,-0.271356,-0.062724,-0.056362,0.171207,0.0539,-0.6141,0.5810
56990,11.0,0.000565,-0.001116,-0.275295,-0.002151,-0.014448,0.020080,2.5269,-4.0580,-0.0123,-0.00003485,0.00006914,-0.00000062,-0.01042482,0.00926145,0.00219945,-0.8553,-0.6389,-9.9636,-0.014429,-0.009326,-0.001858,8.6787,-6.6885,17.0486,29.2685,0.2770,142,0,0,0.002034,-0.001581,-0.267714,-0.058423,-0.056837,0.192641,0.0519,-0.7174,0.5937
57001,11.0,0.000449,-0.001168,-0.275640,-0.004707,-0.012839,0.013022,2.6786,-3.9781,-0.0139,-0.00004029,0.00006624,0.00000001,-0.00999910,0.00919295,0.00577484,-0.7785,-0.5889,-9.8048,-0.007839,0.032850,-0.000098,8.6787,-6.6885,17.0486,29.2685,0.2770,142,0,0,0.001998,-0.001624,-0.265455,-0.059373,-0.057265,0.206289,0.0418,-0.7273,0.5940
57012,11.0,0.000373,-0.001225,-0.275342,-0.006499,-0.011345,0.015401,2.7506,-3.9344,-0.0073,-0.00004417,0.00006524,0.00000038,-0.01004498,0.00896680,0.00461647,-0.7943,-0.5078,-9.7097,-0.022510,0.023695,0.003134,8.6787,-6.6885,17.0486,29.3266,0.2770,142,0,0,0.001854,-0.001663,-0.271716,-0.060703,-0.057188,0.125889,0.0422,-0.7393,0.6060
57023,11.0,0.000426,-0.001303,-0.275175,-0.004587,-0.010957,0.015696,2.7709,-4.0714,-0.0036,-0.00004677,0.00007177,0.00000021,-0.01027198,0.00887948,0.00461092,-0.8077,-0.5420,-9.7230,-0.049170,-0.013716,-0.002034,8.6825,-7.4628,17.7814,29.3266,0.2770,139,0,0,0.001690,-0.001786,-0.268786,-0.062194,-0.056375,0.152099,0.0082,-0.7453,0.6106
57035,12.0,0.000487,-0.001399,-0.276010,-0.002485,-0.011996,0.003591,2.8054,-4.2413,-0.0046,-0.00004994,0.00007906,0.00000002,-0.00984752,0.00923244,0.01311079,-0.8444,-0.6889,-9.7573,-0.056712,-0.016560,0.001105,8.6825,-7.4628,17.7814,29.3266,0.2780,140,0,0,0.001747,-0.001871,-0.267206,-0.061388,-0.056667,0.164083,-0.0239,-0.7681,0.6123
57046,11.0,0.000520,-0.001481,-0.275977,-0.002016,-0.013191,0.002620,2.8237,-4.2970,-0.0026,-0.00005373,0.00008277,0.00000005,-0.00994028,0.00915099,0.01309766,-0.8397,-0.7218,-9.8232,-0.058062,-0.002314,-0.002946,8.6825,-7.4628,17.7814,29.3266,0.2780,144,0,0,0.001846,-0.002043,-0.271939,-0.060549,-0.059613,0.104206,-0.0883,-0.8259,0.6146
57057,11.0,0.000494,-0.001166,-0.275761,-0.002598,-0.005171,0.004594,3.1517,-4.2814,-0.0280,-0.00008046,0.00008266,0.00000226,-0.01008814,0.00840127,0.01119277,-0.7864,-0.7028,-9.7677,-0.031463,0.011367,-0.004999,8.6825,-7.4628,17.7814,29.3266,0.2780,139,0,1,0.001840,-0.001726,-0.270654,-0.060656,-0.056939,0.116921,-0.1199,-0.8391,0.6099
57068,11.0,0.000442,-0.001189,-0.276323,-0.003505,-0.006029,-0.002645,3.1892,-4.2782,-0.0039,-0.00008383,0.00008195,0.00000258,-0.00959872,0.00868499,0.01707399,-0.8144,-0.7168,-9.7374,-0.012300,0.014188,-0.001538,8.6825,-7.4628,17.7814,29.3266,0.2780,147,0,0,0.001781,-0.001383,-0.269431,-0.060916,-0.054201,0.127837,-0.1390,-0.8463,0.6056
57079,11.0,0.000372,-0.001185,-0.276203,-0.004688,-0.006792,-0.000275,3.2475,-4.2459,-0.0048,-0.00008901,0.00008009,0.00000315,-0.00968500,0.00849811,0.01556162,-0.7848,-0.7588,-9.6827,0.011503,0.016469,-0.002795,8.6825,-7.4628,17.7814,29.3266,0.2780,141,0,0,0.001602,-0.001043,-0.273118,-0.062187,-0.053208,0.085412,-0.1455,-0.8666,0.5996
57090,11.0,0.000328,-0.001199,-0.276202,-0.005097,-0.007143,0.000453,3.2893,-4.2458,-0.0024,-0.00009387,0.00008095,0.00000346,-0.00969334,0.00843167,0.01555501,-0.7895,-0.7051,-9.6708,-0.002845,0.010089,-0.022112,8.6825,-7.4628,17.7814,29.3266,0.2780,139,0,0,0.001506,-0.001054,-0.272206,-0.062580,-0.055021,0.096969,-0.1419,-0.8711,0.5996
57101,11.0,0.000305,-0.001229,-0.275858,-0.005318,-0.007690,0.005570,3.3058,-4.2555,-0.0006,-0.00009756,0.00008346,0.00000355,-0.01000330,0.00816450,0.01216800,-0.8073,-0.6931,-9.6337,-0.018231,0.006918,-0.026229,8.6825,-7.4628,17.7814,29.3266,0.2770,139,0,0,0.001427,-0.001076,-0.270938,-0.062696,-0.056482,0.111426,-0.1435,-0.8771,0.5933
57113,12.0,0.000251,-0.001283,-0.275778,-0.006339,-0.007460,0.007919,3.3082,-4.2537,-0.0014,-0.00010066,0.00008499,0.00000370,-0.01001266,0.00812561,0.01216110,-0.8383,-0.5920,-9.5478,-0.029825,0.015502,-0.027709,8.6864,-7.4638,16.6740,29.3266,0.2770,133,0,0,0.001307,-0.001170,-0.273299,-0.063072,-0.058666,0.086547,-0.1647,-0.9015,0.5644
57124,11.0,0.000266,-0.001321,-0.275482,-0.005838,-0.006846,0.012656,3.3143,-4.2964,0.0005,-0.00010388,0.00009189,0.00000347,-0.01026523,0.00794983,0.01009115,-0.8277,-0.5611,-9.5343,-0.021968,-0.003564,-0.017401,8.6864,-7.4638,16.6740,29.3266,0.2770,144,0,0,0.001234,-0.001232,-0.272181,-0.063593,-0.059080,0.101094,-0.1835,-0.9059,0.5517
57135,11.0,0.000399,-0.001337,-0.275568,-0.003719,-0.006195,0.011799,3.3435,-4.4148,0.0009,-0.00010915,0.00010879,0.00000274,-0.01025025,0.00804850,0.01242242,-0.8856,-0.5937,-9.5653,-0.002738,-0.038187,-0.010234,8.6864,-7.4638,16.6740,29.3266,0.2770,144,0,0,0.001264,-0.001338,-0.274158,-0.062679,-0.058906,0.078866,-0.2047,-0.9531,0.5373
57146,11.0,0.000576,-0.001332,-0.275288,-0.000839,-0.005054,0.014374,3.3843,-4.5406,0.0004,-0.00011521,0.00012767,0.00000199,-0.01056742,0.00788350,0.01086000,-0.8611,-0.5721,-9.6732,0.016674,-0.052151,-0.005462,8.6864,-7.4638,16.6740,29.3266,0.2770,143,0,0,0.001379,-0.001367,-0.273159,-0.061573,-0.058975,0.092570,-0.2067,-0.9894,0.5351
57157,11.0,0.000776,-0.001319,-0.275132,0.002166,-0.004321,0.014006,3.4266,-4.6615,-0.0002,-0.00012161,0.00014668,0.00000128,-0.01073214,0.00782844,0.01083231,-0.8560,-0.6182,-9.7751,0.021005,-0.057421,-0.003477,8.6864,-7.4638,16.6740,29.3266,0.2770,143,0,0,0.001529,-0.001380,-0.272178,-0.059979,-0.058694,0.103706,-0.1989,-1.0331,0.5347
57168,11.0,0.000864,-0.001304,-0.275205,0.002787,-0.003662,0.009910,3.4673,-4.7039,-0.0019,-0.00012794,0.00015320,0.00000141,-0.01060494,0.00792211,0.01296891,-0.8699,-0.6292,-9.8773,0.021947,-0.025555,-0.010248,8.6864,-7.4638,16.6740,29.3266,0.2770,143,0,0,0.001847,-0.001389,-0.269638,-0.056762,-0.058715,0.125981,-0.1772,-1.1230,0.5339
57179,11.0,0.000810,-0.001302,-0.275097,0.001310,-0.003053,0.009762,3.4887,-4.6638,-0.0024,-0.00013207,0.00014502,0.00000231,-0.01054513,0.00789352,0.01297330,-0.8208,-0.5940,-9.7586,0.008364,0.015074,-0.017062,8.6864,-7.4638,16.6740,29.3266,0.2770,145,0,0,0.001895,-0.001395,-0.273826,-0.056534,-0.058714,0.076083,-0.1607,-1.1602,0.5279
57190,11.0,0.000697,-0.001325,-0.274792,-0.001355,-0.002363,0.013317,3.4824,-4.5991,-0.0007,-0.00013268,0.00013215,0.00000317,-0.01062064,0.00776424,0.01109251,-0.8525,-0.5281,-9.6358,-0.013760,0.033976,-0.013031,8.6864,-7.4638,16.6740,29.3266,0.2770,142,0,0,0.001712,-0.001450,-0.272112,-0.058325,-0.058377,0.095736,-0.1585,-1.1682,0.5118
57201,11.0,0.000614,-0.001340,-0.275169,-0.002957,-0.002090,0.009931,3.4828,-4.5655,-0.0008,-0.00013422,0.00012600,0.00000370,-0.01014308,0.00809185,0.01622689,-0.8278,-0.5635,-9.4702,-0.008904,0.023303,-0.007619,8.6864,-7.4638,16.6740,29.3266,0.2770,140,0,0,0.001565,-0.001500,-0.270844,-0.059828,-0.057953,0.109942,-0.1682,-1.1618,0.5065
57212,11.0,0.000712,-0.001357,-0.274898,-0.001611,-0.002223,0.014896,3.4761,-4.6220,-0.0001,-0.00013485,0.00014061,0.00000286,-0.01034956,0.00799525,0.01480969,-0.8408,-0.5893,-9.4500,-0.013521,-0.025113,-0.001470,9.9375,-6.2998,17.7908,29.3266,0.2770,141,0,0,0.001451,-0.001542,-0.274136,-0.060602,-0.057782,0.074215,-0.1713,-1.1699,0.4978
57223,11.0,0.001027,-0.001351,-0.274728,0.003325,-0.002532,0.016087,3.4915,-4.7734,0.0005,-0.00013901,0.00017886,0.00000077,-0.01055656,0.00797709,0.01478759,-0.8223,-0.6569,-9.6299,0.006896,-0.085896,-0.002317,9.9375,-6.2998,17.7908,29.3266,0.2770,145,0,0,0.001646,-0.001619,-0.272236,-0.057670,-0.058207,0.100209,-0.1851,-1.2365,0.4980
57234,11.0,0.001376,-0.001349,-0.274962,0.008199,-0.003234,0.009792,3.5043,-4.9191,0.0019,-0.00014362,0.00021666,-0.00000135,-0.01042264,0.00819208,0.01844559,-0.8382,-0.7116,-9.8723,0.001718,-0.091876,-0.008592,9.9375,-6.2998,17.7908,29.2922,0.2770,139,0,0,0.001941,-0.001637,-0.274330,-0.054128,-0.058814,0.075049,-0.1799,-1.3082,0.4986
57245,11.0,0.001588,-0.001353,-0.274871,0.010586,-0.003483,0.006745,3.5146,-4.9841,0.0008,-0.00014828,0.00023148,-0.00000199,-0.01048603,0.00817972,0.01843754,-0.8248,-0.6797,-10.0124,-0.000607,-0.052874,-0.007026,9.9375,-6.2998,17.7908,29.2922,0.2770,144,0,0,0.002256,-0.001657,-0.273390,-0.050772,-0.059755,0.085200,-0.1798,-1.3758,0.4972
57256,11.0,0.001152,-0.001361,-0.274606,0.002820,-0.004051,0.007088,3.5217,-4.8308,-0.0091,-0.00015288,0.00015885,0.00000348,-0.01038255,0.00804415,0.01660487,-0.8151,-0.7056,-9.9280,-0.004618,0.014016,-0.011846,9.9375,-6.2998,17.7908,29.2922,0.2770,141,-1,0,0.002139,-0.001714,-0.271307,-0.052175,-0.061228,0.101953,-0.1819,-1.4531,0.4894
57267,11.0,0.000998,-0.001379,-0.274521,0.000155,-0.004699,0.006757,3.5225,-4.7564,-0.0037,-0.00015745,0.00013396,0.00000562,-0.01030599,0.00803274,0.01652936,-0.8294,-0.6987,-9.7741,-0.013705,0.044136,-0.021469,9.9375,-6.2998,17.7908,29.2922,0.2760,144,0,0,0.001647,-0.001755,-0.273565,-0.057160,-0.062104,0.071529,-0.1841,-1.4598,0.4815
57278,11.0,0.000852,-0.001392,-0.274287,-0.002088,-0.004770,0.009763,3.5301,-4.6953,-0.0036,-0.00016325,0.00011338,0.00000758,-0.01035948,0.00792302,0.01514583,-0.8206,-0.6505,-9.6362,-0.006136,0.039764,-0.027991,9.9375,-6.2998,17.7908,29.2922,0.2760,143,0,0,0.001466,-0.001800,-0.272807,-0.058484,-0.062990,0.080014,-0.1924,-1.4485,0.4726
57289,11.0,0.000846,-0.001406,-0.274167,-0.002025,-0.003682,0.011903,3.5375,-4.6973,-0.0009,-0.00016807,0.00011592,0.00000785,-0.01036616,0.00790034,0.01514453,-0.8148,-0.5295,-9.5517,-0.003310,0.001440,-0.030850,9.9375,-6.2998,17.7908,29.2922,0.2760,143,0,0,0.001165,-0.001886,-0.270783,-0.060308,-0.063469,0.103016,-0.2041,-1.4369,0.4460
57300,11.0,0.000888,-0.001420,-0.274206,-0.001309,-0.002003,0.012067,3.5420,-4.7185,-0.0003,-0.00017110,0.00012586,0.00000748,-0.01026474,0.00799440,0.01668749,-0.8184,-0.4553,-9.5395,-0.001749,-0.011736,-0.019668,9.9375,-6.2998,17.7908,29.3477,0.2760,143,0,0,0.001120,-0.001928,-0.269414,-0.059824,-0.062663,0.117265,-0.2071,-1.4485,0.4307
57312,12.0,0.000946,-0.001435,-0.274046,-0.000901,-0.000702,0.014637,3.5389,-4.7445,-0.0013,-0.00017086,0.00013780,0.00000684,-0.01029457,0.00798146,0.01668657,-0.8579,-0.4747,-9.5303,-0.005469,-0.014513,-0.012023,9.9375,-6.2998,17.7908,29.3477,0.2760,142,0,0,0.001149,-0.002009,-0.272415,-0.057584,-0.059836,0.084988,-0.2066,-1.4965,0.4591
57323,11.0,0.001037,-0.001438,-0.273689,0.000326,0.000062,0.018898,3.5404,-4.7802,-0.0012,-0.00017078,0.00015386,0.00000593,-0.01047356,0.00787903,0.01510783,-0.8275,-0.5153,-9.5616,0.000917,-0.024237,-0.013719,6.9863,-6.6874,18.8915,29.3477,0.2760,141,0,0,0.001175,-0.002051,-0.271317,-0.056863,-0.058756,0.098073,-0.2111,-1.5185,0.4540
57334,11.0,0.001223,-0.001447,-0.274045,0.002607,0.001239,0.013889,3.5356,-4.8457,-0.0037,-0.00016785,0.00018396,0.00000415,-0.01015357,0.00817204,0.01981270,-0.8410,-0.4564,-9.5891,-0.003352,-0.047441,-0.013925,6.9863,-6.6874,18.8915,29.3477,0.2760,141,0,0,0.001312,-0.002117,-0.273281,-0.054246,-0.057071,0.074818,-0.2098,-1.5844,0.4425
57345,11.0,0.001443,-0.001444,-0.273752,0.005421,0.002809,0.015930,3.5374,-4.9178,-0.0047,-0.00016439,0.00021564,0.00000232,-0.01033214,0.00810801,0.01864191,-0.8211,-0.4247,-9.7172,0.007760,-0.057487,-0.008484,6.9863,-6.6874,18.8915,29.3477,0.2760,147,0,0,0.001482,-0.002154,-0.272337,-0.052122,-0.056006,0.086368,-0.2130,-1.6293,0.4357
57356,11.0,0.001646,-0.001433,-0.273578,0.008034,0.004798,0.015688,3.5391,-4.9773,-0.0056,-0.00015778,0.00023925,0.00000084,-0.01039401,0.00809286,0.01864460,-0.7893,-0.3733,-9.7777,0.014386,-0.053040,0.014983,6.9863,-6.6874,18.8915,29.3477,0.2760,147,0,0,0.001666,-0.002181,-0.271429,-0.049845,-0.054671,0.095393,-0.2107,-1.6774,0.4321
57368,12.0,0.001832,-0.001425,-0.273862,0.009725,0.005597,0.008973,3.5273,-5.0235,-0.0025,-0.00014694,0.00025482,-0.00000073,-0.01011238,0.00832980,0.02233647,-0.8281,-0.4670,-9.8526,0.000844,-0.043117,0.025793,6.9863,-6.6874,18.8915,29.3477,0.2760,138,0,0,0.001982,-0.002217,-0.273171,-0.045743,-0.051893,0.069530,-0.1962,-1.7714,0.4460
57379,11.0,0.001882,-0.001433,-0.273770,0.009751,0.005003,0.007796,3.5050,-5.0190,0.0033,-0.00013381,0.00024340,-0.00000132,-0.01009735,0.00835053,0.02233797,-0.8009,-0.5657,-9.8464,-0.013471,-0.008099,0.025587,6.9863,-6.6874,18.8915,29.3477,0.2760,145,0,0,0.002103,-0.002245,-0.272295,-0.044538,-0.051417,0.078445,-0.1982,-1.8076,0.4608
57390,11.0,0.001840,-0.001428,-0.273502,0.008624,0.004572,0.010004,3.4940,-4.9854,0.0060,-0.00012442,0.00021415,-0.00000075,-0.01017067,0.00828810,0.02086919,-0.7813,-0.5661,-9.7401,-0.001512,0.014039,0.029311,6.9863,-6.6874,18.8915,29.3477,0.2760,143,0,0,0.002103,-0.002321,-0.270579,-0.044412,-0.052238,0.093525,-0.2151,-1.8396,0.4919
57401,11.0,0.001835,-0.001407,-0.273970,0.008154,0.003542,0.004296,3.4936,-4.9676,0.0038,-0.00011879,0.00019381,-0.00000024,-0.00976389,0.00854055,0.02541273,-0.7689,-0.6422,-9.6326,0.009826,0.002249,0.027347,6.9863,-6.6874,18.8915,29.3477,0.2760,141,0,0,0.002025,-0.002343,-0.273238,-0.044825,-0.052842,0.061977,-0.2136,-1.8499,0.5093
57412,11.0,0.001901,-0.001396,-0.273777,0.008565,0.002504,0.007309,3.4905,-4.9738,0.0007,-0.00011435,0.00018832,-0.00000030,-0.00984684,0.00849045,0.02430622,-0.7782,-0.6462,-9.6115,0.002768,-0.015002,0.025319,7.8230,-7.0720,18.1618,29.3477,0.2760,149,0,0,0.001983,-0.002358,-0.272573,-0.044822,-0.053694,0.071244,-0.2103,-1.8628,0.5028
57423,11.0,0.002005,-0.001384,-0.273693,0.009399,0.001477,0.007907,3.4902,-4.9910,0.0005,-0.00011232,0.00018913,-0.00000056,-0.00985441,0.00850004,0.02430649,-0.7859,-0.6637,-9.6777,0.003916,-0.024581,0.024715,7.8230,-7.0720,18.1618,29.3477,0.2760,142,0,0,0.002068,-0.002394,-0.270757,-0.043250,-0.055406,0.092132,-0.2073,-1.9113,0.5350
57434,11.0,0.002125,-0.001397,-0.273434,0.010023,0.000164,0.009822,3.4757,-5.0100,-0.0001,-0.00010768,0.00019234,-0.00000113,-0.00996762,0.00843725,0.02298249,-0.8261,-0.6791,-9.7399,-0.017109,-0.025446,0.011145,7.8230,-7.0720,18.1618,29.4429,0.2750,139,0,0,0.002142,-0.002416,-0.269792,-0.042284,-0.056341,0.100886,-0.2078,-1.9401,0.5496
57446,12.0,0.002217,-0.001430,-0.273322,0.009954,-0.001206,0.008787,3.4487,-5.0143,0.0006,-0.00010167,0.00018576,-0.00000124,-0.00996001,0.00845214,0.02298158,-0.8468,-0.6718,-9.8147,-0.033338,-0.012648,0.000862,7.8230,-7.0720,18.1618,29.4429,0.2750,139,0,0,0.002282,-0.002512,-0.271895,-0.041076,-0.058703,0.075359,-0.2340,-1.9970,0.5595
57457,11.0,0.002251,-0.001454,-0.273086,0.009119,-0.002025,0.009133,3.4337,-5.0046,-0.0000,-0.00010020,0.00016920,-0.00000030,-0.01003349,0.00839051,0.02183939,-0.8651,-0.6536,-9.8592,-0.022876,-0.001880,-0.004066,7.8230,-7.0720,18.1618,29.4429,0.2750,139,0,0,0.002321,-0.002574,-0.270951,-0.041106,-0.059723,0.084211,-0.2536,-2.0167,0.5616
57468,11.0,0.001839,-0.001045,-0.273806,0.002163,0.003403,-0.002014,3.4879,-4.9303,-0.0057,-0.00019653,0.00005478,0.00001517,-0.00941936,0.00863267,0.02787059,-0.9111,-0.5970,-9.8747,-0.009977,0.002774,0.000503,7.8230,-7.0720,18.1618,29.4429,0.2760,143,-1,1,0.002325,-0.002628,-0.270075,-0.041615,-0.060466,0.091065,-0.2679,-2.0315,0.5613
57479,11.0,0.001751,-0.001024,-0.273725,0.000541,0.003117,-0.002041,3.4946,-4.9023,0.0002,-0.00019306,0.00002953,0.00001648,-0.00946555,0.00858612,0.02701589,-0.8820,-0.6019,-9.8505,0.014830,0.021239,0.011275,7.8230,-7.0720,18.1618,29.4429,0.2760,142,0,0,0.001843,-0.002304,-0.272540,-0.047791,-0.056666,0.061512,-0.2710,-2.0545,0.5620
57490,11.0,0.001625,-0.000998,-0.273752,-0.001755,0.002585,-0.002947,3.5042,-4.8663,-0.0002,-0.00019172,-0.00000038,0.00001830,-0.00943338,0.00859001,0.02701259,-0.9142,-0.6332,-9.8032,0.017307,0.030535,0.011824,7.8230,-7.0720,18.1618,29.4429,0.2760,140,0,0,0.001726,-0.002317,-0.271892,-0.048959,-0.056810,0.068217,-0.2629,-2.0549,0.5701
57500,10.0,0.001426,-0.000980,-0.273546,-0.004769,0.002127,0.000207,3.5104,-4.8148,-0.0005,-0.00019009,-0.00004258,0.00002090,-0.00953917,0.00848842,0.02529943,-0.9141,-0.6238,-9.6806,0.013267,0.050038,0.009980,7.8230,-7.0720,18.1618,29.4429,0.2750,140,0,0,0.001580,-0.002328,-0.270990,-0.050549,-0.057215,0.077361,-0.2542,-2.0503,0.5778
57511,11.0,0.001244,-0.000976,-0.273531,-0.006815,0.001349,0.002531,3.5075,-4.7699,-0.0003,-0.00018633,-0.00007336,0.00002259,-0.00950772,0.00849450,0.02529611,-0.8551,-0.6295,-9.5151,-0.001032,0.045647,0.004808,6.5642,-6.6874,17.4197,29.4429,0.2750,138,0,0,0.001155,-0.002363,-0.272378,-0.054528,-0.058128,0.063738,-0.2405,-2.0255,0.5758
57522,11.0,0.001143,-0.000987,-0.273317,-0.008217,0.000950,0.008446,3.4962,-4.7510,0.0006,-0.00017982,-0.00007823,0.00002230,-0.00960739,0.00842444,0.02406823,-0.9004,-0.5742,-9.3696,-0.012353,0.026331,0.005408,6.5642,-6.6874,17.4197,29.3847,0.2750,144,0,0,0.000966,-0.002397,-0.271523,-0.055743,-0.058573,0.075659,-0.2432,-2.0137,0.5801
57534,12.0,0.001118,-0.000990,-0.273386,-0.008250,0.000928,0.010846,3.4907,-4.7594,0.0007,-0.00017614,-0.00005819,0.00002067,-0.00950750,0.00851847,0.02549074,-0.8750,-0.5491,-9.3352,-0.004258,0.002907,0.015388,6.5642,-6.6874,17.4197,29.3847,0.2750,139,0,0,0.000839,-0.002441,-0.270711,-0.056492,-0.058625,0.086814,-0.2512,-2.0113,0.5845
57545,11.0,0.001273,-0.000990,-0.273122,-0.006103,0.000358,0.015571,3.4873,-4.8163,0.0014,-0.00017419,0.00000620,0.00001629,-0.00966514,0.00846124,0.02455923,-0.8896,-0.6123,-9.4353,-0.002591,-0.041300,0.020611,6.5642,-6.6874,17.4197,29.3847,0.2750,139,0,0,0.000796,-0.002515,-0.271984,-0.055199,-0.058205,0.077610,-0.2572,-2.0461,0.6029
57556,11.0,0.001488,-0.000991,-0.272943,-0.003670,-0.000765,0.016893,3.4834,-4.8854,0.0027,-0.00017475,0.00008156,0.00001126,-0.00974312,0.00846747,0.02456547,-0.9267,-0.6815,-9.5979,-0.005720,-0.054892,0.015136,6.5642,-6.6874,17.4197,29.3847,0.2750,140,0,0,0.000915,-0.002546,-0.271156,-0.053295,-0.058383,0.088261,-0.2601,-2.0837,0.6163
57567,11.0,0.002128,-0.000961,-0.273057,0.004253,-0.001297,0.012668,3.5034,-5.0028,0.0075,-0.00018700,0.00026417,-0.00000019,-0.00974282,0.00858922,0.02664794,-0.8998,-0.6873,-9.7895,0.023757,-0.059991,0.009129,6.5642,-6.6874,17.4197,29.3847,0.2750,139,1,0,0.001672,-0.002590,-0.271886,-0.044794,-0.059883,0.078056,-0.2599,-2.1839,0.6372
57578,11.0,0.002347,-0.000952,-0.272932,0.006218,-0.001417,0.010105,3.5119,-5.0577,0.0015,-0.00019419,0.00031164,-0.00000278,-0.00978048,0.00858668,0.02665126,-0.9016,-0.6426,-9.9554,0.008213,-0.055386,-0.000013,6.5642,-6.6874,17.4197,29.2922,0.2750,134,0,0,0.001860,-0.002591,-0.270885,-0.043022,-0.060375,0.087078,-0.2475,-2.2326,0.6431
57589,11.0,0.002333,-0.000936,-0.272633,0.005049,-0.000778,0.010266,3.5256,-5.0467,-0.0019,-0.00020220,0.00028863,-0.00000046,-0.00989555,0.00848587,0.02522358,-0.9076,-0.5778,-9.9316,0.016985,0.003516,0.008300,6.5642,-6.6874,17.4197,29.2922,0.2750,139,0,0,0.002112,-0.002632,-0.269037,-0.041324,-0.060153,0.097714,-0.2379,-2.3080,0.6458
57600,11.0,0.001800,-0.000904,-0.272470,-0.002206,-0.000150,0.009363,3.5481,-4.9654,-0.0062,-0.00021325,0.00012117,0.00001169,-0.00982247,0.00845032,0.02481158,-0.8875,-0.5885,-9.8728,0.030204,0.026466,0.017369,6.5642,-6.6874,17.4197,29.2922,0.2740,144,-1,0,0.001625,-0.002644,-0.271556,-0.046761,-0.059735,0.064819,-0.2217,-2.3149,0.6502
57611,11.0,0.001769,-0.000899,-0.272215,-0.002468,-0.000305,0.011241,3.5515,-4.9607,-0.0003,-0.00021556,0.00011925,0.00001204,-0.00992254,0.00837678,0.02373091,-0.8760,-0.6199,-9.7250,0.004374,0.006698,0.005128,9.0970,-6.6874,17.7877,29.2922,0.2740,144,0,0,0.001471,-0.002651,-0.270876,-0.047817,-0.059534,0.071264,-0.2081,-2.3126,0.6218
57622,11.0,0.001768,-0.000924,-0.272094,-0.002448,-0.001067,0.010750,3.5351,-4.9613,0.0010,-0.00021020,0.00012749,0.00001097,-0.00992381,0.00838356,0.02373093,-0.8909,-0.6481,-9.7696,-0.024057,0.003265,-0.010764,9.0970,-6.6874,17.7877,29.2922,0.2740,140,0,0,0.001356,-0.002709,-0.269074,-0.047948,-0.060085,0.087865,-0.2075,-2.3303,0.6245
57634,12.0,0.001741,-0.000958,-0.272673,-0.002173,-0.000950,0.002648,3.5149,-4.9556,0.0007,-0.00020396,0.00012907,0.00001028,-0.00947656,0.00870458,0.02848773,-0.8359,-0.5595,-9.7185,-0.027110,0.008966,-0.008785,9.0970,-6.6874,17.7877,29.2922,0.2750,143,0,0,0.001329,-0.002765,-0.272190,-0.047704,-0.060516,0.051184,-0.2187,-2.3481,0.6171
57645,11.0,0.001686,-0.000981,-0.272641,-0.002068,-0.000640,0.003092,3.5025,-4.9424,0.0002,-0.00019917,0.00011829,0.00001054,-0.00947471,0.00870166,0.02848778,-0.8056,-0.5435,-9.6932,-0.017227,0.015310,0.000478,9.0970,-6.6874,17.7877,29.2922,0.2750,141,0,0,0.001284,-0.002828,-0.271480,-0.047297,-0.060384,0.060185,-0.2351,-2.3566,0.6129
57656,11.0,0.001594,-0.001003,-0.272402,-0.003011,-0.001242,0.006196,3.4880,-4.9194,0.0001,-0.00019511,0.00009676,0.00001155,-0.00959133,0.00861352,0.02711297,-0.8594,-0.6255,-9.6622,-0.020348,0.025639,0.005861,9.0970,-6.6874,17.7877,29.2922,0.2750,141,0,0,0.001135,-0.002932,-0.269873,-0.046952,-0.059942,0.077979,-0.2555,-2.3661,0.6145
57667,11.0,0.001483,-0.001018,-0.272966,-0.004377,-0.002114,0.000240,3.4789,-4.8937,-0.0005,-0.00019700,0.00007440,0.00001318,-0.00918153,0.00889409,0.03133139,-0.8816,-0.6603,-9.5800,-0.015635,0.029634,-0.001182,9.0970,-6.6874,17.7877,29.2922,0.2750,144,0,0,0.001023,-0.002985,-0.272480,-0.047515,-0.060415,0.048248,-0.2657,-2.3691,0.6168
57678,11.0,0.001387,-0.000998,-0.272798,-0.005406,-0.002527,0.004332,3.4939,-4.8764,-0.0019,-0.00021235,0.00005995,0.00001557,-0.00926911,0.00881665,0.03029096,-0.8726,-0.6626,-9.5138,0.016831,0.020889,0.009157,9.0970,-6.6874,17.7877,29.2922,0.2750,144,0,0,0.000897,-0.003037,-0.271957,-0.048414,-0.061100,0.056558,-0.2776,-2.3653,0.6172
57689,11.0,0.001485,-0.000972,-0.272738,-0.004311,-0.002892,0.006595,3.5142,-4.9107,0.0007,-0.00023192,0.00011241,0.00001377,-0.00929802,0.00880976,0.03029351,-0.9027,-0.6726,-9.5087,0.022434,-0.029039,0.001901,9.0970,-6.6874,17.7877,29.2922,0.2750,142,0,0,0.000723,-0.003064,-0.270422,-0.049111,-0.061830,0.076960,-0.2600,-2.3763,0.6272
57700,11.0,0.001670,-0.000951,-0.272981,-0.002241,-0.003355,0.004068,3.5311,-4.9651,0.0025,-0.00025146,0.00018983,0.00001013,-0.00915484,0.00893476,0.03238370,-0.9076,-0.6887,-9.5999,0.017272,-0.049906,0.001253,9.0970,-6.6874,17.7877,29.2922,0.2750,142,0,0,0.000779,-0.003069,-0.269291,-0.048029,-0.062077,0.089625,-0.2474,-2.4052,0.6297
57711,11.0,0.001842,-0.000935,-0.272934,-0.000161,-0.003824,0.004398,3.5462,-5.0130,0.0028,-0.00027143,0.00025578,0.00000719,-0.00919309,0.00892980,0.03238692,-0.8820,-0.6978,-9.6834,0.013777,-0.046122,-0.005307,9.0970,-6.6874,17.7877,29.2922,0.2750,143,0,0,0.001066,-0.003090,-0.271925,-0.044062,-0.062782,0.061546,-0.2260,-2.4940,0.6510
57722,11.0,0.001920,-0.000935,-0.272701,0.000902,-0.004023,0.006356,3.5526,-5.0327,0.0005,-0.00028670,0.00028219,0.00000669,-0.00932236,0.00883753,0.03115738,-0.8577,-0.6654,-9.7451,0.002051,-0.020215,-0.011065,7.4161,-7.8494,18.1494,29.3266,0.2750,141,0,0,0.001171,-0.003107,-0.271075,-0.042246,-0.063269,0.070551,-0.2195,-2.5293,0.6486
57734,12.0,0.001887,-0.000953,-0.273064,0.000116,-0.004153,0.001136,3.5506,-5.0211,-0.0020,-0.00029902,0.00026824,0.00000886,-0.00905395,0.00902495,0.03393849,-0.8936,-0.6410,-9.7245,-0.009798,0.010687,-0.019395,7.4161,-7.8494,18.1494,29.3266,0.2750,142,0,0,0.001213,-0.003176,-0.272701,-0.041026,-0.063630,0.049598,-0.2196,-2.5741,0.6348
57745,11.0,0.001806,-0.000969,-0.272903,-0.001181,-0.004478,0.003655,3.5476,-4.9989,-0.0030,-0.00031046,0.00024047,0.00001196,-0.00912693,0.00895356,0.03299669,-0.8930,-0.6578,-9.6429,-0.011732,0.022340,-0.022766,7.4161,-7.8494,18.1494,29.3266,0.2750,144,0,0,0.001152,-0.003222,-0.272019,-0.041751,-0.063699,0.058011,-0.2258,-2.5801,0.6246
57756,11.0,0.001741,-0.000985,-0.272854,-0.002844,-0.004634,0.005349,3.5452,-4.9821,-0.0025,-0.00032319,0.00022480,0.00001435,-0.00911115,0.00894935,0.03299505,-0.9520,-0.6388,-9.5558,-0.011507,0.018847,-0.024940,7.4161,-7.8494,18.1494,29.3266,0.2750,138,0,0,0.001059,-0.003269,-0.271403,-0.042715,-0.063919,0.065398,-0.2328,-2.5810,0.6125
57767,11.0,0.001757,-0.000992,-0.273032,-0.003246,-0.003866,0.004504,3.5503,-4.9889,-0.0006,-0.00033874,0.00024401,0.00001451,-0.00897751,0.00904999,0.03454255,-0.9381,-0.5590,-9.5283,-0.000196,-0.003851,-0.018610,7.4161,-7.8494,18.1494,29.3266,0.2750,141,0,0,0.000929,-0.003361,-0.272244,-0.044533,-0.063474,0.058550,-0.2411,-2.5955,0.5855
57778,11.0,0.001925,-0.000994,-0.272976,-0.001489,-0.003431,0.005769,3.5575,-5.0337,0.0017,-0.00035359,0.00031886,0.00001080,-0.00901421,0.00904079,0.03454652,-0.9146,-0.5935,-9.5993,0.003017,-0.043129,-0.022186,7.4161,-7.8494,18.1494,29.3266,0.2750,139,0,0,0.000938,-0.003396,-0.271442,-0.044453,-0.062669,0.069169,-0.2400,-2.6144,0.5746
57789,11.0,0.002158,-0.000993,-0.272725,0.001266,-0.002675,0.008073,3.5658,-5.0923,0.0018,-0.00036639,0.00040954,0.00000591,-0.00917363,0.00895071,0.03336641,-0.8859,-0.5670,-9.7145,0.005555,-0.059672,-0.023940,7.4161,-7.8494,18.1494,29.3266,0.2750,140,0,0,0.001066,-0.003425,-0.270712,-0.042928,-0.062184,0.077042,-0.2375,-2.6528,0.5631
57800,11.0,0.002256,-0.001004,-0.273045,0.002563,-0.001325,0.002346,3.5670,-5.1146,-0.0005,-0.00037121,0.00044053,0.00000447,-0.00895368,0.00911025,0.03583962,-0.8581,-0.4951,-9.8189,-0.001903,-0.024309,-0.016837,7.4161,-7.8494,18.1494,29.3028,0.2750,144,0,0,0.001407,-0.003479,-0.271994,-0.038723,-0.060612,0.059606,-0.2273,-2.7469,0.5377
57811,11.0,0.002122,-0.001011,-0.272870,0.000910,-0.000323,0.004130,3.5669,-5.0787,0.0002,-0.00037164,0.00037916,0.00000828,-0.00901749,0.00904542,0.03489244,-0.8599,-0.5102,-9.7268,-0.001269,0.034430,-0.008295,7.4047,-7.4596,17.7908,29.3028,0.2750,139,0,0,0.001451,-0.003519,-0.271371,-0.037863,-0.059431,0.065080,-0.2284,-2.7736,0.4874
57822,11.0,0.001913,-0.001019,-0.272815,-0.001706,0.000230,0.005817,3.5639,-5.0265,0.0009,-0.00036859,0.00029627,0.00001302,-0.00897965,0.00903937,0.03488833,-0.8684,-0.5314,-9.5685,-0.003675,0.053672,-0.000630,7.4047,-7.4596,17.7908,29.3028,0.2750,139,0,0,0.001138,-0.003597,-0.269668,-0.040553,-0.058048,0.081455,-0.2322,-2.7561,0.4794
57833,11.0,0.001883,-0.001012,-0.272990,-0.002038,0.000712,0.006424,3.5683,-5.0222,0.0000,-0.00036920,0.00029272,0.00001329,-0.00882929,0.00914083,0.03644554,-0.8588,-0.5353,-9.3907,0.006862,0.006300,0.005279,7.4047,-7.4596,17.7908,29.3028,0.2750,145,0,0,0.000932,-0.003633,-0.272616,-0.042184,-0.057686,0.049414,-0.2316,-2.7445,0.4770
57844,11.0,0.002089,-0.000995,-0.272904,0.000619,0.001177,0.009224,3.5796,-5.0762,-0.0024,-0.00037189,0.00038107,0.00000843,-0.00887901,0.00913381,0.03645139,-0.8470,-0.5493,-9.4658,0.016263,-0.055176,0.000668,7.4047,-7.4596,17.7908,29.3028,0.2750,140,0,0,0.000870,-0.003659,-0.271905,-0.042262,-0.057218,0.060788,-0.2287,-2.7522,0.4792
57855,11.0,0.002454,-0.000997,-0.272606,0.005104,0.001541,0.011750,3.5778,-5.1636,-0.0034,-0.00036466,0.00051981,-0.00000021,-0.00906259,0.00906422,0.03526199,-0.8450,-0.5477,-9.7065,-0.001220,-0.091926,0.001731,7.4047,-7.4596,17.7908,29.3028,0.2750,146,0,0,0.001242,-0.003691,-0.270512,-0.037006,-0.056264,0.077982,-0.2152,-2.8491,0.4820
57867,12.0,0.002715,-0.001002,-0.272951,0.008273,0.001665,0.004050,3.5711,-5.2233,-0.0016,-0.00035376,0.00059721,-0.00000563,-0.00883722,0.00923408,0.03805228,-0.8335,-0.5762,-9.9061,-0.006403,-0.062368,0.006959,7.4047,-7.4596,17.7908,29.3028,0.2750,141,0,0,0.001555,-0.003720,-0.272590,-0.033121,-0.055992,0.053318,-0.2150,-2.9196,0.4825
57878,11.0,0.002810,-0.001022,-0.272776,0.008571,0.000932,0.002250,3.5555,-5.2355,0.0008,-0.00033916,0.00059816,-0.00000701,-0.00892294,0.00918478,0.03713629,-0.9079,-0.6477,-10.0400,-0.020506,-0.018600,0.000630,7.4047,-7.4596,17.7908,29.3028,0.2750,140,0,0,0.001951,-0.003787,-0.271236,-0.028679,-0.056543,0.063877,-0.2239,-3.0136,0.4915
57889,11.0,0.002758,-0.001062,-0.272768,0.007244,0.000446,-0.000771,3.5295,-5.2103,0.0025,-0.00031847,0.00053731,-0.00000533,-0.00890924,0.00918944,0.03713377,-0.8928,-0.6042,-9.9900,-0.035927,0.020568,-0.013618,7.4047,-7.4596,17.7908,29.3028,0.2740,141,0,0,0.001983,-0.003839,-0.270583,-0.028940,-0.057388,0.066826,-0.2379,-3.0317,0.4899
57900,11.0,0.002632,-0.001094,-0.272440,0.005226,0.000715,0.001349,3.5110,-5.1695,0.0034,-0.00030199,0.00045108,-0.00000190,-0.00907926,0.00907631,0.03511891,-0.8794,-0.5358,-9.8953,-0.025862,0.037357,-0.015076,7.4047,-7.4596,17.7908,29.3028,0.2740,141,0,0,0.001917,-0.003904,-0.272124,-0.030021,-0.057955,0.045983,-0.2564,-3.0356,0.4823
57911,11.0,0.002453,-0.001130,-0.272426,0.002611,0.001355,0.001191,3.4896,-5.1186,0.0048,-0.00028061,0.00035193,0.00000168,-0.00906143,0.00906853,0.03511558,-0.8819,-0.4792,-9.7388,-0.027603,0.050542,-0.004060,6.9863,-6.6874,17.4197,29.3028,0.2740,138,0,0,0.001646,-0.004030,-0.270943,-0.033406,-0.057347,0.056941,-0.2865,-3.0196,0.4451
57922,11.0,0.002260,-0.001134,-0.272195,-0.000281,0.001441,0.005593,3.4851,-5.0700,0.0045,-0.00027237,0.00025956,0.00000594,-0.00915334,0.00900152,0.03387981,-0.9004,-0.5457,-9.5450,-0.003752,0.050298,0.009974,6.9863,-6.6874,17.4197,29.2685,0.2740,148,0,0,0.001454,-0.004092,-0.270080,-0.035442,-0.056823,0.066010,-0.3017,-3.0020,0.4439
57933,11.0,0.002189,-0.001111,-0.273375,-0.001420,0.000722,-0.006552,3.4935,-5.0554,0.0010,-0.00027519,0.00023057,0.00000782,-0.00849117,0.00939885,0.04106381,-0.8884,-0.6466,-9.4824,0.014551,0.016269,0.018763,6.9863,-6.6874,17.4197,29.2685,0.2760,134,0,0,0.001254,-0.004131,-0.269382,-0.037549,-0.056632,0.073647,-0.3054,-2.9854,0.4491
57945,12.0,0.002312,-0.001091,-0.273279,0.000026,-0.000364,-0.002564,3.5028,-5.0897,-0.0013,-0.00028362,0.00029132,0.00000494,-0.00859658,0.00934405,0.04010583,-0.8741,-0.6847,-9.5379,0.011717,-0.032948,0.011564,6.9863,-6.6874,17.4197,29.2685,0.2760,141,0,0,0.001123,-0.004162,-0.272616,-0.038317,-0.057703,0.043555,-0.2924,-3.0044,0.4642
57956,11.0,0.002545,-0.001070,-0.273302,0.003003,-0.001424,-0.001704,3.5143,-5.1459,0.0002,-0.00029862,0.00039051,-0.00000011,-0.00862899,0.00934901,0.04011043,-0.8430,-0.7145,-9.6298,0.013845,-0.060065,0.006800,6.9863,-6.6874,17.4197,29.2685,0.2760,146,0,0,0.001205,-0.004175,-0.272142,-0.036967,-0.058487,0.051466,-0.2858,-3.0355,0.4706
57967,11.0,0.002784,-0.000639,-0.272673,0.006062,0.002556,0.004871,3.5489,-5.1991,-0.0072,-0.00049607,0.00047999,0.00001175,-0.00898669,0.00909064,0.03644668,-0.8310,-0.7083,-9.8056,-0.002178,-0.059491,-0.001120,6.9863,-6.6874,17.4197,29.2685,0.2740,142,0,1,0.001570,-0.003807,-0.272447,-0.031711,-0.056186,0.048830,-0.2719,-3.1319,0.4747
57978,11.0,0.002904,-0.000630,-0.272634,0.007391,0.000830,0.002164,3.5484,-5.2212,0.0016,-0.00049228,0.00050149,0.00000979,-0.00899383,0.00910280,0.03644717,-0.8511,-0.7573,-9.9562,-0.000766,-0.028969,-0.004317,6.9863,-6.6874,17.4197,29.2685,0.2740,140,0,0,0.001765,-0.003834,-0.271767,-0.029040,-0.057611,0.055293,-0.2749,-3.1791,0.4745
57989,11.0,0.002801,-0.000619,-0.272417,0.006186,-0.001944,0.001808,3.5497,-5.1890,-0.0057,-0.00050031,0.00041700,0.00001687,-0.00909117,0.00902885,0.03524829,-0.8367,-0.8833,-9.9645,-0.002158,0.027439,-0.016661,6.9863,-6.6874,17.4197,29.2685,0.2740,138,0,0,0.001830,-0.003871,-0.270591,-0.027646,-0.061336,0.062118,-0.2708,-3.2210,0.4705
58000,11.0,0.002193,-0.000631,-0.273479,-0.000915,-0.004049,-0.013022,3.5430,-5.1055,-0.0249,-0.00051200,0.00010935,0.00004210,-0.00853983,0.00942011,0.04113684,-0.8499,-0.8243,-9.9222,-0.017260,0.047699,-0.032083,6.9863,-6.6874,17.4197,29.2685,0.2760,142,-1,0,0.001282,-0.003908,-0.273181,-0.033204,-0.063663,0.030442,-0.2731,-3.2121,0.4551
58011,11.0,0.001871,-0.000658,-0.273464,-0.004350,-0.004734,-0.011321,3.5323,-5.0278,-0.0120,-0.00052138,-0.00003241,0.00005417,-0.00860879,0.00935727,0.04022336,-0.8689,-0.6812,-9.7277,-0.023063,0.083163,-0.038257,6.9939,-5.9162,16.3092,29.2685,0.2760,145,0,0,0.001034,-0.003957,-0.272857,-0.035101,-0.064564,0.034328,-0.2799,-3.1889,0.4097
58022,11.0,0.001522,-0.000687,-0.273577,-0.008031,-0.004568,-0.009343,3.5236,-4.9473,-0.0105,-0.00053179,-0.00016923,0.00006570,-0.00858889,0.00935538,0.04021808,-0.8742,-0.5910,-9.5321,-0.020728,0.088999,-0.046302,6.9939,-5.9162,16.3092,29.2685,0.2760,143,0,0,0.000392,-0.004081,-0.271823,-0.040633,-0.065335,0.048798,-0.3046,-3.1150,0.3630
58033,11.0,0.001338,-0.000705,-0.272890,-0.009958,-0.003939,0.003502,3.5210,-4.9105,-0.0029,-0.00054301,-0.00020978,0.00006974,-0.00894799,0.00904441,0.03603145,-0.9044,-0.5444,-9.3602,-0.009291,0.046146,-0.025607,6.9939,-5.9162,16.3092,29.2685,0.2740,145,0,0,0.000081,-0.004137,-0.272673,-0.043140,-0.064559,0.041668,-0.3105,-3.0822,0.3394
58044,11.0,0.001299,-0.000723,-0.272826,-0.010534,-0.003607,0.008125,3.5170,-4.9092,0.0013,-0.00055431,-0.00017309,0.00006811,-0.00895870,0.00904106,0.03603311,-0.9473,-0.5601,-9.2903,-0.011851,0.009783,-0.024596,6.9939,-5.9162,16.3092,29.2685,0.2740,141,0,0,-0.000116,-0.004187,-0.272043,-0.044475,-0.063689,0.052765,-0.3152,-3.0674,0.3247
58055,11.0,0.001549,-0.000740,-0.272512,-0.007057,-0.002832,0.013748,3.5151,-4.9752,0.0059,-0.00056294,-0.00000153,0.00005692,-0.00911845,0.00895083,0.03488985,-0.8921,-0.5233,-9.4341,-0.008398,-0.063656,-0.029074,6.9939,-5.9162,16.3092,29.2685,0.2760,140,0,0,-0.000153,-0.004281,-0.273278,-0.043658,-0.062305,0.043951,-0.3227,-3.0981,0.2980
58066,11.0,0.001837,-0.000748,-0.273485,-0.003688,-0.001926,0.001902,3.5186,-5.0471,0.0026,-0.00057635,0.00017097,0.00004674,-0.00862617,0.00939857,0.04096604,-0.9267,-0.5206,-9.5915,-0.001603,-0.072963,-0.026326,6.9939,-5.9162,16.3092,29.2685,0.2760,143,0,0,0.000067,-0.004325,-0.272797,-0.040435,-0.061512,0.052303,-0.3268,-3.1508,0.2829
58077,11.0,0.002053,-0.000733,-0.273308,-0.000909,-0.000063,0.003276,3.5355,-5.1017,-0.0006,-0.00058880,0.00029257,0.00004033,-0.00874327,0.00932991,0.04009220,-0.8908,-0.4529,-9.7697,0.021069,-0.058037,-0.020991,6.9939,-5.9162,16.3092,29.2685,0.2760,144,0,0,0.000318,-0.004363,-0.272240,-0.037337,-0.060675,0.059358,-0.3279,-3.2082,0.2683
58088,11.0,0.002089,-0.000732,-0.273277,-0.000424,0.002790,0.002415,3.5427,-5.1121,-0.0019,-0.00058006,0.00031472,0.00003865,-0.00874725,0.00930197,0.04009475,-0.8920,-0.3237,-9.8069,0.012625,-0.011148,-0.005718,6.9939,-5.9162,16.3092,29.2685,0.2740,144,0,0,0.000645,-0.004400,-0.270671,-0.032822,-0.057334,0.072370,-0.3063,-3.2972,0.2449
58099,11.0,0.001924,-0.000738,-0.272661,-0.001956,0.004802,0.010153,3.5384,-5.0752,0.0060,-0.00055404,0.00023642,0.00004008,-0.00901305,0.00909523,0.03700533,-0.8467,-0.3530,-9.6474,0.000581,0.040955,0.014064,6.9939,-5.9162,16.3092,29.2685,0.2740,139,0,0,0.000646,-0.004428,-0.272078,-0.032424,-0.054911,0.053708,-0.2981,-3.3169,0.2415
58110,11.0,0.001348,-0.000743,-0.272541,-0.008191,0.005445,0.011628,3.5299,-5.0127,0.0194,-0.00052257,-0.00003226,0.00005000,-0.00893857,0.00908773,0.03699609,-0.8561,-0.4604,-9.5912,-0.003835,0.037336,0.025828,8.6787,-6.6885,16.6806,29.2685,0.2740,140,-1,0,0.000508,-0.004464,-0.271512,-0.033352,-0.052994,0.059553,-0.2976,-3.3107,0.2478
58121,11.0,0.001390,-0.000735,-0.272193,-0.007198,0.004979,0.016511,3.5259,-5.0310,-0.0029,-0.00049676,0.00003307,0.00004444,-0.00906290,0.00903033,0.03588321,-0.8965,-0.5662,-9.4972,0.000966,-0.012563,0.021092,8.6787,-6.6885,16.6806,29.2685,0.2770,140,0,0,-0.000142,-0.004531,-0.269907,-0.038707,-0.052424,0.076836,-0.3038,-3.2985,0.2930
58132,11.0,0.001561,-0.000723,-0.273857,-0.003822,0.004402,-0.003280,3.5241,-5.0789,-0.0058,-0.00047288,0.00015497,0.00003615,-0.00820052,0.00957899,0.04554764,-0.8034,-0.5890,-9.5510,0.004133,-0.045942,0.019970,8.6787,-6.6885,16.6806,29.3266,0.2770,139,0,0,-0.000135,-0.004556,-0.273618,-0.037799,-0.052791,0.035848,-0.3031,-3.3213,0.3036
58143,11.0,0.001757,-0.000706,-0.273749,-0.000845,0.003769,-0.001289,3.5273,-5.1293,-0.0052,-0.00045879,0.00027156,0.00002882,-0.00830679,0.00954337,0.04478730,-0.8490,-0.6173,-9.6838,0.009538,-0.051772,0.023636,8.6787,-6.6885,16.6806,29.3266,0.2770,133,0,0,0.000154,-0.004595,-0.272592,-0.032054,-0.053741,0.051304,-0.2999,-3.4029,0.3287
58154,11.0,0.001894,-0.000692,-0.273770,0.001496,0.002072,-0.002462,3.5272,-5.1626,-0.0011,-0.00044967,0.00034200,0.00002388,-0.00832864,0.00955637,0.04478944,-0.8294,-0.7323,-9.8111,0.002452,-0.035851,0.013832,8.6787,-6.6885,16.6806,29.3266,0.2740,136,0,0,0.000317,-0.004609,-0.272052,-0.029508,-0.054496,0.056891,-0.2958,-3.4460,0.3430
58165,11.0,0.001980,-0.000713,-0.272912,0.002516,-0.000077,0.006816,3.5089,-5.1784,0.0001,-0.00043492,0.00037623,0.00002047,-0.00875999,0.00932581,0.04021899,-0.8792,-0.7584,-9.8011,-0.027369,-0.017726,-0.007391,8.6787,-6.6885,16.6806,29.3266,0.2740,136,0,0,0.000542,-0.004658,-0.272037,-0.026110,-0.057805,0.054094,-0.3007,-3.5141,0.3562
58176,11.0,0.001595,-0.000745,-0.272841,-0.001505,-0.001336,0.006106,3.4885,-5.1515,0.0004,-0.00042206,0.00016458,0.00003264,-0.00872525,0.00933511,0.04021246,-0.8335,-0.6801,-9.7763,-0.032159,-0.005643,-0.023963,8.6787,-6.6885,16.6806,29.3266,0.2740,136,-1,0,0.000189,-0.004716,-0.271285,-0.029765,-0.059655,0.060754,-0.3178,-3.5306,0.3501
58187,11.0,0.001647,-0.000762,-0.272592,-0.000043,-0.001402,0.007588,3.4813,-5.1631,0.0000,-0.00042126,0.00019760,0.00003049,-0.00881894,0.00928264,0.03924343,-0.8300,-0.5935,-9.7853,-0.013583,-0.012267,-0.019714,8.6787,-6.6885,16.6806,29.3266,0.2770,137,0,0,-0.000181,-0.004779,-0.270654,-0.032781,-0.060774,0.065510,-0.3348,-3.5456,0.3377
58198,11.0,0.001656,-0.000759,-0.274071,0.000391,-0.000342,-0.011494,3.4873,-5.1658,-0.0004,-0.00042621,0.00020056,0.00003083,-0.00810958,0.00970932,0.04711235,-0.8669,-0.5066,-9.8026,0.007844,-0.003633,-0.007633,8.6787,-6.6885,16.6806,29.2922,0.2770,136,0,0,-0.000143,-0.004864,-0.273387,-0.030176,-0.060283,0.033933,-0.3416,-3.5866,0.3190
58209,11.0,0.001631,-0.000753,-0.274048,0.000765,0.000467,-0.010278,3.4930,-5.1609,0.0003,-0.00042911,0.00018356,0.00003207,-0.00817840,0.00966430,0.04631865,-0.8286,-0.5206,-9.7718,0.008166,0.004299,0.001318,8.6864,-6.3039,17.4102,29.2922,0.2770,137,0,0,-0.000151,-0.004889,-0.273026,-0.029414,-0.059349,0.038355,-0.3362,-3.6012,0.3337
58220,11.0,0.001585,-0.000748,-0.274167,0.000429,0.000418,-0.011240,3.4956,-5.1503,0.0006,-0.00042939,0.00015434,0.00003379,-0.00817638,0.00966423,0.04631797,-0.8712,-0.5960,-9.7948,0.003989,0.010866,0.003211,8.6864,-6.3039,17.4102,29.2922,0.2750,137,0,0,-0.000184,-0.004915,-0.272366,-0.028747,-0.058567,0.045889,-0.3313,-3.6124,0.3352
58231,11.0,0.001444,-0.000760,-0.273683,-0.001118,0.000573,-0.004164,3.4881,-5.1170,0.0017,-0.00041971,0.00007842,0.00003734,-0.00843483,0.00949376,0.04328968,-0.8782,-0.5525,-9.7101,-0.010139,0.036875,0.000963,8.6864,-6.3039,17.4102,29.2922,0.2750,142,0,0,-0.000312,-0.004976,-0.273056,-0.029194,-0.058282,0.038200,-0.3295,-3.6243,0.3407
58242,11.0,0.001291,-0.000794,-0.273724,-0.002376,-0.000114,-0.003314,3.4663,-5.0801,0.0018,-0.00039971,0.00000269,0.00004001,-0.00842894,0.00949689,0.04328791,-0.8427,-0.6033,-9.6343,-0.030945,0.042296,-0.003907,8.6864,-6.3039,17.4102,29.2922,0.2750,140,0,0,-0.000463,-0.005021,-0.272446,-0.030255,-0.058167,0.045751,-0.3359,-3.6146,0.3419
58253,11.0,0.001196,-0.000835,-0.273553,-0.003802,-0.000407,0.000682,3.4415,-5.0574,0.0011,-0.00037809,-0.00003106,0.00004006,-0.00851190,0.00944244,0.04227884,-0.9270,-0.5563,-9.5600,-0.035496,0.028637,-0.005660,8.6864,-6.3039,17.4102,29.2922,0.2770,136,0,0,-0.000623,-0.005083,-0.271959,-0.031094,-0.058620,0.051671,-0.3527,-3.6024,0.3411
58264,11.0,0.001150,-0.000846,-0.274568,-0.003861,-0.000622,-0.009101,3.4345,-5.0496,0.0002,-0.00037457,-0.00003555,0.00004002,-0.00806988,0.00973144,0.04736135,-0.8550,-0.5779,-9.5039,-0.009883,0.011875,0.006012,8.6864,-6.3039,17.4102,29.2922,0.2770,137,0,0,-0.000817,-0.005208,-0.273993,-0.032167,-0.059003,0.033262,-0.3843,-3.6006,0.3399
58276,12.0,0.001252,-0.000846,-0.274515,-0.002217,-0.000146,-0.005279,3.4362,-5.0792,-0.0019,-0.00037694,0.00004396,0.00003568,-0.00815125,0.00968795,0.04660605,-0.8607,-0.5303,-9.5421,0.002214,-0.027597,0.008477,8.6864,-6.3039,17.4102,29.3134,0.2770,138,0,0,-0.000865,-0.005249,-0.273624,-0.031871,-0.059043,0.040484,-0.3891,-3.6086,0.3441
58288,12.0,0.001460,-0.000821,-0.274575,0.000791,0.000619,-0.004725,3.4534,-5.1348,-0.0038,-0.00038948,0.00016818,0.00002987,-0.00817779,0.00968055,0.04661042,-0.8417,-0.5326,-9.6666,0.023926,-0.056140,0.022298,8.6864,-6.3039,17.4102,29.3134,0.2760,140,0,0,-0.000695,-0.005303,-0.272407,-0.028302,-0.058078,0.056726,-0.3842,-3.6692,0.3585
58299,11.0,0.001607,-0.000804,-0.274378,0.002981,0.001319,-0.003315,3.4635,-5.1699,-0.0024,-0.00039327,0.00024109,0.00002621,-0.00829709,0.00961025,0.04537613,-0.8389,-0.5316,-9.8571,0.016678,-0.039151,0.024196,8.6864,-6.3039,17.4102,29.3134,0.2760,138,0,0,-0.000520,-0.005307,-0.274012,-0.025490,-0.057500,0.038856,-0.3696,-3.7168,0.3711
58310,11.0,0.001651,-0.000796,-0.274424,0.003498,0.001998,-0.005079,3.4664,-5.1791,-0.0004,-0.00038668,0.00024579,0.00002546,-0.00829917,0.00960400,0.04537687,-0.8691,-0.5171,-9.8741,0.008362,-0.011688,0.029834,9.1009,-6.6885,18.1525,29.3134,0.2760,134,0,0,-0.000301,-0.005331,-0.273158,-0.021910,-0.056527,0.046339,-0.3518,-3.7835,0.4256
58320,10.0,0.001554,-0.000787,-0.274293,0.002151,0.001263,-0.004177,3.4668,-5.1580,0.0022,-0.00038268,0.00017383,0.00002910,-0.00837479,0.00955305,0.04444468,-0.8907,-0.6541,-9.8395,0.004788,0.023497,0.039712,9.1009,-6.6885,18.1525,29.3134,0.2760,135,0,0,-0.000358,-0.005353,-0.272420,-0.022398,-0.056561,0.052764,-0.3486,-3.7892,0.4470
58331,11.0,0.001525,-0.000771,-0.274906,0.001419,-0.000633,-0.012171,3.4695,-5.1507,0.0007,-0.00039040,0.00014429,0.00003143,-0.00813800,0.00971024,0.04710194,-0.9147,-0.7751,-9.8309,0.004947,0.007481,0.028005,9.1009,-6.6885,18.1525,29.3134,0.2770,134,0,0,-0.000460,-0.005373,-0.274622,-0.023364,-0.057412,0.027223,-0.3456,-3.7894,0.4697
58342,11.0,0.001506,-0.000767,-0.274905,0.000819,-0.003174,-0.012394,3.4672,-5.1449,-0.0007,-0.00040510,0.00012651,0.00003396,-0.00820074,0.00966974,0.04638488,-0.9258,-0.8504,-9.8669,-0.006325,0.006183,0.006448,9.1009,-6.6885,18.1525,29.3134,0.2770,135,0,0,-0.000549,-0.005416,-0.273830,-0.024437,-0.061408,0.036338,-0.3458,-3.8042,0.4990
58353,11.0,0.001349,-0.000756,-0.275049,-0.001302,-0.004371,-0.013916,3.4753,-5.1089,-0.0034,-0.00043647,0.00003562,0.00004316,-0.00819758,0.00968094,0.04638191,-0.9234,-0.7553,-9.8317,0.005939,0.038985,-0.003024,9.1009,-6.6885,18.1525,29.3134,0.2750,137,0,0,-0.000598,-0.005447,-0.273960,-0.025000,-0.063433,0.034001,-0.3488,-3.8108,0.5010
58364,11.0,0.001089,-0.000733,-0.274116,-0.004086,-0.005114,-0.000738,3.4928,-5.0531,-0.0071,-0.00047940,-0.00009926,0.00005707,-0.00865059,0.00936840,0.04127918,-0.8779,-0.7296,-9.6483,0.018942,0.061889,0.002147,9.1009,-6.6885,18.1525,29.3134,0.2750,138,0,0,-0.000753,-0.005472,-0.273460,-0.026554,-0.064570,0.039391,-0.3452,-3.8009,0.4995
58375,11.0,0.000869,-0.000701,-0.274112,-0.005931,-0.005401,0.001541,3.5175,-5.0098,-0.0058,-0.00053309,-0.00019701,0.00006922,-0.00864657,0.00937350,0.04127624,-0.8411,-0.6982,-9.4999,0.028674,0.049516,0.003816,9.1009,-6.6885,18.1525,29.3134,0.2750,135,0,0,-0.001253,-0.005496,-0.272340,-0.030392,-0.065463,0.053358,-0.3198,-3.7547,0.4999
58386,11.0,0.000775,-0.000675,-0.273891,-0.005910,-0.005284,0.006425,3.5398,-4.9966,-0.0020,-0.00058271,-0.00021367,0.00007492,-0.00872778,0.00930538,0.04036170,-0.8113,-0.6580,-9.4758,0.025217,0.017461,0.001035,9.1009,-6.6885,18.1525,29.3134,0.2770,141,0,0,-0.001452,-0.005502,-0.271771,-0.031372,-0.065433,0.060448,-0.3029,-3.7411,0.5010
58398,12.0,0.000751,-0.000673,-0.274691,-0.004575,-0.004694,-0.001206,3.5529,-4.9987,0.0008,-0.00062321,-0.00019175,0.00007672,-0.00836523,0.00959334,0.04449155,-0.7710,-0.5940,-9.4916,0.010751,0.000512,-0.002713,9.1009,-6.6885,18.1525,29.3134,0.2770,142,0,0,-0.001560,-0.005510,-0.274474,-0.031006,-0.065126,0.031482,-0.2850,-3.7451,0.5011
58409,11.0,0.000733,-0.000689,-0.274545,-0.003192,-0.004053,0.002611,3.5503,-4.9985,0.0006,-0.00064164,-0.00017662,0.00007716,-0.00843089,0.00953815,0.04378906,-0.7489,-0.5619,-9.5348,-0.008158,0.003090,0.000869,8.6749,-6.3008,17.0518,29.3134,0.2770,142,0,0,-0.001610,-0.005568,-0.273521,-0.027946,-0.063568,0.047357,-0.2753,-3.7700,0.5252
58420,11.0,0.000635,-0.000691,-0.274505,-0.003146,-0.002827,0.004736,3.5557,-4.9807,-0.0011,-0.00066222,-0.00021447,0.00008154,-0.00843270,0.00952360,0.04378952,-0.7740,-0.5118,-9.5288,0.005300,0.021579,0.013985,8.6749,-6.3008,17.0518,29.4059,0.2760,142,0,0,-0.001636,-0.005613,-0.272806,-0.026458,-0.062883,0.056300,-0.2794,-3.7812,0.5272
58431,11.0,0.000587,-0.000677,-0.274341,-0.002722,-0.001052,0.007793,3.5706,-4.9755,0.0001,-0.00068337,-0.00022415,0.00008389,-0.00847117,0.00948460,0.04332772,-0.7888,-0.4646,-9.5527,0.020834,0.007501,0.020630,8.6749,-6.3008,17.0518,29.4059,0.2760,138,0,0,-0.001836,-0.005672,-0.273691,-0.025567,-0.060201,0.048598,-0.2674,-3.7834,0.5449
58442,11.0,0.000627,-0.000660,-0.274253,-0.000645,0.000888,0.008315,3.5852,-4.9897,-0.0006,-0.00069242,-0.00018990,0.00008267,-0.00849424,0.00945996,0.04333144,-0.7308,-0.4399,-9.6842,0.022153,-0.015449,0.015712,8.6749,-6.3008,17.0518,29.4059,0.2760,140,0,0,-0.001881,-0.005688,-0.273014,-0.024812,-0.058580,0.056688,-0.2561,-3.7935,0.5575
58453,11.0,0.000640,-0.000637,-0.274009,0.001012,0.002495,0.009461,3.6008,-4.9963,-0.0000,-0.00069446,-0.00018282,0.00008241,-0.00855651,0.00940797,0.04260118,-0.7295,-0.4653,-9.7972,0.024735,-0.008644,0.011768,8.6749,-6.3008,17.0518,29.4059,0.2770,141,0,0,-0.001865,-0.005702,-0.272421,-0.023004,-0.056897,0.062006,-0.2439,-3.8136,0.5684
58464,11.0,0.000431,-0.000639,-0.274734,-0.000962,0.003654,-0.001782,3.5992,-4.9486,0.0028,-0.00067370,-0.00031260,0.00008802,-0.00823965,0.00964726,0.04630084,-0.8268,-0.4702,-9.8781,0.001569,0.051230,0.006818,8.6749,-6.3008,17.0518,29.4059,0.2770,139,0,0,-0.001932,-0.005722,-0.274040,-0.020899,-0.054523,0.040546,-0.2170,-3.8382,0.5864
58475,11.0,0.000011,-0.000660,-0.274645,-0.005290,0.004970,0.000448,3.5840,-4.8552,0.0102,-0.00063206,-0.00054754,0.00009636,-0.00824568,0.00962132,0.04581455,-0.8191,-0.4040,-9.6334,-0.014372,0.105416,0.022743,8.6749,-6.3008,17.0518,29.4640,0.2770,139,0,0,-0.002161,-0.005761,-0.273618,-0.022783,-0.053630,0.043898,-0.2193,-3.8155,0.5927
58487,12.0,0.000245,-0.000659,-0.274623,-0.001971,0.004324,0.003168,3.5741,-4.8429,-0.0082,-0.00059863,-0.00037704,0.00008519,-0.00827489,0.00962557,0.04581757,-0.8228,-0.5868,-9.4844,-0.007464,0.047939,0.018479,8.6749,-6.3008,17.0518,29.4640,0.2750,142,1,0,-0.002483,-0.005851,-0.272444,-0.024696,-0.052002,0.057046,-0.2338,-3.7303,0.6200
58498,11.0,0.000266,-0.000659,-0.273896,-0.001935,0.004066,0.012704,3.5691,-4.8493,-0.0016,-0.00057136,-0.00034901,0.00008159,-0.00851229,0.00945888,0.04278000,-0.8670,-0.5639,-9.5625,-0.002967,-0.004693,0.006505,8.6749,-6.3008,17.0518,29.4640,0.2750,141,0,0,-0.002657,-0.005886,-0.273414,-0.025896,-0.052599,0.047461,-0.2384,-3.7172,0.6318
58509,11.0,0.000794,-0.000660,-0.273752,0.004339,0.004107,0.013484,3.5644,-4.9009,-0.0138,-0.00054230,-0.00003390,0.00006333,-0.00856962,0.00945862,0.04278528,-0.8228,-0.5407,-9.6469,-0.002754,-0.023552,-0.000408,8.6864,-6.3039,18.1463,29.4640,0.2750,144,1,0,-0.002664,-0.005916,-0.272908,-0.025529,-0.052937,0.053699,-0.2407,-3.7310,0.6376
58520,11.0,0.000831,-0.000710,-0.273470,0.004629,0.004112,0.014680,3.5310,-4.9011,-0.0009,-0.00048422,-0.00004147,0.00005917,-0.00861525,0.00943612,0.04216914,-0.8101,-0.4968,-9.7605,-0.043289,-0.002069,-0.005795,8.6864,-6.3039,18.1463,29.4640,0.2750,141,0,0,-0.002144,-0.005985,-0.271547,-0.018810,-0.053221,0.065857,-0.2526,-3.7801,0.6617
58531,11.0,0.000656,-0.000768,-0.273957,0.002185,0.003773,0.006779,3.4903,-4.8529,0.0049,-0.00041890,-0.00017465,0.00006063,-0.00838117,0.00957734,0.04500732,-0.8405,-0.5141,-9.7555,-0.051749,0.051914,0.005861,8.6864,-6.3039,18.1463,29.4640,0.2760,141,0,0,-0.002141,-0.006063,-0.273620,-0.018352,-0.053271,0.040639,-0.2782,-3.7918,0.6604
58542,11.0,0.000432,-0.000841,-0.273776,-0.000985,0.002351,0.008622,3.4399,-4.7948,0.0053,-0.00035377,-0.00031731,0.00006256,-0.00839745,0.00956343,0.04453636,-0.8706,-0.5954,-9.6535,-0.067538,0.066302,0.005247,8.6864,-6.3039,18.1463,29.4640,0.2760,141,0,0,-0.002491,-0.006238,-0.272601,-0.021772,-0.054602,0.050542,-0.3420,-3.7536,0.6730
58553,11.0,0.000259,-0.000882,-0.273674,-0.003529,0.001984,0.009897,3.4118,-4.7537,0.0033,-0.00031364,-0.00040888,0.00006396,-0.00837747,0.00956436,0.04453514,-0.8883,-0.5327,-9.5945,-0.036363,0.048826,0.010757,8.6864,-6.3039,18.1463,29.4059,0.2750,141,0,0,-0.002704,-0.006335,-0.272069,-0.024094,-0.055704,0.056028,-0.3788,-3.7280,0.6772
58564,11.0,0.000250,-0.000900,-0.273476,-0.003792,0.001573,0.011539,3.3974,-4.7537,-0.0009,-0.00029078,-0.00038910,0.00006106,-0.00840914,0.00955063,0.04416079,-0.8749,-0.5652,-9.6518,-0.017463,0.004318,0.018441,8.6864,-6.3039,18.1463,29.4059,0.2750,142,0,0,-0.002880,-0.006407,-0.273134,-0.025912,-0.056113,0.043773,-0.4015,-3.7116,0.6841
58575,11.0,0.000718,-0.000912,-0.273351,0.000938,0.001316,0.011151,3.3863,-4.7939,-0.0125,-0.00027264,-0.00008733,0.00004427,-0.00843805,0.00955282,0.04416126,-0.9206,-0.5638,-9.7423,-0.012266,-0.007005,0.027630,8.6864,-6.3039,18.1463,29.4059,0.2750,137,1,0,-0.002516,-0.006496,-0.271998,-0.021550,-0.056624,0.055462,-0.4221,-3.7363,0.7106
58586,11.0,0.000708,-0.000904,-0.273083,0.000379,0.000546,0.011087,3.3865,-4.7924,0.0003,-0.00027217,-0.00009781,0.00004479,-0.00849274,0.00952170,0.04346897,-0.8752,-0.6461,-9.8823,0.003214,0.002606,0.037940,8.6864,-6.3039,18.1463,29.4059,0.2750,143,0,0,-0.002120,-0.006529,-0.271428,-0.017233,-0.056707,0.058777,-0.4275,-3.7527,0.7279
58597,11.0,0.000662,-0.000893,-0.273293,-0.000474,-0.000740,0.005640,3.3874,-4.7831,0.0008,-0.00027889,-0.00012638,0.00004690,-0.00837439,0.00959445,0.04485523,-0.8685,-0.7059,-9.8582,0.003099,0.011509,0.034936,8.6864,-6.3039,18.1463,29.4059,0.2750,142,0,0,-0.002137,-0.006554,-0.272957,-0.017631,-0.057382,0.038331,-0.4273,-3.7645,0.7499
58609,12.0,0.000555,-0.000909,-0.273114,-0.001267,-0.001233,0.005371,3.3766,-4.7576,0.0009,-0.00027666,-0.00018780,0.00005031,-0.00841819,0.00956847,0.04431413,-0.8075,-0.6137,-9.8587,-0.013924,0.027843,0.020229,8.2490,-6.6864,18.1587,29.4059,0.2750,140,0,0,-0.002255,-0.006610,-0.271991,-0.019024,-0.059700,0.045848,-0.4304,-3.7720,0.7928
58620,11.0,0.000433,-0.000927,-0.273061,-0.001604,-0.001588,0.004186,3.3653,-4.7309,0.0012,-0.00027518,-0.00025526,0.00005406,-0.00842451,0.00957140,0.04431524,-0.7464,-0.6023,-9.8274,-0.015903,0.031128,0.022385,8.2490,-6.6864,18.1587,29.4059,0.2740,140,0,0,-0.002362,-0.006656,-0.271517,-0.019619,-0.060227,0.048946,-0.4386,-3.7676,0.8056
58631,11.0,0.000191,-0.000940,-0.272701,-0.003603,-0.000658,0.007689,3.3601,-4.6785,0.0030,-0.00027541,-0.00039113,0.00006169,-0.00853516,0.00950317,0.04298439,-0.7672,-0.4807,-9.7384,-0.006021,0.060108,0.030815,8.2490,-6.6864,18.1587,29.4059,0.2740,147,0,0,-0.002656,-0.006759,-0.271941,-0.020860,-0.060270,0.041498,-0.4571,-3.7468,0.8338
58642,11.0,0.000436,-0.000478,-0.272616,0.001065,0.003635,0.007733,3.4045,-4.6733,0.0079,-0.00055854,-0.00022646,0.00007271,-0.00855040,0.00950869,0.04298010,-0.6667,-0.6594,-9.7195,0.022619,0.040552,0.050790,8.2490,-6.6864,18.1587,29.4059,0.2740,138,1,1,-0.002893,-0.006797,-0.271347,-0.022301,-0.059475,0.047550,-0.4571,-3.7228,0.8564
58653,11.0,0.000316,-0.000425,-0.272375,0.000849,0.002093,0.009456,3.4268,-4.6506,0.0004,-0.00057250,-0.00030931,0.00007896,-0.00860421,0.00947248,0.04230468,-0.6867,-0.7363,-9.7306,0.035911,0.023296,0.043977,8.2490,-6.6864,18.1587,29.4059,0.2760,141,0,0,-0.002692,-0.006402,-0.270849,-0.018169,-0.055522,0.052031,-0.4420,-3.7127,0.8843
58664,11.0,0.000126,0.000085,-0.273545,-0.000688,0.005872,-0.005986,3.4946,-4.6136,0.0137,-0.00087032,-0.00043026,0.00010736,-0.00819086,0.00977800,0.04761213,-0.7405,-0.7437,-9.7773,0.056520,0.038298,0.041201,8.2490,-6.6864,18.1587,29.4059,0.2760,145,0,1,-0.002966,-0.006361,-0.272991,-0.018509,-0.058114,0.028276,-0.3945,-3.7054,0.9374
58675,11.0,-0.000106,0.000160,-0.273492,-0.002820,0.002969,-0.004622,3.5240,-4.5681,-0.0049,-0.00088621,-0.00056528,0.00011870,-0.00822967,0.00974806,0.04709772,-0.7604,-0.8779,-9.7044,0.046397,0.049967,0.040952,8.2490,-6.6864,18.1587,29.4059,0.2760,140,0,0,-0.003162,-0.005930,-0.272688,-0.019354,-0.054886,0.032304,-0.3600,-3.6940,0.9624
58687,12.0,-0.000361,0.000223,-0.273545,-0.006359,-0.002865,-0.004211,3.5460,-4.5141,-0.0095,-0.00092755,-0.00069294,0.00013317,-0.00822396,0.00977396,0.04709793,-0.8802,-1.1367,-9.6378,0.026852,0.058842,0.031769,8.2490,-6.6864,18.1587,29.4059,0.2740,141,0,0,-0.003613,-0.005880,-0.272749,-0.022832,-0.061080,0.032613,-0.3140,-3.6565,1.0133
58698,11.0,-0.000374,0.000245,-0.272967,-0.006125,-0.007567,0.003334,3.5530,-4.5163,0.0067,-0.00097557,-0.00065587,0.00013279,-0.00840701,0.00959154,0.04453385,-0.8182,-1.1057,-9.6478,0.000327,0.001752,-0.017229,8.2490,-6.6864,18.1587,29.4059,0.2740,144,0,0,-0.003793,-0.005869,-0.272270,-0.024303,-0.066188,0.039372,-0.3009,-3.6438,1.0221
58709,11.0,-0.000216,0.000240,-0.272934,-0.004561,-0.009940,0.002593,3.5560,-4.5546,0.0233,-0.00103582,-0.00051714,0.00012181,-0.00840013,0.00960678,0.04452853,-0.8804,-0.9152,-9.7560,-0.010154,-0.038260,-0.031491,6.9901,-7.0751,18.1525,29.4059,0.2740,143,0,0,-0.003831,-0.005883,-0.271851,-0.023942,-0.070198,0.044490,-0.2970,-3.6530,1.0168
58720,11.0,-0.000035,0.000239,-0.272761,-0.001831,-0.012532,0.002261,3.5636,-4.5970,0.0259,-0.00111355,-0.00037890,0.00011149,-0.00844142,0.00954409,0.04386496,-0.7910,-0.9781,-9.8926,-0.006226,-0.045188,-0.038272,6.9901,-7.0751,18.1525,29.4059,0.2750,138,0,0,-0.003720,-0.005924,-0.271386,-0.022569,-0.072467,0.048672,-0.3023,-3.6873,0.9674
58731,11.0,-0.000118,0.000230,-0.273213,-0.002536,-0.015632,-0.006379,3.5708,-4.5757,-0.0028,-0.00121434,-0.00041684,0.00012321,-0.00831096,0.00976255,0.04572830,-0.8181,-1.0582,-9.9886,-0.013834,0.022163,-0.064019,6.9901,-7.0751,18.1525,29.4059,0.2750,137,0,0,-0.003465,-0.005996,-0.272586,-0.018098,-0.077079,0.031012,-0.3040,-3.7575,0.9301
58742,11.0,-0.000508,0.000226,-0.273170,-0.006908,-0.017314,-0.006060,3.5855,-4.4870,-0.0407,-0.00132470,-0.00063260,0.00015897,-0.00836546,0.00971946,0.04523161,-0.8270,-0.9493,-9.7909,-0.003037,0.096665,-0.074689,6.9901,-7.0751,18.1525,29.4059,0.2750,143,0,0,-0.003726,-0.006084,-0.271757,-0.019917,-0.081551,0.036728,-0.3058,-3.7419,0.8613
58753,11.0,-0.000480,-0.000230,-0.273222,-0.005561,-0.022682,-0.003555,3.5646,-4.4268,0.0080,-0.00117517,-0.00057159,0.00014001,-0.00836448,0.00973101,0.04523015,-0.7410,-0.8191,-9.4766,-0.014407,0.100403,-0.094435,6.9901,-7.0751,18.1525,29.4059,0.2730,137,1,-1,-0.004125,-0.006134,-0.272001,-0.023560,-0.082220,0.034102,-0.3015,-3.6913,0.8146
58764,11.0,-0.000398,-0.000264,-0.272285,-0.004925,-0.022133,0.011863,3.5725,-4.3774,0.0212,-0.00129370,-0.00048196,0.00013763,-0.00863684,0.00923448,0.04139617,-0.8300,-0.7509,-9.3033,-0.014775,0.088649,-0.094691,6.9901,-7.0751,18.1525,29.3477,0.2730,140,1,0,-0.004105,-0.006588,-0.271485,-0.022107,-0.086376,0.042214,-0.3070,-3.6464,0.7664
