timestamp_ms,dt_ms,pos_x,pos_y,pos_z,vel_x,vel_y,vel_z,roll_deg,pitch_deg,yaw_deg,gyro_bias_x,gyro_bias_y,gyro_bias_z,accel_bias_x,accel_bias_y,accel_bias_z,raw_accel_x,raw_accel_y,raw_accel_z,raw_gyro_x,raw_gyro_y,raw_gyro_z,raw_baro_alt,raw_tof,raw_flow_squal,raw_flow_dx,raw_flow_dy,dev_pos_x,dev_pos_y,dev_pos_z,dev_vel_x,dev_vel_y,dev_vel_z,dev_roll_deg,dev_pitch_deg,dev_yaw_deg
9414,10.0,-0.000024,0.000347,-0.208996,-0.003890,0.033839,-0.001211,0.0199,0.0057,0.0101,0.00000000,0.00000000,0.04516501,0.00135120,-0.00067900,0.00000000,-0.3037,-0.1870,-9.8788,0.020616,0.009603,0.063184,-2.8272,0.2090,110,0,1,0.000669,-0.000193,-0.208909,-0.001494,-0.001517,-0.010863,-0.8871,-1.9063,0.0545
9425,11.0,-0.000171,0.000759,-0.209013,-0.009059,0.035664,-0.001939,0.6607,-0.9362,-0.0077,-0.00000217,0.00000357,0.04516501,0.00139091,-0.00071354,0.00000002,-0.3354,-0.2169,-9.8618,0.059708,0.031511,0.028094,-2.8272,0.2090,113,0,1,0.000572,0.000403,-0.209137,-0.002445,0.004050,-0.012424,-0.5180,-1.9135,0.0271
9436,11.0,-0.000338,0.000829,-0.208932,-0.012723,0.025284,0.002708,0.5921,-0.8891,-0.0295,-0.00000194,0.00000353,0.04516499,0.00145267,-0.00036387,-0.00000611,-0.3177,-0.0718,-9.7905,0.049566,0.046120,0.000154,-2.8272,0.2070,112,0,0,0.000450,0.000440,-0.209264,-0.004028,0.002937,-0.012966,-0.3789,-1.8988,0.0306
9447,11.0,-0.000507,0.000895,-0.206975,-0.013576,0.019830,0.060796,0.2263,-1.2573,-0.0626,0.00000179,0.00000800,0.04516497,0.00147512,-0.00001208,-0.00005791,-0.3551,0.0619,-9.7442,0.035886,0.039667,-0.013515,-2.8272,0.2070,112,0,0,0.000302,0.000493,-0.207854,-0.005748,0.001688,0.004134,-0.3366,-1.8728,0.0025
9458,11.0,-0.000250,0.000928,-0.206272,-0.005558,0.017665,0.062229,0.1677,-1.4079,-0.0892,0.00000223,0.00000892,0.04516495,0.00062533,0.00039394,-0.00005749,-0.3251,0.1672,-9.7502,0.029503,0.018738,-0.004603,-2.8642,0.2070,113,1,0,0.000067,0.000269,-0.207756,-0.007674,-0.001739,0.005526,-0.3486,-1.8689,-0.0340
9469,11.0,-0.000242,0.000610,-0.205586,-0.004235,0.007631,0.062630,-0.2830,-1.5410,-0.0877,0.00000890,0.00001143,0.04516479,0.00044474,0.00169237,-0.00006096,-0.3139,0.1467,-9.7641,-0.021102,-0.003967,0.010400,-2.8642,0.2070,118,0,-1,0.000288,0.000288,-0.207675,-0.003252,-0.000671,0.006500,-0.3569,-1.9610,-0.0722
9480,11.0,0.000125,0.000575,-0.209059,0.003046,0.005824,-0.013860,-0.3664,-1.7267,-0.1086,0.00000949,0.00001329,0.04516479,-0.00073995,0.00206531,0.00232226,-0.3124,0.0950,-9.7982,-0.046307,-0.004999,0.008947,-2.8642,0.2100,119,1,0,0.000285,-0.000007,-0.207607,-0.002645,-0.004123,0.007024,-0.4311,-1.9976,-0.0656
9492,12.0,0.000182,0.000510,-0.209232,0.003393,0.003384,-0.014897,-0.3538,-1.7652,-0.1287,0.00000549,0.00001441,0.04516471,-0.00080538,0.00253623,0.00232373,-0.3191,-0.0303,-9.8895,-0.074484,-0.006268,0.003244,-2.8642,0.2100,118,0,0,0.000934,-0.000095,-0.209142,0.007518,-0.004302,-0.009223,-0.4948,-2.1971,-0.1174
9503,11.0,0.000170,0.000471,-0.209368,0.002040,0.000332,-0.015477,-0.4178,-1.7368,-0.1650,0.00000601,0.00001405,0.04516466,-0.00063825,0.00277903,0.00226491,-0.3572,-0.1112,-9.9013,-0.058729,0.014313,-0.019621,-2.8642,0.2100,126,0,0,0.000992,-0.000162,-0.209238,0.007615,-0.005234,-0.009976,-0.5125,-2.2123,-0.1316
9514,11.0,0.000113,0.000426,-0.208366,0.000704,-0.000511,-0.000181,-0.4043,-1.7406,-0.2298,0.00000285,0.00001668,0.04516461,-0.00034128,0.00300449,0.00004408,-0.3513,0.0131,-9.8829,-0.045321,0.024423,-0.064608,-2.8642,0.2080,122,0,0,0.000977,-0.000265,-0.208443,0.005956,-0.007653,-0.000745,-0.5332,-2.2142,-0.2041
9525,11.0,0.000453,0.000400,-0.208354,0.005643,0.000058,-0.000350,-0.4260,-1.8812,-0.3069,0.00000313,0.00002057,0.04516463,-0.00177012,0.00310841,0.00003315,-0.3539,0.1616,-9.8383,-0.022145,-0.002135,-0.076274,-2.8642,0.2080,124,1,0,0.001225,-0.000305,-0.208454,0.008990,-0.007795,-0.001459,-0.5448,-2.2659,-0.2698
9535,10.0,0.000522,0.000406,-0.208363,0.005852,0.000317,-0.001411,-0.6163,-1.9236,-0.3789,0.00001920,0.00002295,0.04516467,-0.00179578,0.00286877,0.00003380,-0.3578,0.3161,-9.9066,-0.021012,-0.020663,-0.072696,-2.8642,0.2080,121,0,0,0.001571,-0.000364,-0.208472,0.011604,-0.005069,-0.002205,-0.5529,-2.3473,-0.4138
9546,11.0,0.000628,0.000382,-0.209318,0.006359,0.002470,-0.014348,-0.6402,-1.9623,-0.4461,0.00001984,0.00002361,0.04516464,-0.00189372,0.00305531,0.00370176,-0.3564,0.3686,-9.9509,-0.014404,-0.030617,-0.065575,-2.7850,0.2100,129,0,0,0.001666,-0.000384,-0.209303,0.011655,-0.003051,-0.012307,-0.6010,-2.3795,-0.5027
9557,11.0,0.000937,0.000416,-0.209489,0.010231,0.003381,-0.016780,-0.8774,-2.0553,-0.5091,0.00004957,0.00002865,0.04516508,-0.00303593,0.00253865,0.00373464,-0.3512,0.4896,-10.0124,-0.000694,0.005060,-0.017593,-2.7850,0.2100,125,1,0,0.002041,-0.000406,-0.209433,0.015987,0.000076,-0.013814,-0.6001,-2.4653,-0.5686
9568,11.0,0.001105,0.000425,-0.209695,0.011277,0.006194,-0.018152,-0.8805,-2.0423,-0.5193,0.00005059,0.00002982,0.04516509,-0.00330365,0.00277341,0.00383045,-0.3455,0.4796,-9.9028,0.022095,0.052364,0.028952,-2.7850,0.2100,125,1,0,0.002606,-0.000414,-0.209764,0.020631,0.005659,-0.017615,-0.6657,-2.5310,-0.6731
9579,11.0,0.000861,0.000480,-0.208703,0.005554,0.006477,-0.004045,-0.9575,-1.8751,-0.4875,0.00006679,0.00002406,0.04516434,-0.00161333,0.00260752,-0.00378375,-0.3629,0.3257,-9.7762,0.034325,0.085760,0.057221,-2.7850,0.2080,127,0,0,0.002466,-0.000382,-0.208639,0.016620,0.007661,-0.003718,-0.7107,-2.4663,-0.6721
9590,11.0,0.000614,0.000502,-0.208750,-0.000161,0.006667,-0.002790,-0.9674,-1.7186,-0.4500,0.00006834,0.00001593,0.04516350,-0.00006811,0.00289295,-0.00375034,-0.4070,0.2599,-9.6773,0.015628,0.088330,0.057749,-2.7850,0.2080,121,0,0,0.002249,-0.000351,-0.208686,0.012030,0.009149,-0.003570,-0.7000,-2.3962,-0.6208
9601,11.0,0.000518,0.000525,-0.208770,-0.001941,0.005871,-0.000932,-0.9744,-1.7113,-0.4422,0.00006960,0.00002215,0.04516312,0.00059921,0.00316062,-0.00376837,-0.3771,0.1629,-9.6361,0.012790,0.029136,0.034743,-2.7850,0.2110,132,0,0,0.001841,-0.000300,-0.208731,0.004186,0.009230,-0.000675,-0.7251,-2.2885,-0.5482
9612,11.0,0.000578,0.000532,-0.209962,-0.001442,0.004853,-0.014020,-1.0002,-1.7525,-0.4664,0.00007204,0.00002501,0.04516308,0.00046891,0.00333570,0.00619029,-0.3680,0.1641,-9.7283,-0.005538,-0.020164,0.003578,-2.7850,0.2110,124,0,0,0.001774,-0.000278,-0.210000,0.002810,0.008588,-0.013238,-0.7344,-2.2873,-0.5397
9623,11.0,0.000993,0.000532,-0.210117,0.004883,0.004298,-0.014071,-1.0426,-1.9110,-0.5292,0.00008061,0.00004378,0.04516394,-0.00171025,0.00345385,0.00625546,-0.3415,0.2331,-9.7985,-0.008933,-0.035293,-0.011078,-2.7321,0.2110,124,1,0,0.001828,-0.000272,-0.210128,0.003337,0.007913,-0.012365,-0.7450,-2.3311,-0.5569
9634,11.0,0.001004,0.000565,-0.210312,0.003978,0.005331,-0.015781,-1.0245,-1.9039,-0.5470,0.00008151,0.00004214,0.04516375,-0.00148725,0.00356241,0.00656989,-0.3595,0.3079,-9.9124,0.037538,-0.005820,0.008004,-2.7321,0.2080,118,0,0,0.002289,-0.000263,-0.210410,0.008706,0.008231,-0.013052,-0.7688,-2.4551,-0.6402
9645,11.0,0.000930,0.000599,-0.209025,0.002252,0.005586,0.000784,-1.0552,-1.8572,-0.5523,0.00009802,0.00003758,0.04516350,-0.00132944,0.00355976,-0.00761236,-0.3264,0.3007,-9.8722,0.023066,0.024855,0.032428,-2.7321,0.2080,118,0,0,0.002292,-0.000226,-0.208879,0.008140,0.009029,0.004549,-0.7723,-2.4696,-0.6695
9656,11.0,0.000823,0.000612,-0.209041,0.000248,0.005842,0.000648,-1.0651,-1.8003,-0.5354,0.00010068,0.00003134,0.04516290,-0.00064723,0.00383802,-0.00736792,-0.3232,0.2816,-9.7928,0.007190,0.037847,0.046886,-2.7321,0.2080,116,0,0,0.002138,-0.000178,-0.208830,0.005908,0.009923,0.003306,-0.7844,-2.4510,-0.6546
9667,11.0,0.000755,0.000638,-0.209028,-0.000950,0.005572,0.001666,-1.0847,-1.7802,-0.5337,0.00011123,0.00003210,0.04516257,-0.00018948,0.00384549,-0.00738373,-0.3365,0.2441,-9.7158,0.014816,0.021049,0.037269,-2.7321,0.2110,114,0,0,0.002042,-0.000160,-0.208837,0.004778,0.010112,0.003265,-0.7866,-2.4449,-0.6298
9678,11.0,0.000807,0.000641,-0.210051,-0.000009,0.004806,-0.009770,-1.1063,-1.8068,-0.5429,0.00011489,0.00003567,0.04516248,-0.00015033,0.00394884,0.00330065,-0.3004,0.2020,-9.7111,-0.007739,-0.017318,0.026361,-2.7321,0.2110,116,0,0,0.001982,-0.000135,-0.210000,0.003996,0.009909,-0.009222,-0.8001,-2.4405,-0.6252
9689,11.0,0.000967,0.000631,-0.210164,0.002354,0.003893,-0.010694,-1.1319,-1.8697,-0.5579,0.00011872,0.00004253,0.04516274,-0.00101752,0.00425015,0.00332957,-0.2999,0.1942,-9.8841,-0.019421,-0.051895,0.030726,-2.7110,0.2110,116,0,0,0.002122,-0.000131,-0.210209,0.006562,0.008837,-0.008388,-0.8357,-2.5162,-0.6424
9700,11.0,0.001083,0.000628,-0.210336,0.003735,0.002803,-0.013667,-1.1486,-1.9126,-0.5796,0.00012146,0.00004831,0.04516283,-0.00145343,0.00445567,0.00377531,-0.3205,0.1605,-10.0250,-0.013063,-0.037457,0.013011,-2.7110,0.2080,109,0,0,0.002276,-0.000137,-0.210299,0.008892,0.008078,-0.009495,-0.8533,-2.5837,-0.6505
9711,11.0,0.001123,0.000616,-0.209028,0.004265,0.002363,0.000943,-1.1739,-1.8978,-0.6081,0.00012906,0.00003603,0.04516283,-0.00221252,0.00485037,-0.01126427,-0.2526,0.2314,-10.0768,-0.020850,-0.008143,0.005321,-2.7110,0.2080,120,0,0,0.002459,-0.000145,-0.208787,0.011793,0.006741,0.003555,-0.8804,-2.6612,-0.6867
9722,11.0,0.000785,0.000591,-0.209064,-0.000307,0.001592,-0.002110,-1.2095,-1.8126,-0.5970,0.00013302,0.00000766,0.04516136,-0.00031941,0.00509572,-0.01098730,-0.2481,0.2074,-10.0586,-0.040028,0.016916,0.018100,-2.7110,0.2080,118,-1,0,0.002199,-0.000154,-0.208764,0.008693,0.006390,0.001055,-0.9093,-2.6395,-0.6886
9733,11.0,0.000674,0.000551,-0.209099,-0.001409,-0.000377,-0.004277,-1.2107,-1.7538,-0.5827,0.00010762,-0.00000846,0.04516055,0.00002263,0.00601399,-0.01097658,-0.2581,0.0381,-10.0163,-0.048588,0.045028,0.036351,-2.7110,0.2100,107,0,0,0.001873,-0.000174,-0.208818,0.005668,0.005562,-0.001881,-0.9401,-2.6235,-0.6656
9745,12.0,0.000506,0.000547,-0.209573,-0.002639,-0.003553,-0.010169,-1.2217,-1.6872,-0.5964,0.00010610,-0.00002137,0.04516034,0.00089325,0.00583890,-0.00687353,-0.2210,-0.0718,-9.9006,-0.020748,0.057519,0.020933,-2.7110,0.2100,109,0,0,0.001647,-0.000220,-0.209536,0.005735,0.001374,-0.011907,-0.9929,-2.5789,-0.6526
9756,11.0,0.000299,0.000543,-0.209681,-0.004597,-0.004670,-0.009413,-1.1656,-1.6006,-0.6306,0.00006167,-0.00004894,0.04515988,0.00146713,0.00655746,-0.00686774,-0.2126,-0.0191,-9.7479,0.002130,0.068946,-0.032116,-2.7110,0.2100,111,0,0,0.001499,-0.000226,-0.209658,0.004839,-0.000782,-0.012488,-0.9778,-2.5377,-0.6493
9767,11.0,0.000161,0.000552,-0.209782,-0.005665,-0.004292,-0.007881,-1.1438,-1.5608,-0.6863,0.00005600,-0.00005695,0.04516001,0.00187890,0.00626671,-0.00681678,-0.2558,0.1585,-9.6655,0.016309,0.042314,-0.039150,-2.8008,0.2080,111,0,0,0.001311,-0.000217,-0.209779,0.003877,-0.002418,-0.011777,-0.9735,-2.5107,-0.6856
9778,11.0,0.000168,0.000516,-0.208761,-0.004748,-0.004275,0.006901,-1.1601,-1.5723,-0.7269,0.00005213,-0.00005087,0.04516014,0.00121364,0.00648342,-0.01727760,-0.2634,0.1811,-9.6521,-0.035514,-0.000657,-0.017235,-2.8008,0.2080,110,0,0,0.001105,-0.000208,-0.208575,0.003192,-0.001994,0.005580,-0.9492,-2.4912,-0.7769
9789,11.0,0.000426,0.000432,-0.208692,-0.000717,-0.005927,0.006409,-1.2223,-1.6673,-0.7680,0.00005472,-0.00002020,0.04516055,-0.00018035,0.00660392,-0.01718523,-0.2787,0.0916,-9.8626,-0.094130,-0.076979,-0.014971,-2.8008,0.2080,114,0,0,0.001146,-0.000245,-0.208519,0.004538,-0.002042,0.007069,-0.9739,-2.5099,-0.8194
9800,11.0,0.000703,0.000351,-0.208632,0.003169,-0.007391,0.004492,-1.2428,-1.7560,-0.8008,0.00002146,0.00000425,0.04516057,-0.00155653,0.00735414,-0.01712961,-0.2726,0.0493,-9.9988,-0.079868,-0.082388,-0.022941,-2.8008,0.2110,110,0,0,0.001349,-0.000317,-0.208447,0.007835,-0.003144,0.007288,-1.0253,-2.5864,-0.8534
9811,11.0,0.000822,0.000314,-0.209849,0.005051,-0.008185,-0.014584,-1.2541,-1.7893,-0.8704,0.00001431,0.00001239,0.04516098,-0.00156686,0.00692911,-0.00572560,-0.2356,0.0924,-10.2203,-0.035004,-0.034523,-0.059624,-2.8008,0.2110,119,0,0,0.001836,-0.000443,-0.209914,0.014722,-0.006080,-0.012393,-1.0959,-2.7333,-0.9362
9822,11.0,0.000702,0.000302,-0.210031,0.003429,-0.007089,-0.018478,-1.2424,-1.7397,-0.9379,0.00000546,-0.00000877,0.04516099,-0.00079749,0.00660644,-0.00575269,-0.2508,0.2365,-10.1639,-0.000916,0.042282,-0.059214,-2.8008,0.2110,119,0,0,0.001964,-0.000478,-0.210057,0.016848,-0.006768,-0.016214,-1.1118,-2.7836,-0.9946
9833,11.0,0.000377,0.000333,-0.210253,-0.000801,-0.004577,-0.020804,-1.1971,-1.6260,-0.9823,-0.00000670,-0.00005437,0.04516042,0.00072472,0.00619561,-0.00574332,-0.2543,0.3304,-10.0118,0.049117,0.105198,-0.030296,-2.8008,0.2080,123,0,0,0.001714,-0.000480,-0.210463,0.014275,-0.004413,-0.023355,-1.0893,-2.7491,-1.0983
9844,11.0,-0.000386,0.000391,-0.209047,-0.010944,-0.001891,-0.004074,-1.1795,-1.4536,-0.9975,0.00002700,-0.00013276,0.04515828,0.00382019,0.00513310,-0.01856905,-0.3325,0.3882,-9.8311,0.059855,0.143665,0.003478,-2.7797,0.2080,121,-1,0,0.001106,-0.000439,-0.208770,0.007263,-0.002044,-0.004449,-1.0543,-2.6680,-1.1165
9855,11.0,-0.000731,0.000425,-0.209093,-0.014523,-0.000427,-0.002345,-1.1483,-1.3588,-0.9963,0.00002084,-0.00016210,0.04515756,0.00472307,0.00493718,-0.01849507,-0.3074,0.2770,-9.6503,0.040331,0.107371,0.037903,-2.7797,0.2080,135,0,0,0.000044,-0.000343,-0.208872,-0.004130,0.002436,-0.003748,-1.0024,-2.4899,-1.1252
9867,12.0,-0.000249,0.000403,-0.209108,-0.006939,-0.000981,-0.000160,-1.1516,-1.4185,-1.0263,0.00001144,-0.00005126,0.04516015,0.00245390,0.00516688,-0.01843356,-0.3185,0.1562,-9.6405,-0.013693,0.045071,0.029671,-2.7797,0.2110,130,2,0,-0.000230,-0.000315,-0.208921,-0.006059,0.003146,-0.002168,-0.9933,-2.4403,-1.1275
9878,11.0,-0.000218,0.000703,-0.210108,-0.006217,0.002098,-0.011041,-1.1319,-1.4348,-1.0684,-0.00003400,-0.00003653,0.04516267,0.00226790,0.00375447,-0.00991973,-0.2991,0.1102,-9.7374,-0.028460,-0.006627,0.013478,-2.7797,0.2110,127,0,1,0.000231,-0.000331,-0.210060,0.001059,0.002582,-0.012494,-1.0007,-2.4732,-1.1625
9889,11.0,-0.000160,0.000683,-0.210232,-0.004967,0.001395,-0.011450,-1.1487,-1.4663,-1.1009,-0.00003291,-0.00000868,0.04516282,0.00193556,0.00400273,-0.00990754,-0.2857,0.1777,-9.8514,-0.025285,-0.018335,-0.008878,-2.7797,0.2110,122,0,0,0.000302,0.000233,-0.210305,0.003567,0.007876,-0.011099,-0.9943,-2.5311,-1.2245
9900,11.0,-0.000199,0.000672,-0.210375,-0.004843,0.001514,-0.012160,-1.1602,-1.4607,-1.1314,-0.00002846,-0.00000607,0.04516270,0.00187114,0.00411560,-0.00977981,-0.2592,0.2464,-9.8622,-0.014551,0.012642,-0.004310,-2.7797,0.2090,127,0,0,0.000351,0.000220,-0.210418,0.004936,0.006899,-0.011503,-1.0133,-2.5560,-1.2600
9911,11.0,-0.000352,0.000673,-0.209616,-0.006159,0.001744,-0.001780,-1.1727,-1.4215,-1.1437,-0.00001036,-0.00001795,0.04516220,0.00212693,0.00404950,-0.01717230,-0.2586,0.2568,-9.8277,-0.004078,0.049740,0.024406,-2.7797,0.2090,126,0,0,0.000324,0.000214,-0.209473,0.005647,0.006628,-0.000206,-1.0249,-2.5753,-1.2813
9922,11.0,-0.000620,0.000702,-0.209657,-0.009038,0.001704,-0.001109,-1.1569,-1.3485,-1.1343,-0.00001148,-0.00004958,0.04516124,0.00289139,0.00401229,-0.01695474,-0.2759,0.1867,-9.7296,0.023931,0.084250,0.049480,-2.7215,0.2090,125,0,0,0.000026,0.000233,-0.209475,0.003755,0.006523,0.000331,-1.0363,-2.5323,-1.2910
9933,11.0,-0.000911,0.000757,-0.209657,-0.011705,0.001291,0.001143,-1.1076,-1.2812,-1.1210,-0.00004356,-0.00007079,0.04516018,0.00379215,0.00432907,-0.01697135,-0.2573,0.0953,-9.6188,0.052824,0.085109,0.044110,-2.7215,0.2110,126,0,0,-0.000218,0.000267,-0.209513,0.001615,0.006125,0.000901,-1.0227,-2.4838,-1.2790
9944,11.0,-0.001139,0.000805,-0.210357,-0.013307,0.000271,-0.004379,-1.0771,-1.2312,-1.1310,-0.00005036,-0.00008684,0.04516008,0.00431874,0.00405890,-0.01111644,-0.2435,0.0473,-9.5447,0.041716,0.064968,0.029663,-2.7215,0.2110,126,0,0,-0.000483,0.000322,-0.210265,-0.000284,0.005473,-0.005778,-0.9941,-2.4462,-1.2621
9955,11.0,-0.001163,0.000810,-0.210390,-0.012081,-0.000674,-0.001713,-1.0586,-1.2439,-1.1438,-0.00008478,-0.00006067,0.04516013,0.00393504,0.00458620,-0.01109886,-0.2290,0.0667,-9.5763,0.004295,0.001484,0.012464,-2.7215,0.2110,125,0,0,-0.000838,0.000406,-0.210359,-0.001508,0.003274,-0.000764,-0.9411,-2.4064,-1.2684
9966,11.0,-0.001068,0.000796,-0.210436,-0.009305,-0.002416,-0.000451,-1.0707,-1.2861,-1.1724,-0.00008609,-0.00002029,0.04516087,0.00309239,0.00455639,-0.01078682,-0.2030,0.0211,-9.6655,-0.021242,-0.034294,0.004619,-2.7215,0.2100,120,0,0,-0.000864,0.000418,-0.210354,-0.000245,0.002150,0.001800,-0.9281,-2.4151,-1.2856
9978,12.0,-0.000935,0.000764,-0.210145,-0.006035,-0.004074,0.003136,-1.0698,-1.3345,-1.2101,-0.00013718,0.00001040,0.04516098,0.00189783,0.00538777,-0.01306128,-0.1806,0.0166,-9.8114,-0.030811,-0.046959,-0.025370,-2.7374,0.2100,116,0,0,-0.000651,0.000387,-0.209942,0.005752,-0.001016,0.008296,-0.9417,-2.5044,-1.3351
9989,11.0,-0.000838,0.000736,-0.210134,-0.003435,-0.004485,0.002753,-1.0828,-1.3692,-1.2675,-0.00014174,0.00004045,0.04516153,0.00131806,0.00529790,-0.01286365,-0.1656,0.1294,-9.8302,-0.026022,-0.032112,-0.043850,-2.7374,0.2100,119,0,0,-0.000514,0.000365,-0.209889,0.008998,-0.002533,0.008123,-0.9565,-2.5639,-1.3766
10000,11.0,-0.000793,0.000371,-0.210105,-0.002009,-0.007617,0.002484,-1.1389,-1.3803,-1.3260,-0.00005589,0.00004158,0.04516032,0.00075128,0.00605431,-0.01283400,-0.1849,0.2724,-9.8427,-0.035084,-0.014121,-0.045068,-2.7374,0.2110,110,0,-1,-0.000330,0.000008,-0.210340,0.013574,-0.006525,0.001230,-0.9934,-2.6312,-1.4820
10011,11.0,-0.001081,0.000332,-0.210546,-0.004714,-0.005189,-0.002978,-1.1545,-1.3660,-1.3614,-0.00006224,-0.00001153,0.04515918,0.00180068,0.00588627,-0.00926632,-0.1920,0.3845,-9.8108,-0.030549,-0.010160,-0.021432,-2.7374,0.2110,109,-1,0,-0.000280,-0.000330,-0.210352,0.014921,-0.008637,0.000808,-1.0338,-2.6419,-1.5500
10022,11.0,-0.001058,0.000292,-0.210580,-0.003118,-0.003546,-0.003176,-1.1932,-1.3672,-1.4108,-0.00001137,-0.00002142,0.04516058,0.00116671,0.00501750,-0.00926577,-0.1564,0.3723,-9.8309,-0.034068,-0.005548,0.000581,-2.7374,0.2110,115,0,0,-0.000534,-0.000364,-0.210344,0.012710,-0.006193,0.000948,-1.0474,-2.6559,-1.5756
10033,11.0,-0.001030,0.000277,-0.210647,-0.001789,-0.002251,-0.003943,-1.1950,-1.3786,-1.4297,-0.00001538,-0.00000938,0.04516110,0.00096916,0.00494834,-0.00902893,-0.1787,0.3097,-9.8501,-0.005896,-0.010491,0.019606,-2.7374,0.2100,113,0,0,-0.000462,-0.000436,-0.210365,0.015361,-0.002856,0.000845,-1.0925,-2.6879,-1.6394
10044,11.0,-0.001040,0.000296,-0.210255,-0.000816,-0.001914,0.000560,-1.1744,-1.3701,-1.4523,-0.00002763,-0.00003951,0.04516159,0.00040078,0.00489230,-0.01231521,-0.1389,0.1931,-9.8776,0.025376,-0.001804,0.017508,-2.7374,0.2100,111,0,0,-0.000426,-0.000446,-0.209948,0.016425,-0.001674,0.004986,-1.1017,-2.6937,-1.6695
10055,11.0,-0.001404,0.000327,-0.210278,-0.003911,-0.001791,-0.000897,-1.1544,-1.3388,-1.4596,-0.00003785,-0.00011906,0.04515928,0.00165658,0.00471464,-0.01216523,-0.1252,0.1629,-9.9276,0.025547,0.007657,0.010639,-2.7374,0.2100,114,-1,0,-0.000423,-0.000430,-0.209927,0.017552,-0.001143,0.004230,-1.0860,-2.7147,-1.6748
10066,11.0,-0.001480,0.000350,-0.210295,-0.003461,-0.002273,-0.002069,-1.1249,-1.3144,-1.4820,-0.00008071,-0.00015903,0.04515910,0.00131574,0.00503555,-0.01214829,-0.1320,0.0966,-9.9283,0.024146,0.019248,0.003198,-2.7215,0.2120,111,0,0,-0.000769,-0.000379,-0.209910,0.015907,-0.001124,0.001837,-1.0524,-2.7024,-1.6946
10077,11.0,-0.001591,0.000363,-0.211213,-0.003316,-0.003416,-0.013344,-1.1161,-1.2884,-1.5167,-0.00009111,-0.00017817,0.04515882,0.00171497,0.00475087,-0.00559634,-0.1225,0.0465,-9.8934,0.007324,0.032527,-0.013000,-2.7215,0.2120,108,0,0,-0.000827,-0.000358,-0.211021,0.016257,-0.001648,-0.011227,-1.0299,-2.6799,-1.7161
10088,11.0,-0.001693,0.000367,-0.211360,-0.003299,-0.003751,-0.013362,-1.1010,-1.2561,-1.5611,-0.00012975,-0.00022450,0.04515853,0.00151060,0.00501390,-0.00558358,-0.1287,0.1066,-9.8165,0.003925,0.030554,-0.030801,-2.7215,0.2120,108,0,0,-0.000911,-0.000342,-0.211137,0.016635,-0.002596,-0.011962,-1.0195,-2.6784,-1.7371
10099,11.0,-0.001722,0.000367,-0.211541,-0.002484,-0.003308,-0.013628,-1.0940,-1.2530,-1.6214,-0.00013959,-0.00022429,0.04515871,0.00151135,0.00487051,-0.00532016,-0.1412,0.1915,-9.7980,0.004422,0.006698,-0.050655,-2.7215,0.2110,114,0,0,-0.001055,-0.000329,-0.211418,0.016970,-0.003352,-0.012202,-0.9979,-2.6541,-1.8182
10110,11.0,-0.001730,0.000379,-0.211264,-0.001886,-0.002298,-0.008883,-1.0824,-1.2526,-1.6826,-0.00013032,-0.00023352,0.04515942,0.00120536,0.00448230,-0.00841725,-0.1748,0.2437,-9.8390,0.020713,-0.001829,-0.040390,-2.7215,0.2110,106,0,0,-0.001075,-0.000327,-0.211084,0.017457,-0.002898,-0.006938,-0.9908,-2.6444,-1.8820
10121,11.0,-0.001798,0.000405,-0.211393,-0.001728,-0.001064,-0.009976,-1.0565,-1.2398,-1.7252,-0.00014185,-0.00024672,0.04515926,0.00138228,0.00432360,-0.00822149,-0.1471,0.2546,-9.8836,0.034689,0.015850,-0.025208,-2.7215,0.2110,109,0,0,-0.001073,-0.000299,-0.211225,0.018556,-0.000825,-0.007314,-0.9620,-2.6607,-1.9825
10132,11.0,-0.001851,0.000079,-0.211509,-0.001825,-0.004267,-0.011007,-1.0777,-1.2282,-1.7782,-0.00003935,-0.00026439,0.04515795,0.00133006,0.00507339,-0.00820286,-0.1812,0.2422,-9.9076,0.006492,0.012062,-0.028124,-2.7215,0.2140,118,0,-1,-0.001121,-0.000276,-0.212650,0.018723,0.000295,-0.023315,-0.9412,-2.6653,-2.0104
10143,11.0,-0.001888,0.000057,-0.212899,-0.001844,-0.002948,-0.026627,-1.0845,-1.2187,-1.8304,-0.00004444,-0.00027139,0.04515781,0.00152895,0.00484312,0.00073921,-0.1952,0.2911,-9.8789,-0.014696,0.012916,-0.039809,-2.7532,0.2140,119,0,0,-0.001159,-0.000575,-0.212888,0.018556,-0.002561,-0.024160,-0.9547,-2.6543,-2.0686
10154,11.0,-0.001907,0.000019,-0.213197,-0.001668,-0.002441,-0.027667,-1.1133,-1.2117,-1.8816,-0.00001821,-0.00027644,0.04515811,0.00145978,0.00454460,0.00073573,-0.1935,0.2554,-9.8989,-0.036694,0.010221,-0.026539,-2.7532,0.2140,119,0,0,-0.001186,-0.000614,-0.213410,0.019003,-0.000591,-0.025955,-0.9802,-2.6568,-2.1608
10165,11.0,-0.001974,-0.000010,-0.213530,-0.002338,-0.002203,-0.028870,-1.1325,-1.1933,-1.9222,-0.00001669,-0.00028929,0.04515766,0.00161415,0.00455739,0.00089805,-0.2190,0.2225,-9.8885,-0.031348,0.025548,-0.022163,-2.7532,0.2120,128,0,0,-0.001195,-0.000646,-0.213675,0.019185,-0.000127,-0.026877,-0.9998,-2.6680,-2.1909
10176,11.0,-0.002114,-0.000026,-0.212787,-0.003735,-0.002146,-0.016512,-1.1441,-1.1589,-1.9597,-0.00001902,-0.00031404,0.04515671,0.00192855,0.00469220,-0.00646548,-0.2118,0.1944,-9.8163,-0.020680,0.047785,-0.021647,-2.7532,0.2120,124,0,0,-0.001336,-0.000686,-0.212682,0.017681,-0.000178,-0.012782,-1.0350,-2.6444,-2.2583
10187,11.0,-0.002226,-0.000031,-0.212980,-0.004860,-0.002005,-0.015705,-1.1469,-1.1324,-2.0028,-0.00002363,-0.00033342,0.04515620,0.00215044,0.00463379,-0.00634445,-0.2238,0.1908,-9.7192,-0.007536,0.036529,-0.027115,-2.7532,0.2120,123,0,0,-0.001454,-0.000694,-0.212834,0.016234,-0.000157,-0.012697,-1.0439,-2.6132,-2.2939
10198,11.0,-0.002267,-0.000038,-0.213149,-0.005277,-0.002261,-0.014950,-1.1455,-1.1311,-2.0554,-0.00004651,-0.00030754,0.04515605,0.00238183,0.00480287,-0.00634816,-0.2492,0.1505,-9.7437,-0.007848,0.012926,-0.047004,-2.7532,0.2150,120,0,0,-0.001545,-0.000696,-0.212956,0.015333,-0.000132,-0.011709,-1.0465,-2.6074,-2.3223
10209,11.0,-0.001898,-0.000064,-0.214208,-0.000719,-0.002195,-0.025073,-1.1493,-1.1644,-2.1384,-0.00004963,-0.00018506,0.04515983,0.00113477,0.00465225,-0.00022723,-0.2271,0.2058,-9.7729,-0.009237,-0.012267,-0.060265,-2.7321,0.2150,120,1,0,-0.001581,-0.000705,-0.214332,0.015060,-0.000787,-0.021623,-1.0482,-2.6173,-2.4173
10220,11.0,-0.001839,-0.000085,-0.214486,-0.000398,-0.001369,-0.025394,-1.1652,-1.1850,-2.2170,-0.00001506,-0.00014503,0.04516073,0.00116688,0.00421587,-0.00023815,-0.2516,0.2867,-9.8326,-0.015268,-0.017001,-0.068820,-2.7321,0.2150,120,0,0,-0.001221,-0.000731,-0.214547,0.019398,-0.000802,-0.021293,-1.0533,-2.6453,-2.5003
10231,11.0,-0.001822,-0.000082,-0.214800,-0.000397,0.000337,-0.026665,-1.1545,-1.1918,-2.2798,-0.00001809,-0.00013851,0.04516106,0.00110273,0.00418075,-0.00002814,-0.2322,0.3494,-9.8847,0.014108,-0.007095,-0.052588,-2.7321,0.2130,124,0,0,-0.001158,-0.000750,-0.214800,0.019895,-0.000114,-0.021942,-1.0600,-2.6753,-2.5576
10242,11.0,-0.001860,-0.000071,-0.213900,-0.000583,0.002229,-0.013846,-1.1607,-1.1845,-2.3438,0.00006518,-0.00015279,0.04516166,0.00102731,0.00335270,-0.00805129,-0.1934,0.4023,-9.9195,0.016686,0.009570,-0.034570,-2.7321,0.2130,124,0,0,-0.001124,-0.000743,-0.213724,0.020232,0.002919,-0.008337,-1.0527,-2.7016,-2.6659
10253,11.0,-0.001947,-0.000074,-0.214082,-0.001353,0.003401,-0.015181,-1.1651,-1.1625,-2.3671,0.00007755,-0.00017743,0.04516025,0.00127387,0.00346667,-0.00789255,-0.1942,0.3500,-9.9066,-0.004261,0.028525,-0.000730,-2.7321,0.2130,114,0,0,-0.001147,-0.000734,-0.213844,0.020128,0.004433,-0.009671,-1.0596,-2.6920,-2.7195
10264,11.0,-0.002057,-0.000095,-0.214251,-0.002249,0.003349,-0.015572,-1.1937,-1.1322,-2.3881,0.00012572,-0.00021240,0.04515880,0.00149139,0.00332629,-0.00789787,-0.1805,0.2711,-9.8483,-0.031155,0.038713,0.009900,-2.7321,0.2160,117,0,0,-0.001204,-0.000732,-0.213946,0.019880,0.005562,-0.010622,-1.0612,-2.6926,-2.7275
10275,11.0,-0.002206,-0.000114,-0.215254,-0.004236,0.002992,-0.024476,-1.2170,-1.0930,-2.4061,0.00014686,-0.00024952,0.04515659,0.00195095,0.00337260,-0.00242640,-0.2454,0.2313,-9.7278,-0.031718,0.052144,0.003126,-2.7321,0.2160,117,0,0,-0.001394,-0.000768,-0.215299,0.017763,0.005352,-0.022310,-1.1143,-2.6496,-2.7412
10286,11.0,-0.002276,-0.000105,-0.215515,-0.004884,0.002182,-0.022961,-1.2129,-1.0819,-2.4192,0.00012943,-0.00024081,0.04515570,0.00218631,0.00372235,-0.00242514,-0.2210,0.1497,-9.6713,0.000154,0.021046,0.012646,-2.7163,0.2160,113,0,0,-0.001516,-0.000786,-0.215519,0.016091,0.004860,-0.021452,-1.1405,-2.6176,-2.7535
10297,11.0,-0.002185,-0.000121,-0.215797,-0.003880,0.000455,-0.022285,-1.2284,-1.1074,-2.4544,0.00013818,-0.00019256,0.04515713,0.00174351,0.00380490,-0.00217765,-0.2385,0.0835,-9.7092,-0.023131,-0.027165,-0.000243,-2.7163,0.2160,113,0,0,-0.001582,-0.000782,-0.215967,0.015713,0.002908,-0.018884,-1.1468,-2.6163,-2.7734
10308,11.0,-0.002113,-0.000116,-0.214874,-0.002955,-0.000596,-0.008411,-1.2140,-1.1330,-2.4940,0.00008462,-0.00014181,0.04515783,0.00139835,0.00450658,-0.00965887,-0.2245,0.0981,-9.7947,0.005208,-0.025523,-0.024315,-2.7163,0.2140,105,0,0,-0.001487,-0.000796,-0.214601,0.016879,0.001288,-0.001447,-1.1581,-2.6565,-2.8002
10319,11.0,-0.002074,-0.000084,-0.214996,-0.002106,-0.000370,-0.009177,-1.1866,-1.1497,-2.5535,0.00007051,-0.00011866,0.04515896,0.00119556,0.00437834,-0.00947557,-0.1891,0.1926,-9.8551,0.038270,-0.018989,-0.043685,-2.7163,0.2140,110,0,0,-0.001337,-0.000768,-0.214626,0.018860,-0.000039,-0.001341,-1.1274,-2.7110,-2.8811
10331,12.0,-0.002111,-0.000068,-0.215113,-0.001889,0.000597,-0.010278,-1.1781,-1.1425,-2.6135,0.00010160,-0.00013664,0.04515950,0.00109757,0.00392937,-0.00948145,-0.1663,0.2839,-9.9061,0.019655,0.007395,-0.031839,-2.7163,0.2160,108,0,0,-0.001298,-0.000743,-0.215263,0.019590,0.000384,-0.008675,-1.1076,-2.7173,-2.9392
10342,11.0,-0.002195,-0.000058,-0.215628,-0.002412,0.001404,-0.015052,-1.1718,-1.1244,-2.6434,0.00010345,-0.00015802,0.04515870,0.00133395,0.00387884,-0.00696825,-0.1792,0.2816,-9.8220,0.009612,0.024447,-0.007081,-2.7163,0.2160,110,0,0,-0.001313,-0.000728,-0.215354,0.019991,0.001223,-0.009428,-1.0942,-2.7297,-2.9727
10353,11.0,-0.002298,-0.000048,-0.215791,-0.003373,0.000769,-0.014651,-1.1657,-1.1017,-2.6607,0.00007933,-0.00018023,0.04515746,0.00159487,0.00417248,-0.00696703,-0.1977,0.1419,-9.7777,0.002000,0.031723,0.005901,-2.7163,0.2160,108,0,0,-0.001456,-0.000700,-0.215583,0.018949,0.002169,-0.009798,-1.0871,-2.7041,-3.0244
10364,11.0,-0.002358,-0.000041,-0.215991,-0.003948,-0.000182,-0.014152,-1.1656,-1.0897,-2.7031,0.00007839,-0.00018753,0.04515727,0.00166154,0.00415693,-0.00668754,-0.2116,0.1103,-9.7211,-0.001344,0.018590,-0.022887,-2.6951,0.2140,110,0,0,-0.001535,-0.000689,-0.214537,0.018074,0.001540,0.003653,-1.0822,-2.6818,-3.0465
10375,11.0,-0.002354,-0.000033,-0.214919,-0.003619,-0.000024,0.001345,-1.1581,-1.0970,-2.7646,0.00007679,-0.00016421,0.04515785,0.00146385,0.00426123,-0.01421592,-0.2046,0.2052,-9.7012,0.009855,-0.003891,-0.049851,-2.6951,0.2140,107,0,0,-0.001582,-0.000682,-0.214530,0.017702,0.000642,0.004299,-1.0818,-2.6852,-3.0741
10386,11.0,-0.002217,-0.000055,-0.214935,-0.001564,0.001310,0.001476,-1.1631,-1.1347,-2.8323,0.00008482,-0.00010118,0.04515973,0.00095899,0.00433041,-0.01399197,-0.1866,0.3540,-9.7683,-0.008172,-0.044372,-0.050968,-2.6951,0.2140,108,0,0,-0.001512,-0.000678,-0.214478,0.018895,0.000929,0.005984,-1.0714,-2.7147,-3.1811
10397,11.0,-0.002085,-0.000081,-0.214922,0.000352,0.002915,0.000841,-1.1921,-1.1676,-2.8941,0.00020465,-0.00005492,0.04516272,0.00045377,0.00338765,-0.01400180,-0.1818,0.4262,-9.8734,-0.015477,-0.041263,-0.015840,-2.6951,0.2160,104,0,0,-0.001366,-0.000699,-0.214415,0.020869,0.001966,0.006600,-1.0879,-2.7443,-3.2547
10408,11.0,-0.002005,-0.000085,-0.215486,0.001575,0.003686,-0.006920,-1.1959,-1.1847,-2.6252,0.00022385,-0.00002578,0.04511149,0.00008656,0.00314626,-0.01055329,-0.1662,0.3276,-9.9196,0.000660,-0.025900,0.009408,-2.6951,0.2160,104,0,0,-0.001214,-0.000727,-0.215227,0.023121,0.003470,-0.002793,-1.0983,-2.7923,-3.2879
10419,11.0,-0.002060,-0.000078,-0.215570,0.001376,0.002086,-0.008303,-1.1906,-1.1646,-2.6270,0.00017799,-0.00008436,0.04511004,-0.00002999,0.00381463,-0.01053511,-0.1340,0.0835,-9.9461,-0.004628,0.018057,0.030465,-2.6951,0.2160,104,0,0,-0.001065,-0.000739,-0.215346,0.025402,0.003772,-0.005527,-1.1179,-2.8273,-3.3279
10430,11.0,-0.002245,-0.000027,-0.215711,-0.000916,0.000307,-0.009964,-1.1674,-1.1205,-2.6487,0.00016641,-0.00015981,0.04510820,0.00054162,0.00371278,-0.01027616,-0.1955,0.0069,-9.9238,0.033913,0.055558,0.001351,-2.6951,0.2150,107,0,0,-0.001089,-0.000733,-0.215467,0.025247,0.002346,-0.007454,-1.1153,-2.8060,-3.3329
10441,11.0,-0.002472,0.000031,-0.215324,-0.003644,-0.000084,-0.002738,-1.1260,-1.0717,-2.6948,0.00009976,-0.00022801,0.04510600,0.00124385,0.00411273,-0.01319943,-0.2141,0.0939,-9.6814,0.047791,0.066576,-0.047142,-2.7321,0.2150,107,0,0,-0.001414,-0.000638,-0.215064,0.021096,-0.000427,-0.002836,-1.0603,-2.7320,-3.3671
10452,11.0,-0.002590,0.000057,-0.215362,-0.005429,0.001631,-0.000315,-1.1048,-1.0481,-2.7575,0.00009375,-0.00025593,0.04510536,0.00145252,0.00406224,-0.01306238,-0.2719,0.3240,-9.5697,0.030713,0.033730,-0.057336,-2.7321,0.2150,110,0,0,-0.001598,-0.000587,-0.215115,0.018806,-0.000454,-0.001614,-1.0304,-2.7025,-3.4118
10463,11.0,-0.002560,0.000076,-0.215351,-0.004496,0.004073,0.002366,-1.1050,-1.0640,-2.8216,0.00022179,-0.00021533,0.04510763,0.00126834,0.00284882,-0.01308434,-0.1938,0.4457,-9.5705,0.030889,-0.015740,-0.027396,-2.7321,0.2170,117,0,0,-0.001696,-0.000559,-0.215120,0.017245,0.001024,0.000820,-1.0183,-2.6800,-3.4790
10475,12.0,-0.002256,0.000025,-0.216220,-0.000625,0.005124,-0.007838,-1.1354,-1.1456,-2.8731,0.00025949,-0.00007407,0.04511202,0.00035134,0.00302314,-0.00780680,-0.2032,0.3843,-9.7914,-0.038516,-0.093589,-0.005190,-2.7321,0.2170,113,0,0,-0.001521,-0.000546,-0.216157,0.019813,0.005065,-0.005429,-1.0101,-2.7341,-3.5728
10486,11.0,-0.002325,0.000012,-0.216317,-0.000858,0.005207,-0.009775,-1.1601,-1.1921,-2.8911,0.00033808,-0.00012210,0.04511100,0.00028304,0.00276845,-0.00780875,-0.1552,0.2957,-9.9888,-0.021736,-0.083903,0.020853,-2.7321,0.2170,116,-1,0,-0.001544,-0.000574,-0.216209,0.019868,0.006030,-0.004960,-1.0327,-2.8002,-3.5841
10497,11.0,-0.002548,0.000012,-0.216472,-0.002356,0.003726,-0.013284,-1.1779,-1.2043,-2.8934,0.00036317,-0.00020793,0.04510732,0.00087544,0.00292596,-0.00763737,-0.1183,0.1306,-10.1033,-0.023678,-0.034827,0.022994,-2.7321,0.2150,111,-1,0,-0.001375,-0.000613,-0.215367,0.023536,0.005297,0.002453,-1.0758,-2.9028,-3.6198
10508,11.0,-0.002637,0.000021,-0.215687,-0.002656,0.002369,-0.004992,-1.1739,-1.1817,-2.9182,0.00032616,-0.00025373,0.04510599,0.00076052,0.00358945,-0.01306761,-0.1633,0.1067,-10.0667,-0.004124,0.027384,-0.003326,-2.7321,0.2150,123,0,0,-0.001588,-0.000611,-0.215380,0.021954,0.003849,-0.000617,-1.0948,-2.9204,-3.6078
10519,11.0,-0.002907,0.000095,-0.215771,-0.005060,0.002959,-0.006503,-1.1327,-1.1203,-2.6716,0.00031662,-0.00035127,0.04504878,0.00119468,0.00319726,-0.01294513,-0.1715,0.2144,-9.9315,0.065651,0.076203,-0.014238,-2.7321,0.2150,120,0,0,-0.001645,-0.000604,-0.215399,0.022070,0.002511,-0.003052,-1.0999,-2.9168,-3.6204
10530,11.0,-0.003154,0.000160,-0.215836,-0.006909,0.004649,-0.005262,-1.1048,-1.0678,-2.6992,0.00038565,-0.00043941,0.04504702,0.00163159,0.00243637,-0.01296713,-0.1652,0.3376,-9.7039,0.060753,0.067704,0.003459,-2.7321,0.2170,118,0,0,-0.002089,-0.000466,-0.216232,0.017871,0.003797,-0.012632,-1.0236,-2.8153,-3.6623
10541,11.0,-0.003261,0.000192,-0.216472,-0.007325,0.006088,-0.010634,-1.0861,-1.0491,-2.7062,0.00039915,-0.00045145,0.04504627,0.00176475,0.00243841,-0.00964494,-0.1923,0.3490,-9.6817,0.032196,0.027216,0.031692,-2.7321,0.2170,123,0,0,-0.002303,-0.000402,-0.216353,0.016059,0.005325,-0.011550,-0.9991,-2.7592,-3.6905
10553,12.0,-0.003264,0.000205,-0.216596,-0.006263,0.005693,-0.009996,-1.0893,-1.0547,-2.7077,0.00043682,-0.00042210,0.04504716,0.00147068,0.00246487,-0.00963929,-0.1672,0.2139,-9.7627,0.002558,-0.004462,0.050938,-2.7321,0.2170,121,0,0,-0.002465,-0.000342,-0.216594,0.015832,0.007175,-0.009532,-0.9800,-2.7296,-3.6978
10564,11.0,-0.003211,0.000200,-0.216738,-0.004164,0.003556,-0.010748,-1.1029,-1.0710,-2.7051,0.00045949,-0.00037184,0.04504820,0.00115235,0.00261129,-0.00945742,-0.1024,0.0598,-9.8555,-0.017051,-0.018033,0.055465,-2.7321,0.2150,119,0,0,-0.002446,-0.000335,-0.216686,0.017046,0.006465,-0.008886,-0.9837,-2.7474,-3.6841
10575,11.0,-0.003113,0.000166,-0.215791,-0.002130,0.000293,0.000304,-1.1154,-1.0901,-2.7172,0.00034762,-0.00034204,0.04504846,0.00038455,0.00410860,-0.01538420,-0.1268,-0.0627,-9.9544,-0.047414,-0.026854,0.014975,-2.7321,0.2150,117,0,0,-0.002275,-0.000365,-0.215419,0.021225,0.001613,0.004058,-1.0135,-2.7855,-3.6966
10586,11.0,-0.003115,0.000160,-0.215819,-0.000923,-0.001484,-0.002061,-1.1245,-1.0909,-2.7508,0.00034701,-0.00033548,0.04504861,0.00034537,0.00410223,-0.01526910,-0.0883,0.0411,-10.0198,-0.015249,0.000493,-0.007881,-2.7427,0.2150,130,0,0,-0.002195,-0.000399,-0.215414,0.022521,-0.001112,0.002385,-1.0267,-2.7880,-3.7235
10597,11.0,-0.003173,0.000186,-0.215853,-0.000967,-0.002515,-0.004114,-1.0980,-1.0758,-2.7857,0.00025153,-0.00038627,0.04504820,0.00022508,0.00465341,-0.01525361,-0.1310,0.0456,-10.0122,0.020816,0.014670,-0.018534,-2.7427,0.2170,123,0,0,-0.002177,-0.000408,-0.215399,0.023698,-0.002740,0.000617,-1.0357,-2.8003,-3.7514
10608,11.0,-0.003325,0.000207,-0.216481,-0.001913,-0.002533,-0.012611,-1.0858,-1.0417,-2.8254,0.00023218,-0.00044993,0.04504745,0.00065100,0.00447220,-0.01212537,-0.1245,0.1449,-9.9892,0.015225,0.044436,-0.019285,-2.7427,0.2170,123,0,0,-0.002265,-0.000371,-0.216327,0.023674,-0.004006,-0.011664,-1.0015,-2.7712,-3.8351
10619,11.0,-0.003560,0.000257,-0.216627,-0.003756,-0.001827,-0.013874,-1.0542,-0.9863,-2.8551,0.00020206,-0.00057147,0.04504650,0.00100065,0.00429901,-0.01213259,-0.1222,0.1798,-9.9346,0.044771,0.067168,-0.000780,-2.7427,0.2170,122,0,0,-0.002407,-0.000348,-0.216451,0.022373,-0.003659,-0.013120,-0.9858,-2.7221,-3.8882
10630,11.0,-0.003779,0.000303,-0.216806,-0.005350,-0.001673,-0.014468,-1.0275,-0.9372,-2.6415,0.00018057,-0.00064972,0.04499330,0.00126288,0.00388414,-0.01200055,-0.1289,0.1301,-9.8467,0.039879,0.062258,0.006818,-2.7427,0.2150,120,0,0,-0.002602,-0.000303,-0.216621,0.020824,-0.002929,-0.014513,-0.9582,-2.6859,-3.9160
10641,11.0,-0.003930,0.000322,-0.215857,-0.006159,-0.002015,-0.001603,-1.0132,-0.9040,-2.6653,0.00012885,-0.00070164,0.04499274,0.00133234,0.00422020,-0.01798484,-0.1336,0.1029,-9.8281,0.011761,0.044354,0.003969,-2.7427,0.2150,120,0,0,-0.002958,-0.000223,-0.215573,0.018075,-0.002536,-0.001586,-0.9126,-2.6018,-3.9781
10652,11.0,-0.003689,0.000322,-0.215894,-0.002642,-0.002675,-0.001772,-1.0037,-0.9008,-2.6967,0.00011003,-0.00056571,0.04499495,0.00053943,0.00410826,-0.01786452,-0.1415,0.0900,-9.8206,0.011486,0.026545,-0.004928,-2.7427,0.2150,112,1,0,-0.003076,-0.000206,-0.215615,0.017227,-0.002688,-0.001699,-0.9006,-2.5630,-4.0168
10663,11.0,-0.003743,0.000331,-0.215913,-0.002825,-0.002576,-0.001652,-0.9937,-0.8898,-2.7319,0.00007772,-0.00058348,0.04499499,0.00056000,0.00413930,-0.01786351,-0.1421,0.1424,-9.8149,0.009081,0.014766,-0.012204,-2.7427,0.2170,113,0,0,-0.002843,-0.000213,-0.215631,0.020636,-0.003205,-0.001502,-0.8922,-2.5698,-4.0442
10674,11.0,-0.003423,0.000307,-0.216498,0.000863,-0.001778,-0.008164,-0.9934,-0.9013,-2.7710,0.00006850,-0.00042685,0.04499771,-0.00031072,0.00405697,-0.01482932,-0.1750,0.2451,-9.8128,-0.001919,0.005885,-0.014928,-2.7427,0.2170,106,1,0,-0.002600,-0.000225,-0.216417,0.023815,-0.002730,-0.008824,-0.8785,-2.5648,-4.1279
10685,11.0,-0.003394,0.000290,-0.216587,0.001071,-0.000718,-0.008023,-1.0075,-0.9073,-2.8063,0.00012904,-0.00041581,0.04499827,-0.00033415,0.00354890,-0.01483946,-0.1598,0.2821,-9.8075,-0.010026,-0.007355,-0.003770,-2.7427,0.2170,106,0,0,-0.002598,-0.000233,-0.216505,0.023407,-0.001828,-0.008657,-0.8849,-2.5531,-4.1793
10696,11.0,-0.003355,0.000286,-0.216702,0.001551,0.000435,-0.008611,-1.0047,-0.9168,-2.8285,0.00012966,-0.00040367,0.04499852,-0.00040112,0.00355145,-0.01469997,-0.1448,0.2848,-9.8459,0.004089,-0.012952,0.010150,-2.7427,0.2160,112,0,0,-0.002571,-0.000246,-0.216623,0.023708,-0.000767,-0.008746,-0.8889,-2.5657,-4.2072
10707,11.0,-0.003399,0.000323,-0.216331,0.001001,0.001266,-0.003983,-0.9824,-0.9079,-2.8415,0.00015102,-0.00043648,0.04499834,-0.00030124,0.00323741,-0.01717589,-0.1477,0.2277,-9.9002,0.040621,0.009167,0.027310,-2.7427,0.2160,108,0,0,-0.002501,-0.000241,-0.216190,0.024583,0.000988,-0.003339,-0.8855,-2.5772,-4.2570
10718,11.0,-0.003495,0.000357,-0.216400,0.000278,0.001234,-0.005134,-0.9635,-0.8864,-2.8485,0.00014385,-0.00048706,0.04499733,-0.00002186,0.00319447,-0.01707441,-0.1112,0.1511,-9.9086,0.028957,0.026348,0.031496,-2.7427,0.2160,109,0,0,-0.002521,-0.000207,-0.216227,0.024217,0.001715,-0.004106,-0.8679,-2.5596,-4.2789
10729,11.0,-0.003604,0.000376,-0.216461,-0.000546,0.000408,-0.005921,-0.9513,-0.8575,-2.8553,0.00009548,-0.00056354,0.04499617,0.00006594,0.00357162,-0.01706633,-0.1047,0.0793,-9.8983,0.009168,0.032702,0.030214,-2.7427,0.2180,109,0,0,-0.002581,-0.000172,-0.216272,0.023867,0.002014,-0.004781,-0.8485,-2.5529,-4.2801
10740,11.0,-0.003735,0.000400,-0.217303,-0.002061,-0.000741,-0.015194,-0.9431,-0.8252,-2.6542,0.00009078,-0.00062157,0.04494085,0.00021539,0.00321378,-0.01306296,-0.1517,0.0330,-9.8458,0.012591,0.039705,0.012085,-2.8114,0.2180,103,0,0,-0.002766,-0.000127,-0.217358,0.021986,0.000410,-0.015699,-0.8335,-2.4978,-4.3051
10751,11.0,-0.003812,0.000430,-0.217466,-0.002788,-0.000137,-0.014419,-0.9233,-0.8120,-2.6974,0.00008817,-0.00063867,0.04494070,0.00042481,0.00301391,-0.01307000,-0.1545,0.1823,-9.7498,0.030989,0.019449,-0.023486,-2.8114,0.2180,108,0,0,-0.002955,-0.000075,-0.217673,0.019653,-0.000594,-0.015398,-0.8026,-2.4493,-4.3641
10762,11.0,-0.003811,0.000452,-0.217618,-0.002596,0.002166,-0.013261,-0.9000,-0.8173,-2.7365,0.00008204,-0.00062363,0.04494112,0.00034410,0.00298130,-0.01307134,-0.1620,0.3561,-9.7125,0.035287,-0.005855,-0.016658,-2.8114,0.2160,108,0,0,-0.002995,-0.000046,-0.216605,0.019267,0.000467,-0.001093,-0.7868,-2.4333,-4.4204
10772,10.0,-0.003689,0.000440,-0.216775,-0.000692,0.003497,-0.001062,-0.9158,-0.8447,-2.7595,0.00021020,-0.00056898,0.04494341,-0.00019185,0.00223286,-0.01804682,-0.1173,0.3549,-9.7366,0.000493,-0.039815,0.023874,-2.8114,0.2160,105,0,0,-0.002968,-0.000030,-0.216611,0.019909,0.002576,0.000041,-0.7684,-2.4501,-4.4507
10783,11.0,-0.003535,0.000412,-0.216789,0.001510,0.003412,-0.001504,-0.9347,-0.8805,-2.7498,0.00023982,-0.00049267,0.04494490,-0.00059430,0.00239473,-0.01803940,-0.1084,0.2252,-9.8655,-0.025225,-0.046806,0.065417,-2.8114,0.2160,112,0,0,-0.002852,-0.000040,-0.216606,0.021635,0.003962,0.001020,-0.7831,-2.4652,-4.4852
10795,12.0,-0.003484,0.000415,-0.216817,0.002495,0.000291,-0.003162,-0.9259,-0.8862,-2.7354,0.00010739,-0.00051693,0.04494441,-0.00099705,0.00359680,-0.01800799,-0.0825,-0.0924,-9.9689,-0.012286,-0.014448,0.056827,-2.8114,0.2170,116,0,0,-0.002568,-0.000093,-0.216695,0.025556,0.002991,-0.000684,-0.8153,-2.5186,-4.4767
10806,11.0,-0.003543,0.000425,-0.216912,0.002152,-0.003272,-0.005066,-0.9321,-0.8694,-2.7496,0.00009642,-0.00056058,0.04494406,-0.00076766,0.00353590,-0.01774953,-0.0779,-0.1842,-9.9499,-0.011650,0.020301,0.023402,-2.7902,0.2170,116,0,0,-0.002506,-0.000095,-0.216708,0.026506,0.000394,-0.001894,-0.8254,-2.5361,-4.4673
10817,11.0,-0.003713,0.000467,-0.216971,0.000478,-0.005474,-0.005676,-0.8873,-0.8252,-2.7870,-0.00011946,-0.00068916,0.04494315,-0.00053828,0.00473515,-0.01772565,-0.0853,-0.1554,-9.8865,0.028505,0.050375,-0.023474,-2.7902,0.2170,116,0,0,-0.002617,-0.000075,-0.216780,0.025225,-0.005156,-0.004401,-0.8114,-2.4891,-4.5181
10828,11.0,-0.003921,0.000503,-0.217036,-0.001731,-0.005746,-0.004885,-0.8640,-0.7771,-2.8546,-0.00016466,-0.00079461,0.04494330,0.00000628,0.00450723,-0.01769628,-0.1187,0.0266,-9.7474,0.029172,0.062407,-0.056157,-2.7902,0.2160,116,0,0,-0.002760,-0.000032,-0.216210,0.023395,-0.006772,0.002057,-0.7696,-2.4384,-4.5802
10839,11.0,-0.004119,0.000526,-0.216464,-0.004075,-0.004103,0.004756,-0.8497,-0.7361,-2.9228,-0.00015678,-0.00085538,0.04494326,0.00063883,0.00402256,-0.02073560,-0.1719,0.2196,-9.5954,0.025133,0.059433,-0.057551,-2.7902,0.2160,115,0,0,-0.002936,0.000007,-0.216185,0.021352,-0.006898,0.002926,-0.7458,-2.4022,-4.6546
10850,11.0,-0.003764,0.000511,-0.216400,0.000009,-0.001801,0.007823,-0.8375,-0.7573,-2.7560,-0.00016774,-0.00066255,0.04489040,-0.00055357,0.00369880,-0.02069406,-0.1659,0.3339,-9.5401,0.017258,-0.008845,-0.017478,-2.7902,0.2160,122,1,0,-0.003218,0.000056,-0.216093,0.017859,-0.003513,0.007430,-0.7075,-2.3318,-4.8021
10861,11.0,-0.003594,0.000493,-0.216306,0.001775,-0.000635,0.009368,-0.8477,-0.7986,-2.7845,-0.00010110,-0.00057453,0.04489207,-0.00092803,0.00314664,-0.02070067,-0.1459,0.2646,-9.6864,-0.003258,-0.053064,0.004135,-2.7902,0.2180,120,0,0,-0.002895,0.000035,-0.216005,0.021577,-0.001719,0.010304,-0.7080,-2.3411,-4.8548
10872,11.0,-0.003043,0.000808,-0.217165,0.007758,0.002474,-0.002370,-0.8326,-0.8578,-2.7998,-0.00027334,-0.00032520,0.04489848,-0.00216058,0.00223558,-0.01602829,-0.1268,0.1040,-9.8811,-0.000631,-0.060309,0.014764,-2.7902,0.2180,123,1,1,-0.002225,0.000280,-0.217138,0.028771,0.003168,-0.000603,-0.7011,-2.4229,-4.9115
10884,12.0,-0.002964,0.000834,-0.217208,0.007832,0.000877,-0.004857,-0.8080,-0.8708,-2.8237,-0.00035560,-0.00034804,0.04489806,-0.00224494,0.00284981,-0.01601443,-0.1229,-0.0000,-10.0336,0.019969,-0.022526,0.005014,-2.7744,0.2170,121,0,0,-0.002052,0.000276,-0.217149,0.030224,0.002045,-0.001534,-0.6998,-2.4655,-4.9298
10895,11.0,-0.003087,0.000885,-0.217286,0.005712,-0.000145,-0.007039,-0.7801,-0.8396,-2.8682,-0.00037518,-0.00045223,0.04489740,-0.00172798,0.00275579,-0.01595354,-0.1281,0.0017,-10.0095,0.040156,0.035921,-0.021725,-2.7744,0.2170,119,0,0,-0.002013,0.000339,-0.216986,0.029135,-0.000271,-0.003210,-0.6560,-2.4570,-5.0043
10906,11.0,-0.003308,0.000935,-0.217142,0.002387,0.000217,-0.004774,-0.7511,-0.7883,-2.9230,-0.00040104,-0.00057538,0.04489621,-0.00091523,0.00273518,-0.01703480,-0.1652,0.1156,-9.8541,0.040500,0.066464,-0.038559,-2.7744,0.2170,122,0,0,-0.002152,0.000390,-0.217039,0.026771,-0.000682,-0.004697,-0.6234,-2.4062,-5.0660
10917,11.0,-0.003488,0.000965,-0.217195,-0.000191,0.001729,-0.003074,-0.7318,-0.7458,-2.9733,-0.00040644,-0.00067659,0.04489504,-0.00041754,0.00271032,-0.01698959,-0.1677,0.2440,-9.6573,0.028535,0.054131,-0.032136,-2.7744,0.2180,123,0,0,-0.002341,0.000441,-0.217086,0.023856,-0.000019,-0.004799,-0.5973,-2.3641,-5.1243
10928,11.0,-0.003468,0.000956,-0.217216,-0.000278,0.003096,-0.000830,-0.7469,-0.7534,-3.0084,-0.00028973,-0.00064008,0.04489541,-0.00029319,0.00202750,-0.01700597,-0.1696,0.2987,-9.6186,-0.002997,-0.005652,-0.004926,-2.7744,0.2180,123,0,0,-0.002593,0.000499,-0.217607,0.020086,0.002852,-0.006070,-0.5737,-2.2972,-5.2306
10939,11.0,-0.003272,0.000934,-0.217633,0.001495,0.003568,-0.004554,-0.7553,-0.7993,-3.0355,-0.00026482,-0.00053922,0.04489680,-0.00076704,0.00213727,-0.01504474,-0.1743,0.2315,-9.7251,-0.010979,-0.059474,0.002512,-2.7744,0.2180,120,0,0,-0.002540,0.000487,-0.217658,0.020394,0.003892,-0.004035,-0.5904,-2.2993,-5.2733
10950,11.0,-0.003072,0.000925,-0.217686,0.003207,0.003669,-0.005127,-0.7617,-0.8481,-3.0610,-0.00020471,-0.00042955,0.04489832,-0.00108104,0.00194003,-0.01504640,-0.1739,0.1973,-9.8739,-0.000351,-0.061631,0.006857,-2.7744,0.2180,122,0,0,-0.002362,0.000462,-0.217709,0.022236,0.004326,-0.003055,-0.5988,-2.3460,-5.2968
10961,11.0,-0.003012,0.000940,-0.217795,0.003493,0.003116,-0.007437,-0.7556,-0.8605,-2.8805,-0.00018537,-0.00041740,0.04483740,-0.00134338,0.00176277,-0.01483877,-0.1463,0.1091,-9.9869,0.012731,-0.019528,0.011200,-2.6951,0.2180,116,0,0,-0.002028,0.000439,-0.217815,0.025287,0.004140,-0.004422,-0.6089,-2.4162,-5.3499
10972,11.0,-0.003082,0.000968,-0.217925,0.002473,0.002449,-0.009555,-0.7390,-0.8420,-2.9048,-0.00021288,-0.00048034,0.04483628,-0.00115093,0.00202420,-0.01465259,-0.1298,0.0720,-9.9751,0.019841,0.020420,0.004682,-2.6951,0.2180,113,0,0,-0.001973,0.000452,-0.217911,0.025381,0.003620,-0.006384,-0.6017,-2.4138,-5.3782
10983,11.0,-0.003218,0.000999,-0.218068,0.000417,0.001845,-0.010859,-0.7259,-0.8091,-2.9308,-0.00021291,-0.00056129,0.04483506,-0.00076781,0.00202279,-0.01450009,-0.1678,0.0653,-9.9060,0.020086,0.041395,0.004597,-2.6951,0.2180,113,0,0,-0.002018,0.000480,-0.217982,0.024630,0.002981,-0.007815,-0.5913,-2.4056,-5.3987
10994,11.0,-0.003349,0.001034,-0.218184,-0.000839,0.001675,-0.010257,-0.7057,-0.7782,-2.9595,-0.00023438,-0.00064253,0.04483416,-0.00054088,0.00212731,-0.01450012,-0.1123,0.0925,-9.7688,0.027190,0.037343,0.000153,-2.6951,0.2180,119,0,0,-0.002239,0.000549,-0.217957,0.020920,0.002368,-0.006939,-0.5640,-2.3414,-5.4577
11005,11.0,-0.003337,0.001067,-0.218139,-0.001281,0.001977,-0.007786,-0.6821,-0.7841,-2.9927,-0.00024202,-0.00063070,0.04483448,-0.00060480,0.00209937,-0.01521312,-0.1986,0.1324,-9.7609,0.035513,-0.007641,-0.007919,-2.6951,0.2180,112,0,0,-0.002339,0.000589,-0.218024,0.019778,0.002351,-0.006341,-0.5457,-2.3043,-5.4953
11016,11.0,-0.003304,0.001055,-0.218222,-0.000886,0.001957,-0.007247,-0.6931,-0.7928,-3.0266,-0.00020438,-0.00059821,0.04483460,-0.00066091,0.00201772,-0.01521492,-0.1488,0.1544,-9.7740,-0.012097,-0.009040,-0.008453,-2.6951,0.2180,109,0,0,-0.002313,0.000634,-0.218192,0.019712,0.002827,-0.005854,-0.5198,-2.3056,-5.5682
11027,11.0,-0.003291,0.001080,-0.218343,-0.000438,0.002344,-0.007621,-0.6752,-0.7988,-3.0467,-0.00020562,-0.00058729,0.04483479,-0.00070915,0.00200978,-0.01501455,-0.1190,0.1552,-9.8111,0.027588,-0.008305,0.012795,-2.6951,0.2180,113,0,0,-0.002280,0.000627,-0.218011,0.020268,0.002853,-0.002787,-0.5254,-2.3176,-5.5975
11038,11.0,-0.003314,0.001089,-0.218174,-0.000482,0.002228,-0.004361,-0.6725,-0.7929,-3.0678,-0.00019076,-0.00060593,0.04483457,-0.00074419,0.00201815,-0.01615881,-0.1208,0.1254,-9.7934,0.006092,0.006182,0.012547,-2.6951,0.2180,105,0,0,-0.002257,0.000647,-0.218038,0.020684,0.003104,-0.002543,-0.5164,-2.3095,-5.6297
11049,11.0,-0.003322,0.001083,-0.218264,-0.000250,0.002137,-0.004002,-0.6794,-0.7909,-3.0905,-0.00017415,-0.00060667,0.04483426,-0.00073800,0.00209250,-0.01593481,-0.1122,0.1420,-9.7397,-0.009382,0.002924,0.008860,-2.6423,0.2180,105,0,0,-0.002274,0.000663,-0.218164,0.020856,0.002752,-0.002777,-0.5168,-2.2935,-5.6814
11060,11.0,-0.003278,0.001085,-0.218301,0.000208,0.002078,-0.002771,-0.6790,-0.8018,-3.1133,-0.00015326,-0.00058087,0.04483452,-0.00083271,0.00205545,-0.01593477,-0.1405,0.1350,-9.7122,0.003292,-0.014029,0.009070,-2.6423,0.2180,104,0,0,-0.002263,0.000659,-0.218187,0.021186,0.002775,-0.001686,-0.5216,-2.2989,-5.7015
11071,11.0,-0.003148,0.001061,-0.218165,0.001708,0.001371,-0.000342,-0.6966,-0.8304,-2.9337,-0.00012476,-0.00051710,0.04476763,-0.00135126,0.00191775,-0.01666664,-0.1291,0.1007,-9.7773,-0.023556,-0.038195,0.006786,-2.6423,0.2180,111,0,0,-0.002100,0.000639,-0.217973,0.022828,0.002072,0.002640,-0.5351,-2.3257,-5.7554
11082,11.0,-0.003032,0.001078,-0.218173,0.002886,0.000841,-0.001194,-0.6790,-0.8576,-2.9520,-0.00015958,-0.00047803,0.04476827,-0.00164544,0.00211672,-0.01665872,-0.1303,0.0655,-9.9033,0.020870,-0.038659,0.013606,-2.6423,0.2180,108,0,0,-0.001958,0.000618,-0.217945,0.024168,0.001303,0.003018,-0.5435,-2.3421,-5.7863
11093,11.0,-0.003036,0.000790,-0.218259,0.002676,-0.003186,-0.003818,-0.6565,-0.8635,-2.9847,-0.00000994,-0.00048870,0.04476546,-0.00159373,0.00279085,-0.01636837,-0.1299,0.0496,-9.9970,0.054627,-0.010757,-0.006812,-2.6423,0.2180,110,0,-1,-0.001848,0.000637,-0.218002,0.025159,0.000775,0.001429,-0.5266,-2.3709,-5.8065
11104,11.0,-0.003060,0.000799,-0.218121,0.002404,-0.003404,-0.003425,-0.6433,-0.8544,-3.0211,-0.00007123,-0.00053739,0.04476541,-0.00160933,0.00297931,-0.01720794,-0.1145,0.0454,-9.9917,0.009531,0.007062,-0.013209,-2.7110,0.2180,103,0,0,-0.001828,0.000401,-0.217905,0.024856,-0.003075,-0.000616,-0.4814,-2.3717,-5.8795
11115,11.0,-0.003102,0.000786,-0.218194,0.001717,-0.002730,-0.005125,-0.6486,-0.8419,-3.0594,-0.00008057,-0.00057277,0.04476515,-0.00145008,0.00293739,-0.01708204,-0.1456,0.1541,-9.9489,-0.010634,0.015275,-0.015165,-2.7110,0.2180,110,0,0,-0.001845,0.000405,-0.217919,0.024391,-0.003065,-0.002151,-0.4773,-2.3485,-5.9289
11126,11.0,-0.003131,0.000758,-0.218253,0.001126,-0.001719,-0.005739,-0.6712,-0.8329,-3.1001,-0.00001699,-0.00058777,0.04476511,-0.00127201,0.00250320,-0.01709259,-0.1585,0.2181,-9.8799,-0.024634,0.013049,-0.016506,-2.7110,0.2190,113,0,0,-0.001873,0.000397,-0.217947,0.023864,-0.002457,-0.003402,-0.4814,-2.3412,-5.9671
11137,11.0,-0.003112,0.000723,-0.218689,0.001379,-0.000873,-0.010064,-0.6905,-0.8341,-3.1131,-0.00000594,-0.00058413,0.04476497,-0.00127152,0.00253964,-0.01545869,-0.1316,0.2170,-9.8231,-0.029598,-0.001875,0.024204,-2.7110,0.2190,116,0,0,-0.001857,0.000659,-0.218602,0.023557,0.002836,-0.009898,-0.5067,-2.3176,-6.0455
11148,11.0,-0.003108,0.000718,-0.218798,0.001338,-0.000894,-0.009762,-0.6929,-0.8330,-3.1193,-0.00001101,-0.00059435,0.04476492,-0.00127797,0.00255168,-0.01545814,-0.1352,0.1137,-9.7964,-0.004661,-0.000358,0.034963,-2.7110,0.2190,123,0,0,-0.001827,0.000635,-0.218738,0.023636,0.003060,-0.010215,-0.5321,-2.3058,-6.0686
11159,11.0,-0.003150,0.000729,-0.218939,0.001085,-0.001461,-0.009734,-0.6874,-0.8224,-3.1316,-0.00002247,-0.00062508,0.04476469,-0.00114067,0.00250004,-0.01529812,-0.1029,0.0454,-9.7832,0.006847,0.012324,0.025695,-2.7110,0.2180,122,0,0,-0.001810,0.000633,-0.218839,0.023602,0.002709,-0.009908,-0.5374,-2.3098,-6.0744
11170,11.0,-0.003217,0.000754,-0.218453,0.000238,-0.001494,-0.001810,-0.6675,-0.8070,-3.1600,-0.00006990,-0.00066916,0.04476431,-0.00099540,0.00262874,-0.01783798,-0.1350,0.0686,-9.7251,0.023096,0.018561,-0.000770,-2.7110,0.2180,122,0,0,-0.001863,0.000666,-0.218316,0.022384,0.001007,-0.001839,-0.5276,-2.2813,-6.1143
11181,11.0,-0.003241,0.000765,-0.218481,-0.000248,-0.000974,-0.000213,-0.6587,-0.8012,-3.0105,-0.00007403,-0.00068538,0.04469578,-0.00112997,0.00234923,-0.01776150,-0.1569,0.1350,-9.6614,0.013676,0.006153,-0.016066,-2.7480,0.2180,130,0,0,-0.001909,0.000696,-0.218330,0.021453,0.000867,-0.000692,-0.5117,-2.2557,-6.1545
11192,11.0,-0.003210,0.000755,-0.218475,-0.000241,-0.000114,0.001311,-0.6672,-0.8113,-3.0447,-0.00002223,-0.00064263,0.04469625,-0.00103443,0.00198176,-0.01777004,-0.1799,0.2008,-9.6861,-0.004231,-0.009038,-0.008524,-2.7480,0.2180,122,0,0,-0.001928,0.000715,-0.218358,0.020946,0.001011,0.000490,-0.5010,-2.2534,-6.1910
11203,11.0,-0.003063,0.000749,-0.218201,0.001121,0.000395,0.004614,-0.6640,-0.8469,-3.0655,-0.00002216,-0.00056588,0.04469752,-0.00138378,0.00199087,-0.01886448,-0.1702,0.1691,-9.7969,0.004579,-0.046440,0.011190,-2.7480,0.2180,128,0,0,-0.001807,0.000696,-0.217973,0.021382,0.002010,0.006804,-0.5127,-2.2713,-6.2577
11214,11.0,-0.002883,0.000740,-0.218158,0.002793,0.000172,0.003329,-0.6629,-0.8904,-3.0892,-0.00002409,-0.00047145,0.04469879,-0.00170067,0.00202297,-0.01885979,-0.1660,0.1074,-9.9437,0.000641,-0.056074,0.005614,-2.7480,0.2180,123,0,0,-0.001665,0.000684,-0.217926,0.022515,0.002179,0.007012,-0.5182,-2.2920,-6.2857
11225,11.0,-0.002740,0.000729,-0.218158,0.003891,-0.000108,0.000445,-0.6658,-0.9223,-3.1193,-0.00002085,-0.00041339,0.04469962,-0.00195154,0.00203572,-0.01875618,-0.1708,0.1044,-10.0641,-0.004873,-0.042925,-0.003865,-2.7480,0.2190,117,0,0,-0.001494,0.000670,-0.217860,0.024141,0.001827,0.006212,-0.5186,-2.3333,-6.3066
11236,11.0,-0.002765,0.000725,-0.218598,0.003348,-0.000322,-0.007175,-0.6690,-0.9121,-3.1478,-0.00002520,-0.00045650,0.04469904,-0.00184484,0.00208965,-0.01694068,-0.1419,0.1014,-10.0652,-0.006998,0.009868,-0.000089,-2.7480,0.2190,117,0,0,-0.001257,0.000645,-0.218452,0.025796,0.000817,-0.004562,-0.5262,-2.3711,-6.3679
11247,11.0,-0.002901,0.000736,-0.218703,0.001264,-0.000067,-0.009038,-0.6656,-0.8773,-3.1732,-0.00002765,-0.00054488,0.04469775,-0.00146617,0.00207920,-0.01687067,-0.1776,0.1266,-9.9749,0.004352,0.043606,0.005460,-2.7480,0.2190,117,0,0,-0.001256,0.000643,-0.218510,0.025283,0.000520,-0.006891,-0.5307,-2.3518,-6.4036
11258,11.0,-0.003141,0.000777,-0.218798,-0.001504,0.000805,-0.008183,-0.6474,-0.8215,-3.1955,-0.00001277,-0.00067104,0.04469613,-0.00086993,0.00181959,-0.01688376,-0.1498,0.1591,-9.7468,0.032030,0.071855,0.011805,-2.7480,0.2180,120,0,0,-0.001500,0.000690,-0.218178,0.021259,0.001200,-0.003822,-0.5245,-2.2778,-6.4621
11269,11.0,-0.003346,0.000805,-0.218386,-0.003687,0.001306,-0.000319,-0.6352,-0.7744,-3.2103,-0.00001701,-0.00076765,0.04469463,-0.00047930,0.00182058,-0.01893525,-0.1506,0.1379,-9.6285,0.018618,0.061605,0.021877,-2.7850,0.2180,125,0,0,-0.001704,0.000740,-0.218220,0.018764,0.002030,-0.003179,-0.5069,-2.2310,-6.4823
11280,11.0,-0.003439,0.000840,-0.218376,-0.004364,0.000596,0.002183,-0.6100,-0.7565,-3.2210,-0.00008418,-0.00079252,0.04469401,-0.00034407,0.00217206,-0.01893103,-0.1341,0.0091,-9.6010,0.027397,0.024649,0.025643,-2.7850,0.2180,119,0,0,-0.002029,0.000820,-0.218248,0.014952,0.002234,0.000706,-0.4869,-2.1456,-6.5186
11291,11.0,-0.003404,0.000851,-0.218352,-0.003620,-0.001625,0.003619,-0.6093,-0.7669,-3.0658,-0.00008670,-0.00075333,0.04462395,-0.00071512,0.00190943,-0.01888992,-0.1336,-0.1136,-9.6893,0.001184,-0.012546,0.008386,-2.7850,0.2190,124,0,0,-0.002088,0.000854,-0.218601,0.014378,0.001416,-0.001164,-0.4675,-2.1218,-6.5382
11302,11.0,-0.003308,0.000853,-0.218670,-0.002280,-0.003624,-0.000635,-0.5904,-0.7926,-3.0987,-0.00023851,-0.00068319,0.04462354,-0.00099436,0.00276870,-0.01740068,-0.1369,-0.1270,-9.8394,0.000424,-0.031489,-0.016929,-2.7850,0.2190,122,0,0,-0.002049,0.000862,-0.218606,0.015055,-0.000580,0.000309,-0.4660,-2.1352,-6.5613
11313,11.0,-0.003213,0.000865,-0.218695,-0.000947,-0.005304,-0.002850,-0.5787,-0.8179,-3.1482,-0.00027469,-0.00062426,0.04462427,-0.00124869,0.00261041,-0.01736899,-0.1266,-0.1117,-10.0221,0.012435,-0.032156,-0.037689,-2.7850,0.2190,111,0,0,-0.001862,0.000861,-0.218609,0.017527,-0.004662,-0.000412,-0.4476,-2.1717,-6.6452
11324,11.0,-0.003222,0.000874,-0.218743,-0.000796,-0.005933,-0.005887,-0.5588,-0.8162,-3.2129,-0.00038950,-0.00063547,0.04462442,-0.00131104,0.00300920,-0.01735999,-0.1235,-0.0375,-10.1035,0.009633,0.001077,-0.060463,-2.7638,0.2190,112,0,0,-0.001777,0.000865,-0.218750,0.018440,-0.006030,-0.003800,-0.4252,-2.1790,-6.7059
11335,11.0,-0.003321,0.000880,-0.218913,-0.001730,-0.004918,-0.009997,-0.5490,-0.7940,-3.2869,-0.00042274,-0.00068304,0.04462508,-0.00110444,0.00287305,-0.01700545,-0.1409,0.1240,-10.1062,0.009024,0.029285,-0.068862,-2.7638,0.2190,111,0,0,-0.001828,0.000883,-0.218895,0.018059,-0.006106,-0.009484,-0.4057,-2.1704,-6.8580
11346,11.0,-0.003486,0.000898,-0.219035,-0.003593,-0.002725,-0.012243,-0.5420,-0.7602,-3.3510,-0.00036539,-0.00073330,0.04462592,-0.00059913,0.00212550,-0.01702467,-0.1749,0.2436,-10.0280,0.022501,0.048600,-0.050171,-2.7638,0.2190,112,0,0,-0.001921,0.000896,-0.219024,0.017226,-0.004725,-0.012167,-0.3954,-2.1503,-6.9351
11357,11.0,-0.003657,0.000925,-0.219192,-0.005397,0.000428,-0.013483,-0.5175,-0.7240,-3.3966,-0.00038341,-0.00080025,0.04462557,-0.00031827,0.00205246,-0.01696016,-0.1805,0.3376,-9.9175,0.035187,0.048440,-0.025293,-2.7638,0.2180,107,0,0,-0.002065,0.000924,-0.218376,0.015582,-0.002455,-0.005468,-0.3912,-2.1072,-7.0084
11368,11.0,-0.003788,0.000945,-0.218598,-0.006284,0.003054,-0.005394,-0.5200,-0.6999,-3.4279,-0.00023247,-0.00082053,0.04462615,-0.00006901,0.00097749,-0.01998374,-0.1502,0.3481,-9.8758,0.025057,0.036266,0.000583,-2.7638,0.2180,107,0,0,-0.002217,0.000960,-0.218436,0.014121,0.000481,-0.006490,-0.3699,-2.0753,-7.0583
11379,11.0,-0.003834,0.000924,-0.218673,-0.006108,0.003941,-0.006009,-0.5363,-0.6912,-3.4350,-0.00020112,-0.00080680,0.04462575,-0.00012572,0.00110751,-0.01992829,-0.1366,0.2336,-9.8691,-0.021953,0.015086,0.033034,-2.7638,0.2180,114,0,0,-0.002460,0.000685,-0.218593,0.012619,0.001392,-0.007304,-0.3874,-2.0234,-7.1083
11390,11.0,-0.003865,0.000897,-0.218741,-0.005810,0.003187,-0.006331,-0.5623,-0.6855,-3.4413,-0.00016625,-0.00077941,0.04462535,-0.00016085,0.00125440,-0.01992678,-0.1294,0.0956,-9.8579,-0.037007,0.012402,0.034001,-2.7638,0.2190,113,0,0,-0.002496,0.000669,-0.218794,0.012828,0.002389,-0.009002,-0.4123,-2.0042,-7.1221
11401,11.0,-0.003897,0.000877,-0.218902,-0.005564,0.001626,-0.007525,-0.5861,-0.6782,-3.2704,-0.00013304,-0.00076555,0.04454335,-0.00043263,0.00112165,-0.01956147,-0.1228,0.0060,-9.8416,-0.032933,0.012176,0.016461,-2.7955,0.2190,107,0,0,-0.002546,0.000623,-0.218977,0.013106,0.001172,-0.009269,-0.4566,-1.9826,-7.1387
11412,11.0,-0.003911,0.000867,-0.218987,-0.005007,0.000273,-0.007761,-0.5904,-0.6766,-3.3046,-0.00018462,-0.00074612,0.04454292,-0.00057203,0.00161023,-0.01955209,-0.1070,-0.0075,-9.8511,-0.018571,0.004623,-0.012407,-2.7955,0.2190,114,0,0,-0.002567,0.000606,-0.219077,0.013290,-0.000197,-0.009488,-0.4760,-1.9795,-7.1566
11423,11.0,-0.003932,0.000884,-0.219079,-0.004679,-0.000001,-0.008232,-0.5795,-0.6764,-3.3540,-0.00019382,-0.00072901,0.04454330,-0.00064315,0.00157158,-0.01953128,-0.1197,0.0616,-9.8662,0.014980,0.002709,-0.033924,-2.7955,0.2190,104,0,0,-0.002571,0.000596,-0.219173,0.013566,-0.001368,-0.009643,-0.4813,-1.9669,-7.1936
11434,11.0,-0.004004,0.000908,-0.219065,-0.004740,0.000954,-0.007440,-0.5674,-0.6637,-3.4047,-0.00015992,-0.00074669,0.04454380,-0.00063984,0.00121571,-0.01995992,-0.1034,0.1747,-9.8694,0.025407,0.017506,-0.033624,-2.7955,0.2190,110,0,0,-0.002595,0.000626,-0.219085,0.014073,-0.001276,-0.007681,-0.4624,-1.9562,-7.2936
11445,11.0,-0.004136,0.000918,-0.219152,-0.005191,0.002489,-0.007747,-0.5618,-0.6363,-3.4386,-0.00015274,-0.00078762,0.04454296,-0.00046950,0.00124547,-0.01994652,-0.0821,0.2499,-9.8515,0.009156,0.037564,-0.009043,-2.7955,0.2200,113,0,0,-0.002654,0.000650,-0.219164,0.014134,-0.000208,-0.008063,-0.4479,-1.9466,-7.3392
11456,11.0,-0.004282,0.000934,-0.219232,-0.005854,0.003511,-0.006877,-0.5643,-0.6043,-3.4562,-0.00007312,-0.00084447,0.04454270,-0.00036712,0.00079374,-0.01995476,-0.0826,0.2183,-9.7489,0.010868,0.041881,0.019741,-2.7955,0.2200,118,0,0,-0.002884,0.000690,-0.219717,0.013083,0.002397,-0.011991,-0.4466,-1.8841,-7.4009
11467,11.0,-0.004354,0.000942,-0.219672,-0.005615,0.003285,-0.010060,-0.5654,-0.5910,-3.4645,-0.00005637,-0.00084774,0.04454238,-0.00033991,0.00085110,-0.01851150,-0.0722,0.1095,-9.7266,0.000237,0.019795,0.031523,-2.7955,0.2200,124,0,0,-0.003000,0.000713,-0.219838,0.012495,0.003277,-0.011285,-0.4510,-1.8459,-7.4191
