timestamp_ms,dt_ms,pos_x,pos_y,pos_z,vel_x,vel_y,vel_z,roll_deg,pitch_deg,yaw_deg,gyro_bias_x,gyro_bias_y,gyro_bias_z,accel_bias_x,accel_bias_y,accel_bias_z,raw_accel_x,raw_accel_y,raw_accel_z,raw_gyro_x,raw_gyro_y,raw_gyro_z,raw_baro_alt,raw_tof,raw_flow_squal,raw_flow_dx,raw_flow_dy,dev_pos_x,dev_pos_y,dev_pos_z,dev_vel_x,dev_vel_y,dev_vel_z,dev_roll_deg,dev_pitch_deg,dev_yaw_deg
10865,10.0,0.000033,0.000024,-0.299894,0.002579,0.001555,0.000394,-0.0240,0.0070,0.0062,0.00000000,0.00000000,0.00571188,-0.00002911,-0.00022325,0.00000000,-0.1546,-0.1728,-9.6956,-0.043148,0.013818,0.016472,26.4703,0.3000,122,0,0,0.000181,-0.000337,-0.300055,-0.000562,-0.008543,0.012758,0.9014,-0.6758,0.0967
10876,11.0,0.000047,-0.000234,-0.299883,0.001801,-0.011864,0.001587,0.4856,-0.4888,0.0088,-0.00000210,0.00000182,0.00571188,-0.00003074,-0.00007906,0.00000006,-0.1720,-0.1915,-9.6957,-0.030883,0.002610,0.010960,26.4703,0.3010,123,1,0,0.000207,-0.000332,-0.300446,-0.000453,-0.007999,0.008227,0.9019,-0.6986,0.1018
10888,12.0,0.000054,-0.000285,-0.296320,0.000688,-0.010648,0.152246,0.5172,-0.4978,0.0044,-0.00000218,0.00000181,0.00571189,-0.00001940,-0.00019380,-0.00009324,-0.1475,-0.2617,-9.6859,-0.000724,-0.018512,0.001155,26.4703,0.3010,124,0,0,0.000227,-0.000560,-0.300358,-0.000819,-0.009192,0.009406,0.8921,-0.7067,0.1055
10899,11.0,0.000019,-0.000371,-0.300854,-0.000481,-0.009972,-0.027406,0.9166,-0.7070,-0.0152,-0.00000637,0.00000409,0.00571189,0.00003677,-0.00026402,0.00006109,-0.1922,-0.2803,-9.7472,0.039836,-0.033061,-0.018934,26.4703,0.3010,121,0,0,0.000222,-0.000656,-0.300038,-0.001198,-0.009967,0.012829,0.9622,-0.7665,0.0042
10910,11.0,0.000010,-0.000181,-0.300894,-0.001444,-0.004982,-0.020714,1.0514,-0.7251,-0.0425,-0.00000708,0.00000410,0.00571193,0.00003259,-0.00090115,-0.00002733,-0.2120,-0.3260,-9.8167,0.020869,-0.028542,-0.026370,26.3752,0.3000,121,-1,0,0.000201,-0.000718,-0.299907,-0.001383,-0.010004,0.013428,1.0391,-0.8174,-0.0097
10921,11.0,0.000003,-0.000215,-0.301123,-0.001278,-0.004616,-0.020946,1.2346,-0.7490,-0.0654,-0.00001104,0.00000447,0.00571194,0.00000941,-0.00095839,-0.00002613,-0.1357,-0.2985,-9.8241,0.007048,-0.008661,-0.029591,26.3752,0.3000,125,0,0,0.000183,-0.000588,-0.299640,-0.002206,-0.009927,0.012994,1.1407,-0.8710,-0.0473
10932,11.0,-0.000007,-0.000174,-0.300036,-0.001201,-0.002704,0.003610,1.2799,-0.7373,-0.0905,-0.00001145,0.00000449,0.00571195,-0.00000831,-0.00122968,-0.00080551,-0.1258,-0.1872,-9.7420,0.014357,0.018465,-0.031033,26.3752,0.3000,120,0,0,0.000176,-0.000599,-0.299364,-0.002029,-0.010465,0.014645,1.1587,-0.8829,-0.0686
10943,11.0,0.000001,-0.000085,-0.299985,-0.000782,-0.000546,0.005716,1.1362,-0.6783,-0.1043,-0.00000474,0.00000282,0.00571197,-0.00008658,-0.00165373,-0.00079740,-0.0830,-0.0567,-9.6210,-0.008602,0.034837,-0.014212,26.3752,0.3010,125,0,0,0.000165,-0.000566,-0.299215,-0.001956,-0.009883,0.015252,1.1817,-0.8743,-0.0900
10954,11.0,-0.000002,-0.000084,-0.299658,0.000158,0.002102,0.012350,1.1303,-0.6744,-0.0939,-0.00000468,0.00000283,0.00571197,-0.00009215,-0.00162838,-0.00121979,-0.0284,0.0636,-9.5592,-0.002725,0.006456,0.021748,26.3752,0.3010,124,0,0,0.000167,-0.000690,-0.300029,-0.001100,-0.008044,0.007813,1.1144,-0.8246,-0.1088
10965,11.0,0.000000,-0.000130,-0.300508,0.000061,0.001078,0.001192,1.0065,-0.7397,-0.0727,0.00000135,0.00000572,0.00571195,-0.00005097,-0.00136348,0.00070748,-0.1702,-0.0942,-9.5660,-0.012279,-0.025248,0.039664,26.3752,0.3010,127,0,0,0.000165,-0.000691,-0.299938,-0.000031,-0.005277,0.010352,1.1245,-0.8297,-0.1008
10976,11.0,0.000030,-0.000227,-0.300353,-0.000697,-0.002294,0.003896,0.9410,-0.7823,-0.0512,0.00000245,0.00000614,0.00571188,-0.00021210,-0.00094850,0.00029334,-0.2488,-0.3315,-9.7251,-0.039649,-0.043438,0.032720,26.3752,0.3000,124,0,0,0.000190,-0.000819,-0.299746,-0.000662,-0.005561,0.013564,1.0837,-0.8722,-0.0668
10987,11.0,0.000037,-0.000120,-0.300313,-0.000639,-0.000561,0.003536,1.1643,-0.8762,-0.0507,-0.00001590,0.00001187,0.00571196,-0.00021092,-0.00134076,0.00030002,-0.2207,-0.4082,-9.8338,-0.025929,-0.040587,0.015502,26.4333,0.3000,129,-1,0,0.000217,-0.000918,-0.299608,-0.000719,-0.006019,0.014024,1.1156,-0.9332,0.0070
10998,11.0,0.000042,0.000075,-0.299968,-0.001147,-0.000431,0.006107,1.2469,-0.8947,-0.0720,-0.00001944,0.00001212,0.00571213,-0.00030006,-0.00239214,-0.00092961,-0.2206,-0.5119,-9.9081,-0.004019,-0.020774,-0.012689,26.4333,0.3000,121,-1,0,0.000235,-0.000778,-0.299353,-0.001248,-0.007256,0.014999,1.1161,-0.9661,0.0119
11008,10.0,0.000024,0.000048,-0.299912,-0.001347,-0.001215,0.005123,1.4496,-0.9421,-0.0914,-0.00004371,0.00001809,0.00571210,-0.00016872,-0.00188171,-0.00094087,-0.2310,-0.5306,-9.8947,0.017034,-0.001404,-0.030950,26.4333,0.3010,126,0,0,0.000242,-0.000600,-0.299209,-0.001265,-0.006782,0.013904,1.2066,-1.0007,0.0052
11020,12.0,-0.000006,-0.000117,-0.299726,-0.001581,-0.005133,0.005958,1.4286,-0.9216,-0.1237,-0.00004068,0.00001780,0.00571196,-0.00011371,-0.00119825,-0.00173084,-0.1642,-0.3917,-9.8639,0.042975,0.021409,-0.050887,26.4333,0.3010,118,1,0,0.000218,-0.000565,-0.300092,-0.001804,-0.009677,0.000208,1.3288,-1.0238,-0.0404
11031,11.0,-0.000007,-0.000289,-0.300363,-0.001256,-0.006992,-0.002047,1.4104,-0.9011,-0.1451,-0.00004143,0.00001711,0.00571179,-0.00015048,-0.00046067,0.00274192,-0.1426,-0.2786,-9.7891,-0.001106,0.031321,-0.041998,26.4333,0.3010,122,1,0,0.000191,-0.000736,-0.300094,-0.001776,-0.011693,-0.000555,1.3639,-1.0210,-0.0715
11042,11.0,0.000013,-0.000237,-0.300285,-0.000246,-0.004104,0.000781,1.4256,-0.8869,-0.1616,-0.00004473,0.00001794,0.00571186,-0.00031960,-0.00110793,0.00206361,-0.1044,-0.1499,-9.6486,-0.040546,0.037993,-0.016067,26.4333,0.3010,126,0,0,0.000193,-0.000842,-0.299943,-0.000981,-0.011008,0.001453,1.4039,-0.9971,-0.1179
11053,11.0,0.000059,-0.000212,-0.300262,0.000699,-0.002726,0.003373,1.3667,-0.8605,-0.1625,-0.00003892,0.00001345,0.00571183,-0.00069222,-0.00163207,0.00208049,-0.0924,-0.1607,-9.5712,-0.071792,0.023565,0.001625,26.4333,0.3010,126,0,0,0.000216,-0.000786,-0.300466,-0.000710,-0.010172,-0.003048,1.3724,-0.9695,-0.1292
11064,11.0,0.000099,-0.000242,-0.300523,0.001893,-0.001307,0.002226,1.3207,-0.8688,-0.1576,-0.00003871,0.00001438,0.00571177,-0.00079981,-0.00152800,0.00470091,-0.0761,-0.0903,-9.5801,-0.070403,0.000938,0.010205,26.4333,0.3010,122,0,0,0.000298,-0.000758,-0.300486,0.000493,-0.008296,0.001201,1.2964,-0.9467,-0.1318
11075,11.0,0.000122,-0.000275,-0.300489,0.002056,-0.000825,0.003973,1.2246,-0.8630,-0.1605,-0.00001753,0.00000989,0.00571179,-0.00090682,-0.00186264,0.00471251,-0.1104,-0.0423,-9.6477,-0.028652,-0.015653,0.003666,26.4333,0.3010,120,0,0,0.000333,-0.000794,-0.300309,0.001332,-0.006683,0.005005,1.2725,-0.9582,-0.1296
11086,11.0,0.000129,-0.000559,-0.300326,0.001551,-0.004474,0.006002,1.1443,-0.8763,-0.1532,-0.00000646,0.00000940,0.00571144,-0.00085582,-0.00043964,0.00355959,-0.1758,-0.1609,-9.7462,-0.006442,-0.026565,0.001018,26.4333,0.3010,122,1,0,0.000350,-0.000846,-0.300643,0.001468,-0.006259,0.002283,1.2299,-0.9652,-0.0693
11097,11.0,0.000125,-0.000351,-0.300617,0.001143,-0.000607,0.002111,1.2130,-0.8806,-0.1775,-0.00001523,0.00001070,0.00571189,-0.00064111,-0.00174809,0.00705305,-0.1686,-0.1842,-9.7694,0.011697,-0.005998,-0.011567,26.4333,0.3010,122,-1,0,0.000357,-0.001415,-0.300483,0.001382,-0.006951,0.004372,1.2320,-1.0068,-0.0758
11108,11.0,0.000108,-0.000326,-0.300502,0.000492,0.000348,0.003934,1.2409,-0.8678,-0.1942,-0.00001661,0.00000941,0.00571198,-0.00051208,-0.00191757,0.00614899,-0.1725,-0.1601,-9.7327,0.032616,0.008785,-0.017093,26.4333,0.3010,124,0,0,0.000349,-0.001193,-0.300438,0.001367,-0.005567,0.004606,1.2576,-1.0177,-0.0883
11119,11.0,0.000090,-0.000304,-0.300452,0.000013,0.000880,0.005121,1.2462,-0.8670,-0.2115,-0.00000953,0.00001171,0.00571211,-0.00031464,-0.00218824,0.00615264,-0.1731,-0.1575,-9.6933,0.030326,0.004612,-0.014280,26.4333,0.3010,125,0,0,0.000313,-0.001150,-0.300580,0.000989,-0.004319,0.003737,1.3058,-1.0248,-0.1159
11130,11.0,0.000089,-0.000351,-0.300594,-0.000330,0.000223,0.003845,1.2366,-0.8818,-0.2145,-0.00000634,0.00001169,0.00571200,-0.00028298,-0.00185132,0.00822806,-0.1783,-0.1976,-9.6942,0.005069,-0.023479,-0.002721,26.3963,0.3010,119,0,0,0.000298,-0.001154,-0.300409,0.000885,-0.004055,0.006134,1.3209,-1.0344,-0.1262
11141,11.0,0.000100,-0.000425,-0.300550,-0.000433,-0.001060,0.004107,1.2168,-0.9191,-0.2104,-0.00000789,0.00001998,0.00571182,-0.00019769,-0.00132928,0.00821546,-0.2044,-0.2487,-9.7728,-0.023247,-0.031638,0.008161,26.3963,0.3010,130,0,0,0.000297,-0.001206,-0.300344,0.000850,-0.003844,0.006947,1.3337,-1.0567,-0.1309
11152,11.0,0.000122,-0.000472,-0.300381,-0.000546,-0.002584,0.004845,1.1888,-0.9370,-0.2100,-0.00000610,0.00002185,0.00571167,-0.00036594,-0.00121378,0.00685570,-0.2072,-0.3120,-9.8724,-0.034953,-0.018562,0.002001,26.3963,0.3010,117,0,0,0.000329,-0.001342,-0.300496,0.000563,-0.004687,0.004088,1.3279,-1.1084,-0.1312
11163,11.0,0.000138,-0.000459,-0.300644,-0.000422,-0.002587,-0.000019,1.2055,-0.9413,-0.2176,-0.00002594,0.00002905,0.00571166,-0.00029723,-0.00097308,0.01001847,-0.1951,-0.3084,-9.9014,-0.029908,0.014251,-0.007673,26.3963,0.3010,118,0,0,0.000352,-0.001378,-0.300460,0.000565,-0.004880,0.003057,1.3356,-1.1276,-0.1348
11174,11.0,0.000148,-0.000371,-0.300543,0.000204,-0.000568,0.001795,1.2144,-0.9131,-0.2383,-0.00003411,0.00002990,0.00571191,-0.00037323,-0.00154883,0.00900111,-0.1195,-0.1679,-9.7434,-0.020611,0.047719,-0.020580,26.3963,0.3010,118,0,0,0.000372,-0.001361,-0.300272,0.000594,-0.005397,0.003804,1.3306,-1.1302,-0.1431
11185,11.0,0.000153,-0.000275,-0.300507,0.000659,0.001555,0.004783,1.2029,-0.8698,-0.2627,-0.00002198,0.00001952,0.00571217,-0.00061609,-0.00247498,0.00902538,-0.0895,-0.0926,-9.5293,-0.005572,0.046046,-0.026487,26.3963,0.3010,124,0,0,0.000388,-0.000948,-0.300611,0.001803,-0.002600,0.001056,1.3386,-1.0852,-0.2059
11196,11.0,0.000147,-0.000276,-0.300618,0.001114,0.002758,0.005862,1.2033,-0.8664,-0.2748,-0.00001988,0.00001818,0.00571215,-0.00050561,-0.00231115,0.01081978,-0.0828,-0.0598,-9.5073,0.007634,0.000328,-0.013944,26.3963,0.3010,125,0,0,0.000387,-0.000869,-0.300458,0.002015,-0.001846,0.005233,1.3282,-1.0557,-0.2228
11207,11.0,0.000150,-0.000593,-0.300539,0.001217,-0.000972,0.008560,1.1121,-0.8850,-0.2693,0.00003662,0.00000921,0.00571149,-0.00064211,-0.00123902,0.01080385,-0.1076,-0.0510,-9.5538,-0.002476,-0.046979,0.000562,26.3963,0.3010,124,1,0,0.000379,-0.000871,-0.300391,0.002809,-0.000223,0.008035,1.3442,-1.0631,-0.2346
11218,11.0,0.000162,-0.000970,-0.300311,0.000990,-0.004685,0.011062,1.0402,-0.9273,-0.2498,0.00006970,0.00000939,0.00571059,-0.00066702,0.00048579,0.00949114,-0.1728,-0.0653,-9.7131,-0.019135,-0.066285,0.016092,26.3963,0.3010,120,1,0,0.000382,-0.001559,-0.300475,0.003127,-0.000224,0.009232,1.3208,-1.1198,-0.2377
11229,11.0,0.000175,-0.001087,-0.300590,0.001222,-0.005763,0.005514,1.0239,-0.9522,-0.2355,0.00006988,0.00000301,0.00571034,-0.00075459,0.00099194,0.01327169,-0.1300,-0.2067,-9.8738,-0.018903,-0.049301,0.020678,26.3963,0.3010,121,0,0,0.000392,-0.001944,-0.300380,0.003092,-0.000970,0.009858,1.2915,-1.1607,-0.2320
11240,11.0,0.000179,-0.001139,-0.300439,0.001559,-0.006859,0.005460,1.0225,-0.9641,-0.2302,0.00006794,0.00000179,0.00571042,-0.00071265,0.00088577,0.01231917,-0.1194,-0.2995,-9.9065,-0.006612,-0.021605,0.016110,26.3963,0.3010,121,0,0,0.000401,-0.002074,-0.300122,0.003670,-0.000739,0.011087,1.2906,-1.2017,-0.2246
11251,11.0,0.000170,-0.000870,-0.300385,0.001058,-0.004124,0.004230,1.1301,-0.9503,-0.2479,-0.00001857,0.00000465,0.00571125,-0.00047605,0.00035907,0.01232023,-0.1900,-0.4294,-9.9017,0.020031,0.023359,-0.013145,26.3963,0.3010,128,-1,0,0.000402,-0.001905,-0.300384,0.004263,-0.001729,0.004023,1.3198,-1.2230,-0.2156
11262,11.0,0.000150,-0.000559,-0.300574,0.000439,-0.001850,0.001207,1.2078,-0.9245,-0.2878,-0.00005873,0.00000105,0.00571252,-0.00030241,-0.00124673,0.01450344,-0.1807,-0.4343,-9.8109,0.041360,0.032696,-0.033101,26.3963,0.3010,124,-1,0,0.000391,-0.001612,-0.300350,0.004207,-0.001387,0.002709,1.3737,-1.2153,-0.2247
11273,11.0,0.000128,-0.000479,-0.300557,0.000207,-0.001489,0.001848,1.2661,-0.8971,-0.3163,-0.00009596,-0.00000464,0.00571282,-0.00023386,-0.00117967,0.01449948,-0.1421,-0.3319,-9.7311,0.038056,0.033472,-0.039824,26.4544,0.3020,130,0,0,0.000369,-0.001295,-0.300326,0.004265,-0.002115,0.002002,1.4122,-1.2058,-0.2458
11285,12.0,0.000099,-0.000449,-0.300419,0.000665,0.000409,0.004444,1.3008,-0.8839,-0.3378,-0.00010055,-0.00000897,0.00571312,-0.00009097,-0.00136984,0.01350800,-0.0748,-0.1001,-9.6891,0.042576,0.011759,-0.020981,26.4544,0.3020,123,0,0,0.000315,-0.001134,-0.301231,0.005006,-0.001533,-0.006811,1.5020,-1.1799,-0.2507
11296,11.0,0.000095,-0.000697,-0.301215,0.000481,-0.001752,-0.005001,1.2505,-0.8890,-0.3372,-0.00003761,-0.00000956,0.00571262,0.00008195,-0.00074711,0.02095574,-0.1557,-0.0787,-9.7455,0.005755,-0.009474,0.003996,26.4544,0.3020,128,1,0,0.000266,-0.001101,-0.301230,0.005743,0.000912,-0.003950,1.5450,-1.1709,-0.2769
11307,11.0,0.000123,-0.000763,-0.301187,0.000979,-0.001832,-0.003731,1.2153,-0.9054,-0.3224,-0.00003132,-0.00000683,0.00571237,-0.00001803,-0.00055566,0.02022017,-0.1314,-0.1639,-9.7620,-0.046240,-0.021607,0.025681,26.4544,0.3010,125,0,0,0.000271,-0.001377,-0.301004,0.005793,0.000711,-0.000813,1.5234,-1.1804,-0.2740
11318,11.0,0.000150,-0.000809,-0.301226,0.000975,-0.002968,-0.003449,1.2019,-0.9204,-0.3080,-0.00005360,0.00000105,0.00571210,0.00001879,0.00002847,0.02020695,-0.1805,-0.3110,-9.7581,-0.042282,-0.014512,0.021894,26.4544,0.3010,121,0,0,0.000296,-0.001442,-0.300927,0.006397,0.001491,0.000336,1.5085,-1.2017,-0.2637
11329,11.0,0.000157,-0.000847,-0.301000,0.000174,-0.004640,-0.001030,1.1996,-0.9320,-0.3123,-0.00005405,0.00000124,0.00571211,-0.00001991,-0.00003641,0.01792060,-0.2319,-0.3641,-9.8502,-0.004551,-0.018356,-0.000705,26.4544,0.3010,124,0,0,0.000344,-0.001529,-0.300784,0.006271,0.000296,0.001898,1.4895,-1.2312,-0.2493
11340,11.0,0.000150,-0.000655,-0.301019,-0.000454,-0.002306,-0.002451,1.2491,-0.9504,-0.3387,-0.00011187,0.00001569,0.00571319,0.00030149,-0.00061200,0.01792621,-0.2248,-0.3017,-9.9146,0.014875,-0.016985,-0.018784,26.4544,0.3020,126,-1,0,0.000348,-0.001567,-0.301403,0.005985,-0.000273,-0.005935,1.5111,-1.2512,-0.2541
11351,11.0,0.000139,-0.000642,-0.300949,-0.001144,-0.002348,-0.002749,1.2673,-0.9476,-0.3608,-0.00011788,0.00001531,0.00571339,0.00029687,-0.00079713,0.01702221,-0.2245,-0.2690,-9.9300,0.021419,0.003339,-0.026388,26.4544,0.3020,122,0,0,0.000344,-0.001367,-0.301469,0.005742,-0.000298,-0.007276,1.5314,-1.2697,-0.2686
11362,11.0,0.000124,-0.000564,-0.301481,-0.001195,-0.001238,-0.009896,1.2967,-0.9260,-0.3865,-0.00014051,0.00001691,0.00571389,0.00041272,-0.00100781,0.02111916,-0.1666,-0.2447,-9.9069,0.023473,0.034578,-0.028943,26.4544,0.3020,129,0,0,0.000320,-0.001320,-0.301526,0.005541,-0.000307,-0.009159,1.5830,-1.2771,-0.3079
11373,11.0,0.000114,-0.000459,-0.301508,-0.001266,0.001191,-0.008720,1.3175,-0.8946,-0.4093,-0.00015824,0.00001751,0.00571440,0.00038414,-0.00146619,0.02044414,-0.1699,-0.1301,-9.7697,0.014605,0.049712,-0.024159,26.4544,0.3010,124,0,0,0.000305,-0.001234,-0.301067,0.005611,0.000176,-0.004158,1.6051,-1.2578,-0.3273
11384,11.0,0.000118,-0.000603,-0.301598,-0.000927,0.000058,-0.007586,1.2831,-0.8685,-0.4141,-0.00010640,0.00001736,0.00571369,0.00026439,-0.00129752,0.02044321,-0.1375,-0.1262,-9.6853,-0.010700,0.041553,-0.009389,26.4544,0.3010,126,1,0,0.000294,-0.001132,-0.301109,0.005831,0.001815,-0.004219,1.6282,-1.2382,-0.3449
11395,11.0,0.000135,-0.000579,-0.301203,-0.000719,0.000966,-0.000441,1.2663,-0.8604,-0.4143,-0.00010943,0.00002194,0.00571362,0.00009226,-0.00146253,0.01666074,-0.1596,-0.1573,-9.6422,-0.029437,0.016858,0.004239,26.5496,0.3010,122,0,0,0.000307,-0.001447,-0.301089,0.006236,0.002931,-0.001289,1.6159,-1.1985,-0.4741
11407,12.0,0.000150,-0.000582,-0.301202,-0.000249,0.001271,0.000659,1.2393,-0.8588,-0.4094,-0.00009279,0.00002040,0.00571345,-0.00009158,-0.00163054,0.01666752,-0.1273,-0.1641,-9.6997,-0.028206,0.002002,0.011659,26.5496,0.3020,128,0,0,0.000325,-0.001419,-0.301095,0.006285,0.003484,0.000087,1.5972,-1.1910,-0.4762
11418,11.0,0.000165,-0.000804,-0.301121,-0.000161,-0.001951,0.001883,1.2021,-0.8560,-0.3967,-0.00005143,0.00002386,0.00571224,-0.00017119,-0.00076106,0.01607149,-0.1588,-0.2457,-9.7562,-0.026119,0.007548,0.010782,26.5496,0.3020,131,1,0,0.000357,-0.001429,-0.301549,0.006794,0.004587,-0.003095,1.5802,-1.1970,-0.4700
11429,11.0,0.000176,-0.000746,-0.301543,-0.000130,-0.001823,-0.002545,1.2108,-0.8403,-0.3995,-0.00009498,0.00003077,0.00571240,-0.00008224,-0.00052231,0.01956887,-0.1593,-0.3034,-9.7126,-0.016335,0.029473,-0.000470,26.5496,0.3020,130,0,0,0.000370,-0.001650,-0.301579,0.007102,0.003915,-0.002891,1.5740,-1.1998,-0.4660
11440,11.0,0.000182,-0.000187,-0.301509,0.000420,0.004435,-0.000334,1.2555,-0.8113,-0.4289,-0.00020374,0.00003098,0.00571502,-0.00010339,-0.00270149,0.01918173,-0.0963,-0.2801,-9.6447,-0.006994,0.045506,-0.011900,26.5496,0.3000,123,-2,0,0.000393,-0.001051,-0.300480,0.007763,0.005392,0.010802,1.5898,-1.1761,-0.4772
11451,11.0,0.000190,0.000138,-0.301496,0.000715,0.007787,0.002688,1.2718,-0.7812,-0.4476,-0.00025443,0.00002257,0.00571615,-0.00024629,-0.00375537,0.01920580,-0.1058,-0.2092,-9.5132,-0.009155,0.042156,-0.014405,26.5496,0.3000,125,-1,0,0.000397,-0.000716,-0.300307,0.008025,0.006284,0.013234,1.6010,-1.1468,-0.4868
11462,11.0,0.000190,0.000179,-0.300552,0.000777,0.007586,0.016803,1.2687,-0.7711,-0.4588,-0.00024505,0.00002079,0.00571601,-0.00032611,-0.00373612,0.01235029,-0.1146,-0.1808,-9.4620,0.000720,0.014529,-0.013958,26.5496,0.3000,130,0,0,0.000403,-0.000395,-0.300161,0.008615,0.007676,0.015877,1.6110,-1.1304,-0.4996
11473,11.0,0.000435,0.000133,-0.300351,0.003658,0.006917,0.019741,1.2356,-0.8013,-0.4601,-0.00018792,0.00006441,0.00571412,-0.00125051,-0.00374159,0.01236461,-0.1237,-0.1139,-9.5296,-0.019262,-0.021215,-0.010171,26.4914,0.3020,126,0,-1,0.000646,-0.000358,-0.300949,0.010249,0.009124,0.009109,1.6233,-1.1348,-0.5227
11484,11.0,0.000432,-0.000405,-0.300032,0.003573,0.000543,0.022855,1.1910,-0.8210,-0.4566,-0.00006125,0.00005586,0.00571188,-0.00110211,-0.00150614,0.01160731,-0.0945,-0.1169,-9.6141,0.003032,-0.036269,-0.008254,26.4914,0.3020,124,2,0,0.000655,-0.000651,-0.300847,0.010412,0.008547,0.011436,1.6018,-1.1508,-0.3683
11495,11.0,0.000430,-0.000921,-0.300945,0.003386,-0.005246,0.010257,1.1492,-0.8290,-0.4562,0.00006374,0.00003577,0.00571004,-0.00100454,0.00034582,0.02036659,-0.1055,-0.1535,-9.6884,0.003055,-0.023717,-0.009147,26.4914,0.3020,124,2,0,0.000648,-0.001202,-0.300632,0.011062,0.008059,0.014168,1.6066,-1.1781,-0.3750
11506,11.0,0.000436,-0.000939,-0.300758,0.003337,-0.004677,0.011902,1.1489,-0.8289,-0.4669,0.00005530,0.00002868,0.00571039,-0.00089481,0.00019464,0.01982987,-0.1109,-0.1857,-9.7149,-0.005168,-0.003948,-0.008383,26.4914,0.3000,123,0,0,0.000641,-0.001766,-0.300022,0.011588,0.007246,0.019242,1.6108,-1.2058,-0.3892
11517,11.0,0.000431,-0.000932,-0.300620,0.003628,-0.003174,0.013188,1.1515,-0.8131,-0.4761,0.00007550,-0.00001082,0.00571076,-0.00116242,-0.00047205,0.01984895,-0.0520,-0.1008,-9.6733,0.013894,0.004943,-0.008302,26.4914,0.3000,124,0,0,0.000642,-0.001775,-0.299753,0.011769,0.007476,0.020779,1.6103,-1.2043,-0.3973
11529,12.0,0.000431,-0.000931,-0.300095,0.003805,-0.002169,0.019534,1.1597,-0.8073,-0.4776,0.00006731,-0.00002145,0.00571113,-0.00103004,-0.00064946,0.01725985,-0.0766,-0.1451,-9.6058,0.008338,0.003690,0.005525,26.4914,0.3000,134,0,0,0.000618,-0.001755,-0.299200,0.013179,0.009643,0.024569,1.6286,-1.1981,-0.4111
11540,11.0,0.000445,-0.000491,-0.299870,0.003496,0.003073,0.021483,1.1878,-0.8113,-0.4803,-0.00004612,-0.00003054,0.00571285,-0.00094957,-0.00217673,0.01728905,-0.1337,-0.2201,-9.6123,-0.008567,-0.010696,0.010163,26.4914,0.3010,129,-2,0,0.000612,-0.001753,-0.300065,0.013910,0.010434,0.013973,1.6417,-1.2036,-0.4112
11551,11.0,0.000464,-0.000342,-0.299528,0.003008,0.003933,0.023789,1.1831,-0.8347,-0.4817,-0.00007379,-0.00003481,0.00571342,-0.00089591,-0.00259808,0.01655738,-0.1636,-0.2514,-9.6877,-0.020000,-0.039060,0.007950,26.4703,0.3010,121,-1,0,0.000620,-0.001306,-0.299917,0.013897,0.011805,0.015559,1.6460,-1.2086,-0.4104
11562,11.0,0.000484,-0.000423,-0.300167,0.003049,0.002591,0.013746,1.1569,-0.8534,-0.4803,-0.00004030,-0.00004806,0.00571295,-0.00089768,-0.00208302,0.02304918,-0.1199,-0.1910,-9.7389,-0.027018,-0.035585,0.004293,26.4703,0.3010,129,0,0,0.000651,-0.001241,-0.299475,0.013956,0.011858,0.018414,1.6370,-1.2583,-0.4069
11572,10.0,0.000490,-0.000463,-0.299954,0.003271,0.002454,0.015036,1.1449,-0.8607,-0.4799,-0.00002334,-0.00005442,0.00571284,-0.00081447,-0.00185545,0.02249717,-0.0935,-0.1313,-9.7468,-0.013083,-0.015803,0.006275,26.4703,0.3000,125,0,0,0.000665,-0.001323,-0.299132,0.014600,0.012117,0.020449,1.6315,-1.2848,-0.4083
11583,11.0,0.000489,-0.000480,-0.299783,0.003086,0.002181,0.016176,1.1444,-0.8621,-0.4799,-0.00000195,-0.00007432,0.00571287,-0.00082788,-0.00183745,0.02249749,-0.1191,-0.1686,-9.6817,0.007927,-0.010430,0.005294,26.4703,0.3000,127,0,0,0.000673,-0.001368,-0.299498,0.014818,0.012362,0.014674,1.6189,-1.2901,-0.4080
11594,11.0,0.000484,-0.000744,-0.299707,0.002370,-0.000896,0.016209,1.1347,-0.8711,-0.4816,0.00007191,-0.00008335,0.00571182,-0.00069771,-0.00084653,0.02325528,-0.1723,-0.1681,-9.6636,0.013275,-0.018128,-0.002654,26.4703,0.3000,128,1,0,0.000663,-0.001403,-0.299082,0.015235,0.013229,0.017612,1.6397,-1.3048,-0.5223
11605,11.0,0.000488,-0.000828,-0.299526,0.002080,-0.001111,0.016683,1.1220,-0.8929,-0.4915,0.00011776,-0.00008888,0.00571177,-0.00062794,-0.00093106,0.02325666,-0.1530,-0.1232,-9.7419,-0.002178,-0.037039,-0.006140,26.5258,0.3010,125,0,0,0.000654,-0.001672,-0.298901,0.015275,0.013054,0.018695,1.6540,-1.3216,-0.5267
11616,11.0,0.000488,-0.001147,-0.299266,0.002164,-0.004182,0.017599,1.1020,-0.9157,-0.4931,0.00019996,-0.00009485,0.00571045,-0.00055613,0.00008796,0.02268198,-0.1198,-0.1441,-9.7867,-0.002028,-0.038452,-0.003768,26.5258,0.3010,123,1,0,0.000655,-0.001834,-0.299873,0.015538,0.013746,0.006036,1.6574,-1.3691,-0.5400
11627,11.0,0.000493,-0.001190,-0.300076,0.002008,-0.004508,0.005293,1.1026,-0.9242,-0.4949,0.00018421,-0.00010346,0.00571046,-0.00044537,0.00039342,0.02963607,-0.1508,-0.2288,-9.8287,-0.004664,-0.017039,0.000513,26.5258,0.3010,119,0,0,0.000652,-0.002142,-0.299815,0.015735,0.013144,0.005580,1.6518,-1.3836,-0.5425
11638,11.0,0.000500,-0.001195,-0.299961,0.001975,-0.004356,0.005499,1.1006,-0.9227,-0.4975,0.00017136,-0.00010803,0.00571082,-0.00039687,0.00023491,0.02921473,-0.1449,-0.2245,-9.8238,-0.007423,0.000776,0.003529,26.5258,0.3000,124,0,0,0.000653,-0.002184,-0.299663,0.016227,0.013252,0.006037,1.6588,-1.4015,-0.5458
11649,11.0,0.000507,-0.001178,-0.299899,0.001745,-0.004017,0.005928,1.1037,-0.9152,-0.4996,0.00013482,-0.00010871,0.00571120,-0.00031023,0.00023807,0.02921281,-0.1651,-0.2335,-9.7378,-0.007842,0.011511,0.002922,26.5258,0.3000,126,0,0,0.000662,-0.002177,-0.299609,0.016724,0.013437,0.004807,1.6651,-1.4041,-0.5477
11660,11.0,0.000520,-0.001181,-0.299827,0.001362,-0.004156,0.006518,1.0968,-0.9137,-0.5066,0.00012225,-0.00011011,0.00571151,-0.00029554,0.00009608,0.02919240,-0.1858,-0.2469,-9.7260,-0.014874,0.001756,-0.003584,26.5258,0.3000,126,0,0,0.000670,-0.002153,-0.299560,0.016642,0.013399,0.005052,1.6649,-1.3982,-0.5491
11671,11.0,0.000283,-0.001214,-0.299754,-0.001276,-0.003870,0.006831,1.1021,-0.9056,-0.5216,0.00012612,-0.00019617,0.00571353,0.00036350,-0.00001738,0.02918417,-0.1257,-0.1716,-9.7501,0.009644,-0.014832,-0.008195,26.5258,0.3010,125,0,1,0.000680,-0.002150,-0.299507,0.016723,0.013387,0.005439,1.6668,-1.4036,-0.5545
11682,11.0,0.000266,-0.001264,-0.299602,-0.000627,-0.003528,0.007645,1.1132,-0.9190,-0.5268,0.00012883,-0.00019802,0.00571353,0.00037644,0.00000230,0.02864827,-0.0896,-0.1476,-9.7908,0.018515,-0.022264,-0.002149,26.5258,0.3010,121,0,0,0.000428,-0.002216,-0.300225,0.016741,0.014169,-0.002691,1.6920,-1.4227,-0.6639
11693,11.0,0.000263,-0.001270,-0.300278,-0.000341,-0.003459,-0.001299,1.1198,-0.9175,-0.5254,0.00010568,-0.00020907,0.00571351,0.00030685,0.00014330,0.03371787,-0.1295,-0.2234,-9.7787,0.003245,-0.001667,0.004354,26.4914,0.3010,127,0,0,0.000416,-0.002255,-0.300162,0.017079,0.014391,-0.001883,1.7001,-1.4277,-0.6668
11704,11.0,0.000261,-0.001266,-0.300221,0.000118,-0.003180,-0.000178,1.1212,-0.9150,-0.5225,0.00009246,-0.00020925,0.00571376,0.00030179,-0.00000133,0.03324562,-0.1141,-0.2106,-9.7481,-0.001265,0.003822,0.011398,26.4914,0.2990,123,0,0,0.000410,-0.002268,-0.300182,0.017829,0.014751,-0.002202,1.7132,-1.4382,-0.6682
11715,11.0,0.000265,-0.001266,-0.300220,0.000228,-0.003160,0.000372,1.1224,-0.9129,-0.5166,0.00006480,-0.00021279,0.00571380,0.00024819,0.00007906,0.03324445,-0.1464,-0.2313,-9.7229,-0.006456,0.002046,0.012631,26.4914,0.2990,124,0,0,0.000412,-0.002019,-0.299198,0.018817,0.016123,0.008585,1.7265,-1.4370,-0.6634
11726,11.0,0.000273,-0.001307,-0.299445,0.000061,-0.004235,0.009311,1.1151,-0.9242,-0.5090,0.00006475,-0.00021024,0.00571372,0.00015532,-0.00001801,0.02819459,-0.1778,-0.2909,-9.7833,-0.011459,-0.017073,0.017673,26.4914,0.2990,123,0,0,0.000417,-0.002015,-0.299110,0.018849,0.016038,0.009024,1.7268,-1.4344,-0.6589
11737,11.0,0.000284,-0.001346,-0.299345,0.000134,-0.005316,0.008843,1.1155,-0.9341,-0.5035,0.00000630,-0.00020589,0.00571332,0.00013916,0.00056423,0.02818254,-0.1623,-0.3179,-9.8187,-0.017697,-0.014610,0.006729,26.4914,0.3020,123,0,0,0.000423,-0.002041,-0.299021,0.018972,0.015588,0.008954,1.7311,-1.4483,-0.6532
11749,12.0,0.000293,-0.001341,-0.299150,0.000079,-0.006211,0.009305,1.1112,-0.9295,-0.5168,-0.00001957,-0.00020344,0.00571379,0.00010641,0.00030793,0.02757699,-0.1716,-0.3424,-9.8295,-0.012585,0.006611,-0.011508,26.4914,0.3020,123,0,0,0.000441,-0.002091,-0.300672,0.019028,0.013833,-0.010403,1.7355,-1.4671,-0.6544
11760,11.0,0.000298,-0.001312,-0.298969,0.000496,-0.005935,0.010203,1.1179,-0.9154,-0.5265,-0.00009116,-0.00021933,0.00571402,-0.00008902,0.00042248,0.02707165,-0.1190,-0.2792,-9.7805,-0.009847,0.016867,-0.015569,26.4914,0.2990,120,0,0,0.000455,-0.002051,-0.300792,0.019465,0.012750,-0.010627,1.7499,-1.4638,-0.6742
11771,11.0,0.000305,-0.001300,-0.298783,0.001182,-0.005641,0.011830,1.1132,-0.9086,-0.5417,-0.00011790,-0.00022042,0.00571458,-0.00008693,0.00016887,0.02661991,-0.0899,-0.2461,-9.7082,-0.014513,0.009945,-0.015773,26.4914,0.2990,124,0,0,0.000461,-0.002015,-0.299563,0.019842,0.012718,0.004007,1.7526,-1.4492,-0.6836
11782,11.0,0.000319,-0.001290,-0.298645,0.001469,-0.005019,0.013310,1.1052,-0.8988,-0.5544,-0.00015141,-0.00023419,0.00571486,-0.00023139,0.00004578,0.02662405,-0.1237,-0.2089,-9.6457,-0.021561,0.010849,-0.016344,26.4914,0.2990,124,0,0,0.000468,-0.001995,-0.299520,0.020764,0.012923,0.004538,1.7543,-1.4491,-0.6967
11793,11.0,0.000323,-0.001308,-0.298667,0.001745,-0.003978,0.012546,1.1031,-0.8998,-0.5671,-0.00016289,-0.00023936,0.00571526,-0.00017088,-0.00002646,0.02772938,-0.1126,-0.1259,-9.6646,-0.006558,-0.003437,-0.012312,26.4914,0.2990,122,0,0,0.000491,-0.001975,-0.299295,0.021523,0.013655,0.007885,1.7467,-1.4422,-0.7146
11804,11.0,0.000335,-0.001352,-0.298526,0.002072,-0.003137,0.013184,1.0834,-0.9040,-0.5754,-0.00012149,-0.00026200,0.00571540,-0.00036040,-0.00044429,0.02774103,-0.1112,-0.0973,-9.7237,-0.019782,-0.013509,-0.005379,26.4914,0.3010,122,0,0,0.000498,-0.001991,-0.300143,0.021670,0.014243,-0.001381,1.7366,-1.4395,-0.7253
11815,11.0,0.000348,-0.001392,-0.298291,0.001549,-0.002493,0.014353,1.0739,-0.9116,-0.5815,-0.00011785,-0.00026441,0.00571540,-0.00034776,-0.00042787,0.02716621,-0.1958,-0.1174,-9.7720,-0.014501,-0.013008,-0.003676,26.4914,0.3010,122,0,0,0.000508,-0.002032,-0.300081,0.022391,0.015675,-0.000081,1.7349,-1.4531,-0.7332
11826,11.0,0.000350,-0.001387,-0.299655,0.001449,-0.001167,-0.003669,1.0685,-0.9065,-0.5974,-0.00008394,-0.00027437,0.00571614,-0.00019515,-0.00078574,0.03657477,-0.1489,-0.0825,-9.8003,0.001198,0.005047,-0.011786,26.5496,0.3010,126,0,0,0.000532,-0.001860,-0.300083,0.022174,0.018218,-0.000343,1.7248,-1.4713,-0.7480
11837,11.0,0.000340,-0.001330,-0.299640,0.001611,0.001071,-0.002407,1.0814,-0.8872,-0.6064,-0.00010584,-0.00028438,0.00571678,-0.00011861,-0.00097285,0.03624338,-0.1129,-0.0425,-9.7169,0.015488,0.027847,-0.006519,26.5496,0.3000,120,0,0,0.000532,-0.001845,-0.299852,0.022229,0.019131,0.001981,1.7187,-1.4641,-0.7590
11848,11.0,0.000333,-0.001266,-0.299659,0.001598,0.002751,-0.001138,1.0838,-0.8657,-0.6182,-0.00006698,-0.00030620,0.00571756,-0.00016824,-0.00168318,0.03625859,-0.1226,-0.0668,-9.6580,0.015029,0.028278,-0.006765,26.5496,0.3000,126,0,0,0.000522,-0.001795,-0.299830,0.022923,0.021230,0.002348,1.7365,-1.4560,-0.7667
11859,11.0,0.000328,-0.001246,-0.299757,0.001751,0.003157,0.000071,1.0884,-0.8602,-0.5491,-0.00006196,-0.00031525,0.00570513,-0.00002769,-0.00167284,0.03685431,-0.1059,-0.1320,-9.5578,0.009148,0.007395,0.001680,26.5496,0.3000,127,0,0,0.000506,-0.001681,-0.299685,0.023569,0.023743,0.005682,1.7523,-1.4284,-0.7782
11870,11.0,0.000327,-0.001273,-0.299743,0.002255,0.003351,0.002520,1.0779,-0.8606,-0.5473,0.00000856,-0.00036231,0.00570482,-0.00035177,-0.00195005,0.03686554,-0.0665,-0.0879,-9.5505,0.000583,-0.012929,0.006201,26.5496,0.3010,124,0,0,0.000502,-0.001655,-0.300306,0.023674,0.024142,0.000144,1.7519,-1.4170,-0.7803
11881,11.0,0.000326,-0.001359,-0.299640,0.002382,0.002331,0.004647,1.0726,-0.8851,-0.5398,0.00005507,-0.00037205,0.00570425,-0.00027992,-0.00159292,0.03643520,-0.1064,-0.1480,-9.6532,0.000980,-0.040987,0.016244,26.5496,0.3010,126,0,0,0.000500,-0.001730,-0.300201,0.024886,0.025619,0.004625,1.7492,-1.4358,-0.6791
11892,11.0,0.000329,-0.001446,-0.300311,0.002279,0.000694,-0.003578,1.0691,-0.9082,-0.5283,0.00007773,-0.00039216,0.00570353,-0.00025678,-0.00100993,0.04074785,-0.1334,-0.2243,-9.7470,-0.001826,-0.041399,0.018658,26.6077,0.3010,119,0,0,0.000499,-0.001823,-0.300090,0.025481,0.026014,0.006313,1.7561,-1.4657,-0.6741
11903,11.0,0.000330,-0.001498,-0.300317,0.002091,-0.000276,-0.003621,1.0668,-0.9229,-0.5221,0.00009977,-0.00040101,0.00570334,-0.00019217,-0.00084649,0.04052289,-0.1487,-0.2136,-9.8095,0.000844,-0.025246,0.015149,26.6077,0.2990,127,0,0,0.000502,-0.001911,-0.300026,0.025486,0.025513,0.006569,1.7557,-1.4857,-0.6663
11914,11.0,0.000350,-0.001482,-0.300358,0.001786,-0.001012,-0.003892,1.0601,-0.9186,-0.5176,0.00003939,-0.00038800,0.00570335,-0.00004562,-0.00041249,0.04051135,-0.1858,-0.2857,-9.7888,-0.025278,0.009818,0.009935,26.6077,0.2990,125,0,0,0.000510,-0.002001,-0.298997,0.025725,0.024959,0.014223,1.7637,-1.5165,-0.6544
11925,11.0,0.000359,-0.001423,-0.301198,0.001455,-0.000797,-0.012622,1.0580,-0.9003,-0.5216,0.00001220,-0.00039285,0.00570398,0.00004644,-0.00054892,0.04521696,-0.1760,-0.2361,-9.7060,-0.008194,0.027516,0.001241,26.6077,0.3020,122,0,0,0.000526,-0.001985,-0.298856,0.025757,0.024497,0.013897,1.7586,-1.5172,-0.6523
11936,11.0,0.000356,-0.001378,-0.301330,0.001548,0.000118,-0.011363,1.0614,-0.8835,-0.5300,0.00000931,-0.00041602,0.00570452,-0.00004340,-0.00086527,0.04522420,-0.1208,-0.1463,-9.6486,0.005798,0.020760,-0.006611,26.6077,0.3020,126,0,0,0.000539,-0.001863,-0.300416,0.025869,0.024692,-0.003117,1.7650,-1.4893,-0.6581
11947,11.0,0.000347,-0.001391,-0.301390,0.001514,0.000948,-0.009009,1.0702,-0.8859,-0.5323,0.00001720,-0.00042666,0.00570460,0.00002844,-0.00081368,0.04488635,-0.1250,-0.0837,-9.6117,0.015294,-0.006145,0.002149,26.5839,0.3020,127,0,0,0.000537,-0.001828,-0.300441,0.025937,0.025193,-0.001845,1.7639,-1.4761,-0.6646
11958,11.0,0.000339,-0.001441,-0.301716,0.001431,0.001115,-0.010316,1.0690,-0.8978,-0.5390,0.00009009,-0.00044904,0.00570449,0.00000032,-0.00105079,0.04624749,-0.1295,-0.0908,-9.6332,0.014079,-0.024385,-0.002914,26.5839,0.3020,128,0,0,0.000528,-0.001837,-0.300385,0.026405,0.026539,0.000449,1.7798,-1.4835,-0.6690
11969,11.0,0.000325,-0.001518,-0.301783,0.001614,0.001033,-0.009242,1.0756,-0.9221,-0.3060,0.00012898,-0.00046053,0.00565989,0.00028097,-0.00092536,0.04598524,-0.1045,-0.0921,-9.7132,0.020769,-0.037630,0.016345,26.5839,0.2980,127,0,0,0.000509,-0.001936,-0.298657,0.027150,0.028441,0.021166,1.7972,-1.5124,-0.6753
11980,11.0,0.000324,-0.001827,-0.301886,0.001596,-0.002868,-0.009528,1.0652,-0.9427,-0.2857,0.00024009,-0.00048050,0.00565762,0.00021544,0.00012458,0.04596716,-0.1363,-0.2187,-9.7867,0.002394,-0.036944,0.028026,26.5839,0.2980,123,1,0,0.000499,-0.002009,-0.298443,0.027334,0.028720,0.021631,1.7988,-1.5265,-0.6693
11991,11.0,0.000338,-0.001875,-0.299727,0.001212,-0.005054,0.016223,1.0537,-0.9567,-0.2766,0.00023938,-0.00047891,0.00565762,0.00003518,-0.00005364,0.03308592,-0.1958,-0.3783,-9.8293,-0.018518,-0.022013,0.020885,26.5839,0.2980,123,0,0,0.000493,-0.002318,-0.298228,0.027889,0.027994,0.021462,1.8046,-1.5542,-0.6109
12003,12.0,0.000336,-0.001872,-0.299535,0.001142,-0.006096,0.015781,1.0749,-0.9529,-0.2719,0.00012214,-0.00049238,0.00565791,0.00003518,0.00053928,0.03307308,-0.1518,-0.3513,-9.8078,0.007773,0.002670,0.006749,26.5839,0.3010,127,0,0,0.000517,-0.002384,-0.299559,0.027756,0.025523,0.001248,1.8023,-1.5755,-0.5929
12014,11.0,0.000331,-0.001861,-0.299305,0.001010,-0.006460,0.016438,1.0842,-0.9490,-0.2796,0.00008679,-0.00049978,0.00565882,0.00007739,0.00030387,0.03274989,-0.1570,-0.3030,-9.7738,0.008733,0.004265,-0.003312,26.5839,0.3010,127,0,0,0.000517,-0.002371,-0.299504,0.027677,0.024617,0.001249,1.8166,-1.5710,-0.5906
12025,11.0,0.000329,-0.001879,-0.300108,0.000853,-0.006953,0.004623,1.0988,-0.9526,-0.2858,0.00000331,-0.00050609,0.00565920,0.00019717,0.00077344,0.03820053,-0.1632,-0.3002,-9.8061,0.005380,-0.007554,-0.006978,26.5839,0.3010,122,0,0,0.000507,-0.002585,-0.299485,0.027758,0.022701,0.000598,1.8405,-1.5728,-0.6027
12036,11.0,0.000340,-0.001889,-0.300032,0.001149,-0.006723,0.004763,1.0904,-0.9515,-0.2958,-0.00002620,-0.00050621,0.00565978,0.00019467,0.00058314,0.03805352,-0.1361,-0.2374,-9.7841,-0.018400,0.000977,-0.008025,26.6420,0.2990,123,0,0,0.000507,-0.002597,-0.299010,0.028084,0.022179,0.005276,1.8501,-1.5822,-0.6112
12047,11.0,0.000350,-0.001864,-0.299976,0.001516,-0.004540,0.005341,1.0764,-0.9353,-0.3094,-0.00000697,-0.00052963,0.00566078,0.00001825,-0.00019809,0.03807123,-0.1204,-0.0718,-9.7192,-0.015638,0.019634,-0.010793,26.6420,0.2990,125,0,0,0.000521,-0.002597,-0.298958,0.028198,0.022007,0.004992,1.8431,-1.5760,-0.6187
12058,11.0,0.000366,-0.001851,-0.299342,0.002368,-0.002350,0.013096,1.0607,-0.9248,-0.3131,-0.00002894,-0.00053203,0.00566123,-0.00001336,-0.00040484,0.03495634,-0.0757,-0.0374,-9.6711,-0.028546,0.015595,0.000784,26.6420,0.2990,117,0,0,0.000547,-0.002532,-0.298813,0.029217,0.024461,0.006307,1.8187,-1.5505,-0.6354
12069,11.0,0.000368,-0.001869,-0.299192,0.002298,-0.000565,0.014237,1.0474,-0.9241,-0.3173,0.00006624,-0.00055454,0.00566190,-0.00005343,-0.00123938,0.03497368,-0.1365,-0.0015,-9.6720,0.000212,-0.003754,0.006549,26.6420,0.3000,126,0,0,0.000563,-0.002513,-0.299341,0.030235,0.026466,0.000753,1.8104,-1.5458,-0.6387
12080,11.0,0.000357,-0.001922,-0.299001,0.001841,0.000043,0.014845,1.0551,-0.9412,0.0239,0.00009103,-0.00056781,0.00558850,0.00034660,-0.00131607,0.03478175,-0.1654,-0.0679,-9.7555,0.021326,-0.025052,0.015775,26.6420,0.3000,129,0,0,0.000562,-0.002553,-0.299277,0.030932,0.029529,0.002636,1.8011,-1.5563,-0.4737
12091,11.0,0.000364,-0.001968,-0.299424,0.001363,-0.000710,0.007655,1.0515,-0.9558,0.0332,0.00009534,-0.00055586,0.00558829,0.00057614,-0.00100726,0.03793055,-0.1960,-0.2079,-9.8047,-0.005512,-0.020567,0.020449,26.6420,0.3000,121,0,0,0.000557,-0.002599,-0.299208,0.030740,0.029962,0.003178,1.8000,-1.5664,-0.4686
12102,11.0,0.000370,-0.001741,-0.299319,0.000796,0.000728,0.007012,1.0595,-0.9584,0.0366,-0.00001100,-0.00055915,0.00559055,0.00058950,-0.00164063,0.03779764,-0.2096,-0.2960,-9.8530,-0.003680,-0.005014,0.019075,26.6420,0.2990,126,-1,0,0.000562,-0.002645,-0.299178,0.030662,0.030059,0.002749,1.8045,-1.5834,-0.4609
12113,11.0,0.000381,-0.001707,-0.299246,0.000813,-0.000180,0.006281,1.0607,-0.9485,0.0378,-0.00009609,-0.00055660,0.00559050,0.00060194,-0.00112001,0.03778665,-0.1655,-0.3112,-9.8332,-0.015789,0.015583,0.002590,26.6420,0.2990,125,0,0,0.000582,-0.002175,-0.298813,0.030344,0.029906,0.003909,1.8109,-1.5897,-0.4504
12124,11.0,0.000387,-0.001645,-0.299010,0.000916,-0.000271,0.008700,1.0580,-0.9302,0.0304,-0.00012652,-0.00055830,0.00559118,0.00059714,-0.00131232,0.03691614,-0.1479,-0.2591,-9.7223,-0.009119,0.028023,-0.004221,26.6420,0.2990,129,0,0,0.000597,-0.002135,-0.298777,0.030265,0.029241,0.003299,1.8095,-1.5753,-0.4504
12135,11.0,0.000395,-0.001602,-0.298908,0.000752,0.000012,0.009847,1.0554,-0.9175,0.0212,-0.00016130,-0.00055045,0.00559164,0.00067027,-0.00132095,0.03691491,-0.1723,-0.2050,-9.6652,-0.010750,0.021148,-0.007837,26.6420,0.3000,129,0,0,0.000605,-0.002075,-0.298698,0.030620,0.029062,0.004105,1.8114,-1.5643,-0.4553
12146,11.0,0.000385,-0.001613,-0.298761,0.000811,0.000015,0.011176,1.0649,-0.9204,0.0081,-0.00015601,-0.00055931,0.00559176,0.00071804,-0.00129389,0.03673195,-0.1298,-0.1684,-9.6865,0.015440,-0.006920,-0.014758,26.6420,0.3000,127,0,0,0.000619,-0.001998,-0.299334,0.030842,0.029547,-0.001295,1.8117,-1.5441,-0.4688
12157,11.0,0.000362,-0.001651,-0.299330,0.000545,0.000388,0.003458,1.0809,-0.9311,-0.0051,-0.00008947,-0.00058114,0.00559193,0.00080085,-0.00151706,0.04037995,-0.1468,-0.0987,-9.7362,0.037872,-0.021537,-0.012572,26.6420,0.3000,124,0,0,0.000613,-0.002008,-0.299309,0.030799,0.029641,-0.000184,1.8172,-1.5427,-0.4801
12167,10.0,0.000344,-0.001678,-0.299277,0.000549,0.000576,0.003736,1.0951,-0.9385,-0.0101,-0.00007385,-0.00059238,0.00559187,0.00086290,-0.00143088,0.04027697,-0.1307,-0.1297,-9.7627,0.027128,-0.015453,-0.003489,26.6658,0.3000,128,0,0,0.000591,-0.002047,-0.299309,0.031091,0.030749,0.000148,1.8444,-1.5590,-0.4913
12178,11.0,0.000355,-0.001904,-0.299237,0.000830,-0.002609,0.003497,1.0787,-0.9340,0.0030,-0.00000589,-0.00060344,0.00558938,0.00075000,-0.00053525,0.04026202,-0.1365,-0.2527,-9.7875,-0.018164,0.004355,0.014994,26.6658,0.3000,120,1,0,0.000574,-0.002086,-0.299571,0.031427,0.031464,-0.002786,1.8615,-1.5713,-0.4985
12189,11.0,0.000149,-0.001848,-0.299567,-0.000770,-0.002320,0.000001,1.0538,-0.9030,-0.0653,-0.00004713,-0.00070599,0.00561028,0.00127268,-0.00067230,0.04219477,-0.0796,-0.2477,-9.6864,-0.046341,0.032784,0.019606,26.6658,0.3000,131,0,1,0.000590,-0.002305,-0.299600,0.031476,0.030464,-0.003107,1.8498,-1.5596,-0.5383
12200,11.0,0.000168,-0.001997,-0.299556,0.000344,-0.004303,0.002033,1.0295,-0.8695,-0.0484,-0.00002807,-0.00074163,0.00560858,0.00083462,-0.00006738,0.04218984,-0.0656,-0.2420,-9.5804,-0.037833,0.044685,0.021092,26.6658,0.3000,127,1,0,0.000383,-0.002257,-0.299598,0.031688,0.030385,-0.002323,1.8311,-1.5473,-0.5306
12211,11.0,0.000161,-0.001950,-0.299491,0.000396,-0.004332,0.005617,1.0403,-0.8556,-0.0481,-0.00007483,-0.00074699,0.00560951,0.00086100,-0.00032720,0.04206348,-0.1271,-0.2753,-9.4647,0.010322,0.020479,0.008001,26.6658,0.3000,126,0,0,0.000427,-0.002319,-0.299680,0.032970,0.029686,0.000770,1.7989,-1.4927,-0.5136
12222,11.0,0.000149,-0.002244,-0.299141,-0.000019,-0.008478,0.012066,1.0438,-0.8748,-0.0496,0.00003724,-0.00075362,0.00560776,0.00087897,0.00025438,0.04067047,-0.1638,-0.3083,-9.4642,0.021510,-0.032186,-0.000476,26.6658,0.2990,122,1,0,0.000425,-0.002263,-0.299658,0.033276,0.029298,0.003633,1.8096,-1.4838,-0.5115
12233,11.0,0.000142,-0.002389,-0.298996,-0.000571,-0.009739,0.013973,1.0509,-0.9152,-0.0565,0.00005950,-0.00075539,0.00560740,0.00088876,0.00037307,0.04065578,-0.1925,-0.2423,-9.5939,0.014279,-0.065286,-0.005094,26.7240,0.2990,132,0,0,0.000409,-0.002631,-0.299009,0.032666,0.026898,0.013965,1.8380,-1.5275,-0.5204
12244,11.0,0.000131,-0.002549,-0.298849,-0.001092,-0.010531,0.012743,1.0625,-0.9626,-0.0627,0.00007200,-0.00073260,0.00560705,0.00108617,0.00060060,0.04064869,-0.2062,-0.2031,-9.8771,0.019393,-0.071360,-0.002697,26.7240,0.2990,124,0,0,0.000401,-0.002554,-0.298866,0.032530,0.027382,0.014552,1.8575,-1.5743,-0.5294
12255,11.0,0.000135,-0.002608,-0.298820,-0.001463,-0.010516,0.009128,1.0628,-0.9765,-0.0691,0.00004273,-0.00072379,0.00560741,0.00104699,0.00046048,0.04114638,-0.2199,-0.2454,-9.9883,-0.003908,-0.021744,-0.002983,26.7240,0.2990,124,0,0,0.000396,-0.002796,-0.298596,0.031866,0.026837,0.011566,1.8727,-1.6430,-0.5400
12267,12.0,0.000140,-0.002549,-0.298721,-0.001612,-0.009892,0.007511,1.0740,-0.9551,-0.0802,-0.00013054,-0.00068645,0.00560887,0.00118748,0.00062632,0.04113981,-0.2073,-0.3218,-9.8970,-0.010880,0.036382,-0.008945,26.7240,0.2990,128,0,0,0.000410,-0.002343,-0.298634,0.031388,0.027825,0.007769,1.8751,-1.6470,-0.5471
12278,11.0,0.000143,-0.002439,-0.298635,-0.001761,-0.008940,0.007489,1.0812,-0.9216,-0.0995,-0.00024082,-0.00067546,0.00561108,0.00112710,0.00006911,0.04113507,-0.1989,-0.3272,-9.7677,-0.004780,0.053428,-0.018666,26.7240,0.2990,128,0,0,0.000421,-0.002269,-0.298562,0.031294,0.027336,0.006298,1.8769,-1.6316,-0.5550
12289,11.0,0.000136,-0.002369,-0.298745,-0.001327,-0.006519,0.006964,1.0887,-0.8956,-0.1222,-0.00028607,-0.00068851,0.00561282,0.00097297,-0.00059651,0.04214879,-0.1224,-0.1241,-9.6010,0.006996,0.037086,-0.025188,26.7240,0.2990,118,0,0,0.000436,-0.002052,-0.298436,0.031197,0.027120,0.006671,1.8880,-1.5783,-0.5215
12300,11.0,0.000122,-0.002378,-0.298651,-0.000557,-0.004612,0.009775,1.0982,-0.8960,-0.0118,-0.00031280,-0.00068942,0.00557928,0.00110975,-0.00082510,0.04213944,-0.0773,-0.0636,-9.5153,0.012610,0.000057,-0.017724,26.7240,0.3000,130,0,0,0.000437,-0.001971,-0.299192,0.031256,0.027874,-0.000513,1.8837,-1.5495,-0.5381
12311,11.0,0.000116,-0.002703,-0.298533,0.000297,-0.006236,0.011722,1.0771,-0.9111,-0.0099,-0.00008902,-0.00074745,0.00557686,0.00068047,-0.00082048,0.04214749,-0.0597,-0.0363,-9.5922,0.002689,-0.036220,0.003457,26.7002,0.3000,130,1,0,0.000428,-0.001969,-0.299185,0.032152,0.029565,0.001871,1.8977,-1.5515,-0.5518
12322,11.0,0.000126,-0.003081,-0.298671,0.000500,-0.008712,0.009206,1.0534,-0.9475,0.0038,0.00006346,-0.00074439,0.00557398,0.00069162,-0.00002590,0.04344914,-0.1419,-0.0923,-9.7095,-0.016393,-0.057788,0.021443,26.7002,0.2990,126,1,0,0.000426,-0.002609,-0.299097,0.033131,0.030680,0.005316,1.8845,-1.5866,-0.5521
12333,11.0,0.000147,-0.003452,-0.298579,0.000612,-0.011982,0.007509,1.0239,-0.9821,0.0216,0.00018062,-0.00073606,0.00557117,0.00066506,0.00077247,0.04343536,-0.1694,-0.2061,-9.9173,-0.031290,-0.053953,0.026957,26.7002,0.2990,131,1,0,0.000442,-0.002970,-0.298852,0.032993,0.030287,0.007665,1.8578,-1.6138,-0.5434
12344,11.0,0.000157,-0.003513,-0.298501,0.000315,-0.011915,0.004753,1.0191,-0.9953,0.0283,0.00014373,-0.00073356,0.00557185,0.00065081,0.00059243,0.04338037,-0.2041,-0.2485,-10.0251,-0.012269,-0.021181,0.018448,26.7002,0.2990,120,0,0,0.000481,-0.003426,-0.298716,0.033089,0.029497,0.004486,1.8268,-1.6686,-0.5205
12354,10.0,0.000157,-0.003474,-0.298705,-0.000081,-0.010652,-0.000582,1.0315,-0.9879,0.0250,0.00002913,-0.00070609,0.00557360,0.00088740,0.00050582,0.04452978,-0.2171,-0.2354,-10.0160,0.002033,0.018309,0.005187,26.7002,0.2990,133,0,0,0.000492,-0.003214,-0.298670,0.032944,0.029928,0.001868,1.8294,-1.6782,-0.5159
12365,11.0,0.000138,-0.003117,-0.298703,-0.000274,-0.005718,-0.001821,1.0712,-0.9499,0.0067,-0.00020812,-0.00071518,0.00557898,0.00092001,-0.00061863,0.04447030,-0.1698,-0.2104,-9.8918,0.030123,0.057816,-0.009462,26.6764,0.3010,130,-1,0,0.000496,-0.003161,-0.298664,0.032553,0.029782,-0.000614,1.8330,-1.6638,-0.5163
12377,12.0,0.000122,-0.002737,-0.298716,-0.000022,-0.001107,-0.000268,1.1083,-0.8999,-0.0106,-0.00045007,-0.00074151,0.00558364,0.00080461,-0.00155353,0.04448735,-0.1222,-0.2167,-9.6330,0.022123,0.067368,-0.011346,26.6764,0.3010,128,-1,0,0.000476,-0.002416,-0.300148,0.032629,0.031957,-0.016572,1.8739,-1.5923,-0.5322
12388,11.0,0.000114,-0.002646,-0.299903,0.000003,-0.000477,-0.011558,1.1208,-0.8742,-0.0184,-0.00050411,-0.00074581,0.00558488,0.00091869,-0.00169690,0.05016889,-0.1388,-0.2365,-9.5192,0.011814,0.039230,-0.004418,26.6764,0.3010,132,0,0,0.000468,-0.002029,-0.300307,0.033222,0.033075,-0.015250,1.8936,-1.5578,-0.5305
12400,12.0,0.000115,-0.002703,-0.300030,-0.000013,-0.001148,-0.009617,1.1196,-0.8908,-0.0219,-0.00048379,-0.00074876,0.00558430,0.00089629,-0.00154026,0.05016637,-0.1474,-0.2002,-9.5949,0.000025,-0.025506,-0.000892,26.6764,0.3000,131,0,0,0.000469,-0.001914,-0.300044,0.033218,0.033194,-0.005179,1.9087,-1.5277,-0.5404
12411,11.0,0.000125,-0.002814,-0.300115,0.000121,-0.002828,-0.009639,1.1049,-0.9218,0.0085,-0.00043614,-0.00074334,0.00557519,0.00090036,-0.00133957,0.05005811,-0.1508,-0.2503,-9.7813,-0.016958,-0.048691,0.009569,26.6764,0.3000,127,0,0,0.000478,-0.001985,-0.300072,0.033023,0.032801,-0.003769,1.9017,-1.5412,-0.5432
12422,11.0,0.000137,-0.002867,-0.300049,0.000338,-0.004460,-0.008706,1.1029,-0.9351,0.0142,-0.00051723,-0.00074489,0.00557433,0.00081436,-0.00065000,0.04921484,-0.1485,-0.3387,-9.8574,-0.019933,-0.022420,0.008530,26.6764,0.3000,124,0,0,0.000490,-0.002089,-0.300110,0.033245,0.032364,-0.003833,1.8968,-1.5714,-0.5421
12433,11.0,0.000142,-0.003053,-0.300135,0.000273,-0.007146,-0.009760,1.0934,-0.9196,0.0091,-0.00045172,-0.00074392,0.00557296,0.00081075,-0.00034962,0.04913098,-0.1690,-0.3047,-9.8690,-0.006943,0.023797,-0.006354,26.6764,0.3000,127,1,0,0.000518,-0.002383,-0.299929,0.033434,0.029979,-0.003025,1.8851,-1.5847,-0.5408
12444,11.0,0.000137,-0.002974,-0.300243,0.000528,-0.005493,-0.009861,1.1059,-0.8919,-0.0046,-0.00053614,-0.00076870,0.00557452,0.00068782,-0.00067850,0.04913848,-0.1200,-0.1970,-9.7673,0.007454,0.038339,-0.014778,26.6420,0.3000,125,0,0,0.000526,-0.002554,-0.299965,0.033196,0.028864,-0.004118,1.8851,-1.5644,-0.5470
12455,11.0,0.000121,-0.002895,-0.300086,0.001246,-0.002178,-0.005585,1.1238,-0.8649,-0.0172,-0.00060054,-0.00078225,0.00557603,0.00072871,-0.00100124,0.04795335,-0.0578,-0.0159,-9.6470,0.018907,0.039769,-0.012057,26.6420,0.3000,125,0,0,0.000524,-0.002467,-0.299967,0.033649,0.029439,-0.003913,1.8956,-1.5449,-0.5584
12466,11.0,0.000100,-0.002840,-0.300134,0.001401,0.000415,-0.003200,1.1343,-0.8429,-0.0179,-0.00052625,-0.00083533,0.00557746,0.00055715,-0.00198873,0.04797551,-0.0871,-0.0088,-9.5466,0.032788,0.024968,0.009100,26.6420,0.3000,126,0,0,0.000503,-0.002289,-0.299851,0.034913,0.033538,0.000386,1.9128,-1.4906,-0.5748
12477,11.0,0.000110,-0.002859,-0.300121,0.001004,0.000311,-0.000145,1.1261,-0.8469,-0.0014,-0.00051391,-0.00083684,0.00557727,0.00056202,-0.00193531,0.04781502,-0.1733,-0.1763,-9.5181,-0.011410,-0.006875,0.031530,26.6420,0.3000,131,0,0,0.000493,-0.002222,-0.299802,0.034866,0.034697,0.002962,1.9108,-1.4677,-0.5723
12488,11.0,0.000137,-0.002928,-0.300002,0.000933,-0.000813,0.003085,1.1009,-0.8657,0.0181,-0.00049957,-0.00081674,0.00557635,0.00060010,-0.00161957,0.04730796,-0.1672,-0.2250,-9.5809,-0.039606,-0.026642,0.035058,26.6420,0.3000,126,0,0,0.000498,-0.002224,-0.299760,0.034711,0.035590,0.005467,1.9164,-1.4691,-0.6237
12499,11.0,0.000164,-0.003041,-0.299943,0.000945,-0.002398,0.003228,1.0708,-0.8954,0.0421,-0.00044837,-0.00080750,0.00557514,0.00055763,-0.00138833,0.04718288,-0.1651,-0.2326,-9.7741,-0.040792,-0.046085,0.042137,26.6420,0.3000,123,0,0,0.000556,-0.002368,-0.299673,0.034175,0.035212,0.007885,1.8722,-1.5028,-0.5907
12510,11.0,0.000189,-0.002869,-0.299914,0.000972,-0.001696,0.002077,1.0683,-0.9127,0.0646,-0.00064867,-0.00079328,0.00557642,0.00057594,-0.00114894,0.04717666,-0.1677,-0.3435,-9.8613,-0.036555,-0.025238,0.040637,26.5839,0.3000,126,-1,0,0.000588,-0.002475,-0.299594,0.033871,0.034595,0.007828,1.8450,-1.5254,-0.5703
12522,12.0,0.000229,-0.002578,-0.299870,0.001482,0.000852,0.002630,1.0402,-0.8902,-0.0180,-0.00080915,-0.00077955,0.00561224,0.00039289,-0.00179054,0.04711569,-0.1370,-0.2632,-9.7288,-0.062022,0.032852,0.035963,26.5839,0.3000,135,-1,0,0.000650,-0.002096,-0.299389,0.033916,0.033450,0.006785,1.8171,-1.5437,-0.5323
12533,11.0,0.000279,-0.002511,-0.299832,0.002177,0.001466,0.004285,0.9939,-0.8629,0.0040,-0.00084488,-0.00078232,0.00561213,0.00018093,-0.00187782,0.04712040,-0.1158,-0.1805,-9.6101,-0.078907,0.041521,0.038081,26.5839,0.3000,129,0,0,0.000690,-0.002046,-0.299580,0.034292,0.033032,0.004148,1.7874,-1.5301,-0.5145
12544,11.0,0.000315,-0.002494,-0.299713,0.002802,0.000206,0.007890,0.9585,-0.8554,0.0247,-0.00084866,-0.00077767,0.00561206,0.00015636,-0.00190037,0.04686682,-0.0959,-0.2896,-9.4917,-0.057012,0.012261,0.038053,26.5839,0.3000,129,0,0,0.000792,-0.001919,-0.299420,0.035168,0.033002,0.007729,1.7018,-1.4834,-0.4740
12555,11.0,0.000348,-0.002806,-0.299783,0.002626,-0.004456,0.008504,0.9264,-0.8750,0.0406,-0.00077013,-0.00076807,0.00560875,0.00022588,-0.00061990,0.04759944,-0.1634,-0.2884,-9.5218,-0.045864,-0.029635,0.022700,26.5839,0.3000,127,1,0,0.000830,-0.001915,-0.299259,0.035658,0.032063,0.011067,1.6732,-1.4827,-0.4571
12566,11.0,0.000137,-0.003176,-0.299640,-0.000534,-0.009347,0.010249,0.8937,-0.8998,0.0382,-0.00061218,-0.00088788,0.00560962,0.00076196,0.00009110,0.04738505,-0.1977,-0.2890,-9.6449,-0.031723,-0.056167,0.005878,26.5839,0.3000,125,1,1,0.000861,-0.002214,-0.299517,0.035607,0.030255,0.009243,1.6482,-1.5004,-0.4482
12577,11.0,0.000161,-0.003577,-0.299530,-0.000174,-0.011094,0.009753,0.8448,-0.9382,0.0407,-0.00036689,-0.00087831,0.00560668,0.00065232,0.00011781,0.04738898,-0.1508,0.0065,-9.8080,-0.039964,-0.060835,0.008095,26.5839,0.3000,122,1,0,0.000446,-0.002947,-0.299260,0.033179,0.027627,0.011190,1.6137,-1.5615,-0.4473
12588,11.0,0.000184,-0.003634,-0.299672,0.001488,-0.010272,0.006548,0.8180,-0.9466,0.0435,-0.00040023,-0.00086988,0.00560703,0.00063015,-0.00000451,0.04847537,-0.0262,-0.1350,-9.7921,-0.047240,-0.013014,0.010803,26.6077,0.3000,126,0,0,0.000476,-0.003314,-0.299151,0.033214,0.027679,0.010669,1.5716,-1.5841,-0.4949
12600,12.0,0.000222,-0.003625,-0.299596,0.001228,-0.009695,0.006218,0.7947,-0.9373,0.0487,-0.00052235,-0.00083002,0.00560795,0.00078625,0.00007690,0.04846988,-0.2080,-0.2244,-9.7847,-0.052047,0.019269,0.014008,26.6077,0.2990,125,0,0,0.000501,-0.003365,-0.298972,0.034738,0.028321,0.011166,1.5490,-1.5957,-0.4925
12610,10.0,0.000249,-0.003413,-0.299487,0.000843,-0.005161,0.006807,0.7858,-0.9384,0.0394,-0.00067626,-0.00082096,0.00561091,0.00073931,-0.00060241,0.04827366,-0.2174,-0.0162,-9.7564,-0.038719,-0.001595,-0.004014,26.6077,0.2990,128,-1,0,0.000585,-0.003087,-0.298655,0.033726,0.028871,0.011917,1.4976,-1.5729,-0.4866
12622,12.0,0.000008,-0.003465,-0.299143,-0.001498,-0.004122,0.010320,0.7842,-0.9360,0.0259,-0.00062526,-0.00097514,0.00561366,0.00109985,-0.00101919,0.04715756,-0.1184,-0.0453,-9.7194,0.005941,-0.017854,-0.011104,26.6077,0.2990,125,0,1,0.000616,-0.002869,-0.298535,0.033272,0.030204,0.011953,1.4668,-1.5727,-0.4946
12633,11.0,0.000006,-0.003258,-0.298991,-0.001507,-0.000583,0.011169,0.7976,-0.9421,-0.0519,-0.00075149,-0.00096737,0.00563877,0.00098461,-0.00151784,0.04700723,-0.1745,-0.0621,-9.7231,0.002365,-0.010410,-0.013383,26.6077,0.3000,127,-1,0,0.000386,-0.002907,-0.298414,0.033043,0.031443,0.012284,1.4699,-1.5821,-0.5051
12644,11.0,0.000001,-0.003287,-0.298869,-0.001251,0.000286,0.011026,0.7912,-0.9479,-0.0629,-0.00066914,-0.00097061,0.00563877,0.00089326,-0.00194860,0.04701794,-0.1472,-0.0211,-9.7756,0.004059,-0.011263,-0.009407,26.4914,0.3000,127,0,0,0.000165,-0.002469,-0.299137,0.032281,0.033946,0.003373,1.4705,-1.5841,-0.5264
12655,11.0,-0.000001,-0.003301,-0.299342,-0.001082,0.000864,0.003951,0.7912,-0.9508,-0.0692,-0.00065842,-0.00096499,0.00563848,0.00090733,-0.00186409,0.04954235,-0.1579,-0.0633,-9.7794,0.000657,-0.005016,-0.004676,26.4914,0.3000,127,0,0,0.000169,-0.002498,-0.298971,0.032499,0.035396,0.004029,1.4668,-1.5883,-0.5433
12666,11.0,0.000010,-0.003275,-0.299299,-0.000274,0.001775,0.003905,0.7725,-0.9366,-0.0676,-0.00062348,-0.00098828,0.00563846,0.00062003,-0.00219620,0.04955325,-0.1038,-0.0618,-9.7643,-0.023084,0.016351,0.008209,26.4914,0.3000,131,0,0,0.000178,-0.002496,-0.299444,0.032314,0.035511,-0.001660,1.4555,-1.5825,-0.5465
12677,11.0,0.000023,-0.003237,-0.299166,0.000838,0.002488,0.005103,0.7560,-0.9233,-0.0592,-0.00063100,-0.00098307,0.00563854,0.00059139,-0.00223211,0.04916519,-0.0687,-0.0841,-9.7486,-0.027520,0.021066,0.018935,26.4914,0.3000,130,0,0,0.000193,-0.002471,-0.299389,0.033067,0.036351,-0.000896,1.4470,-1.5760,-0.5448
12688,11.0,0.000269,-0.003441,-0.299560,0.003961,-0.000110,0.000390,0.7356,-0.9186,-0.0462,-0.00051932,-0.00089513,0.00563480,-0.00011846,-0.00166705,0.05107750,-0.1032,-0.1373,-9.7098,-0.018138,0.016466,0.023724,26.4914,0.3000,130,1,-1,0.000464,-0.002625,-0.299407,0.034919,0.036239,-0.000876,1.4110,-1.5431,-0.5492
12699,11.0,0.000282,-0.003673,-0.299482,0.004252,-0.002685,0.002072,0.7145,-0.9138,-0.0282,-0.00040221,-0.00091264,0.00563308,-0.00004580,-0.00116831,0.05077263,-0.0951,-0.1302,-9.6798,-0.017871,0.004756,0.031521,26.4914,0.3000,123,1,0,0.000715,-0.002827,-0.299589,0.035630,0.035274,-0.002175,1.3960,-1.5263,-0.5360
12710,11.0,0.000299,-0.003695,-0.299455,0.004747,-0.001625,0.002807,0.6918,-0.9078,-0.0092,-0.00034532,-0.00098095,0.00563319,-0.00034051,-0.00159390,0.05078534,-0.0690,-0.0200,-9.6930,-0.024826,-0.003242,0.034585,26.4914,0.3000,131,0,0,0.000725,-0.003050,-0.299607,0.036271,0.034706,-0.001454,1.3872,-1.5249,-0.5212
12721,11.0,0.000324,-0.003990,-0.299651,0.005063,-0.003380,0.000911,0.6571,-0.9174,0.0208,-0.00020038,-0.00099705,0.00563118,-0.00025752,-0.00097170,0.05174072,-0.0948,0.0058,-9.6876,-0.035179,-0.017837,0.051107,26.4914,0.3000,127,1,0,0.000766,-0.003324,-0.299520,0.037340,0.035409,0.001063,1.3459,-1.5215,-0.4839
12733,12.0,0.000118,-0.004064,-0.299634,0.002374,-0.003743,0.002032,0.6304,-0.9208,0.0609,-0.00018582,-0.00114858,0.00563172,0.00021581,-0.00088514,0.05173130,-0.1321,-0.1123,-9.6632,-0.036536,-0.024812,0.057472,26.4544,0.3000,133,0,1,0.000565,-0.003366,-0.299625,0.036725,0.035727,0.000548,1.3099,-1.5196,-0.4580
12744,11.0,-0.000101,-0.004153,-0.299502,-0.000417,-0.005112,0.003981,0.6124,-0.9328,0.0579,-0.00016413,-0.00127248,0.00564531,0.00070228,-0.00076705,0.05127426,-0.1661,-0.1893,-9.6925,-0.025568,-0.036517,0.047913,26.4544,0.3000,125,0,1,0.000152,-0.003491,-0.299596,0.035543,0.035275,0.002182,1.2678,-1.5415,-0.3995
12755,11.0,-0.000094,-0.004025,-0.299724,-0.000525,-0.004243,0.000847,0.6225,-0.9642,0.0770,-0.00033074,-0.00125595,0.00564644,0.00076664,-0.00066072,0.05235435,-0.1832,-0.2269,-9.7610,-0.010246,-0.047914,0.035824,26.4544,0.3000,123,-1,0,-0.000063,-0.003575,-0.299440,0.034846,0.034225,0.004201,1.2567,-1.5640,-0.3775
12767,12.0,-0.000090,-0.004137,-0.299639,-0.000676,-0.006454,0.000671,0.6165,-0.9973,0.0908,-0.00030509,-0.00124982,0.00564587,0.00073732,-0.00055326,0.05200894,-0.1895,-0.2459,-9.8499,-0.005611,-0.048439,0.025663,26.4544,0.3000,131,0,0,-0.000047,-0.003438,-0.299646,0.034424,0.033577,0.001445,1.2556,-1.5855,-0.3591
12778,11.0,-0.000092,-0.003693,-0.299641,-0.000841,-0.002852,-0.000966,0.6553,-1.0094,0.0972,-0.00069557,-0.00123155,0.00565031,0.00082287,-0.00076863,0.05200036,-0.1974,-0.3229,-9.9019,0.001195,-0.016960,0.019314,26.4544,0.3000,131,-2,0,-0.000027,-0.003613,-0.299544,0.033982,0.030809,0.000214,1.2574,-1.6312,-0.3360
12789,11.0,-0.000094,-0.003622,-0.299750,-0.001321,-0.003996,-0.003327,0.6651,-0.9919,0.0940,-0.00075375,-0.00122673,0.00565147,0.00080574,-0.00100824,0.05237174,-0.2278,-0.3329,-9.8711,0.006862,0.027164,0.002416,26.4544,0.3000,127,0,0,-0.000021,-0.003159,-0.299549,0.033899,0.030133,-0.001343,1.2635,-1.6416,-0.2038
12800,11.0,-0.000100,-0.003501,-0.299787,-0.001940,-0.004410,-0.003536,0.6969,-0.9657,0.0796,-0.00097587,-0.00117358,0.00565284,0.00111583,-0.00041539,0.05235207,-0.2455,-0.3475,-9.7702,0.011194,0.050154,-0.017187,26.4544,0.3000,124,0,0,-0.000016,-0.002994,-0.299683,0.032858,0.027031,-0.004336,1.2929,-1.6014,-0.2115
12811,11.0,-0.000106,-0.003646,-0.299718,-0.002375,-0.007371,-0.001476,0.7015,-0.9410,0.0577,-0.00093291,-0.00116414,0.00565144,0.00107218,-0.00024287,0.05192159,-0.2214,-0.3035,-9.6776,0.011389,0.038834,-0.032303,26.4544,0.3000,121,1,0,-0.000015,-0.003110,-0.299622,0.032195,0.025247,-0.003219,1.3113,-1.5716,-0.2240
12822,11.0,-0.000119,-0.003838,-0.299296,-0.002384,-0.009155,0.004655,0.7135,-0.9288,0.0312,-0.00090947,-0.00114851,0.00564960,0.00108122,0.00019625,0.05018482,-0.1739,-0.1782,-9.6525,0.018472,0.020339,-0.040889,26.4544,0.2990,128,1,0,-0.000016,-0.003245,-0.299652,0.031726,0.023415,-0.002671,1.3215,-1.5496,-0.2444
12833,11.0,-0.000146,-0.003840,-0.299158,-0.002191,-0.007393,0.006896,0.7421,-0.9280,0.0011,-0.00095635,-0.00114950,0.00565082,0.00107775,-0.00000400,0.04985995,-0.1364,-0.0541,-9.6413,0.037437,-0.000653,-0.039638,26.4544,0.2990,130,0,0,-0.000038,-0.003610,-0.299035,0.031612,0.022194,0.005839,1.3559,-1.5240,-0.2945
12844,11.0,-0.000166,-0.004120,-0.299077,-0.001535,-0.008472,0.007894,0.7403,-0.9328,-0.0163,-0.00078734,-0.00118741,0.00564855,0.00079770,-0.00006409,0.04986949,-0.0927,-0.0113,-9.6700,0.022777,-0.016683,-0.025414,26.4544,0.2990,125,1,0,-0.000051,-0.003596,-0.298970,0.031504,0.022675,0.006997,1.3675,-1.5149,-0.3199
12856,12.0,-0.000183,-0.004421,-0.299446,-0.000698,-0.010184,0.002248,0.7423,-0.9480,0.1811,-0.00068780,-0.00118715,0.00555671,0.00110018,0.00019345,0.05168755,-0.0867,-0.0825,-9.7860,0.017451,-0.022018,-0.012702,26.4544,0.3000,125,1,0,-0.000067,-0.003855,-0.298765,0.032171,0.023388,0.009374,1.3841,-1.5234,-0.3385
12867,11.0,-0.000185,-0.004399,-0.299428,-0.000453,-0.008831,0.000980,0.7500,-0.9372,0.1799,-0.00076324,-0.00119424,0.00555793,0.00102139,-0.00003032,0.05169017,-0.1440,-0.1414,-9.8715,0.000823,0.014497,0.004740,26.4544,0.3000,128,0,0,-0.000080,-0.004140,-0.299331,0.033182,0.024083,0.001366,1.3956,-1.5285,-0.3573
12878,11.0,-0.000156,-0.004305,-0.299316,0.000345,-0.007558,0.001776,0.7268,-0.9049,0.1823,-0.00086091,-0.00117819,0.00555960,0.00094536,-0.00043989,0.05127637,-0.1196,-0.2088,-9.7956,-0.050833,0.052171,0.011513,26.4544,0.3000,129,0,0,-0.000072,-0.004110,-0.299218,0.033124,0.024234,0.001394,1.3928,-1.5136,-0.3578
12889,11.0,0.000108,-0.003682,-0.299647,0.004191,0.000061,-0.000959,0.7275,-0.8602,0.1839,-0.00122282,-0.00110712,0.00556274,0.00003165,-0.00182092,0.05270709,-0.0477,-0.1363,-9.6292,-0.049541,0.076039,0.010012,26.4544,0.3000,133,-2,-1,0.000235,-0.003417,-0.299034,0.034569,0.025774,0.003040,1.3480,-1.4381,-0.3919
12900,11.0,0.000104,-0.003558,-0.299554,0.004219,0.001137,0.004548,0.7386,-0.8228,0.1762,-0.00128450,-0.00113321,0.00556436,0.00013476,-0.00208436,0.05238799,-0.0859,-0.1479,-9.3416,0.007774,0.054447,-0.005944,26.4544,0.2990,124,0,0,0.000482,-0.002792,-0.298887,0.036213,0.027758,0.006412,1.3475,-1.3972,-0.3915
12911,11.0,0.000100,-0.003809,-0.299475,0.003123,-0.001958,0.009822,0.7408,-0.8263,0.1616,-0.00115466,-0.00115705,0.00556240,0.00023690,-0.00154057,0.05238120,-0.1860,-0.1421,-9.2755,0.019629,-0.010257,-0.020340,26.4544,0.2990,122,1,0,0.000482,-0.002664,-0.298803,0.036656,0.028029,0.010298,1.3562,-1.3651,-0.3971
12923,12.0,0.000091,-0.004335,-0.299610,0.002263,-0.007074,0.008475,0.7397,-0.9125,0.1440,-0.00090555,-0.00117957,0.00555789,0.00035028,-0.00049389,0.05338451,-0.1706,-0.0925,-9.6151,0.028140,-0.129644,-0.024168,26.4544,0.3000,123,1,0,0.000464,-0.002987,-0.298383,0.035711,0.027130,0.020165,1.3884,-1.3945,-0.4270
12934,11.0,0.000077,-0.004902,-0.299529,0.001851,-0.011308,0.006095,0.7279,-1.0005,0.1345,-0.00059475,-0.00120737,0.00555378,0.00037334,0.00003788,0.05338379,-0.1570,-0.0125,-9.9724,0.026956,-0.145452,-0.012002,26.5126,0.3000,123,1,0,0.000449,-0.003479,-0.299116,0.035249,0.026354,0.011765,1.4045,-1.4643,-0.4445
12946,12.0,0.000081,-0.005066,-0.299405,0.001997,-0.010613,0.001706,0.7254,-1.0408,0.1340,-0.00057718,-0.00121764,0.00555355,0.00041039,0.00010389,0.05305194,-0.1475,-0.0405,-10.2047,-0.002086,-0.061103,0.004946,26.5126,0.3000,131,0,0,0.000432,-0.004267,-0.298920,0.035075,0.026121,0.006665,1.4121,-1.6067,-0.4659
