timestamp_ms,dt_ms,pos_x,pos_y,pos_z,vel_x,vel_y,vel_z,roll_deg,pitch_deg,yaw_deg,gyro_bias_x,gyro_bias_y,gyro_bias_z,accel_bias_x,accel_bias_y,accel_bias_z,raw_accel_x,raw_accel_y,raw_accel_z,raw_gyro_x,raw_gyro_y,raw_gyro_z,raw_baro_alt,raw_tof,raw_flow_squal,raw_flow_dx,raw_flow_dy,dev_pos_x,dev_pos_y,dev_pos_z,dev_vel_x,dev_vel_y,dev_vel_z,dev_roll_deg,dev_pitch_deg,dev_yaw_deg
10865,10.0,-0.000009,-0.000018,-0.299894,-0.001681,-0.002705,0.000394,-0.0249,0.0079,0.0062,0.00000000,0.00000000,0.00571188,-0.00002741,-0.00022154,0.00000000,-0.1546,-0.1728,-9.6956,-0.043148,0.013818,0.016472,26.4703,0.3000,122,0,0,0.000181,-0.000337,-0.300055,-0.000562,-0.008543,0.012758,0.9014,-0.6758,0.0967
10876,11.0,0.000230,-0.000051,-0.299883,0.010791,-0.002872,0.001582,0.5288,-0.5319,0.0086,-0.00000209,0.00000181,0.00571188,-0.00018312,-0.00023145,-0.00000003,-0.1720,-0.1915,-9.6957,-0.030883,0.002610,0.010960,26.4703,0.3010,123,1,0,0.000207,-0.000332,-0.300446,-0.000453,-0.007999,0.008227,0.9019,-0.6986,0.1018
10888,12.0,0.000293,-0.000046,-0.296320,0.008071,-0.003264,0.152241,0.5440,-0.5246,0.0041,-0.00000213,0.00000177,0.00571189,-0.00011404,-0.00028845,-0.00009398,-0.1475,-0.2617,-9.6859,-0.000724,-0.018512,0.001155,26.4703,0.3010,124,0,0,0.000227,-0.000560,-0.300358,-0.000819,-0.009192,0.009406,0.8921,-0.7067,0.1055
10899,11.0,0.000353,-0.000037,-0.300851,0.007253,-0.002238,-0.027329,0.9386,-0.7290,-0.0155,-0.00000623,0.00000395,0.00571189,-0.00007903,-0.00037972,0.00006061,-0.1922,-0.2803,-9.7472,0.039836,-0.033061,-0.018934,26.4703,0.3010,121,0,0,0.000222,-0.000656,-0.300038,-0.001198,-0.009967,0.012829,0.9622,-0.7665,0.0042
10910,11.0,0.000175,-0.000016,-0.300890,0.000706,-0.002827,-0.020621,0.9735,-0.6470,-0.0440,-0.00000635,0.00000338,0.00571195,0.00043976,-0.00049433,-0.00003847,-0.2120,-0.3260,-9.8167,0.020869,-0.028542,-0.026370,26.3752,0.3000,121,-1,0,0.000201,-0.000718,-0.299907,-0.001383,-0.010004,0.013428,1.0391,-0.8174,-0.0097
10921,11.0,0.000190,-0.000027,-0.301119,0.000835,-0.002498,-0.020854,1.1755,-0.6899,-0.0673,-0.00001077,0.00000420,0.00571195,0.00041931,-0.00054858,-0.00003735,-0.1357,-0.2985,-9.8241,0.007048,-0.008661,-0.029591,26.3752,0.3000,125,0,0,0.000183,-0.000588,-0.299640,-0.002206,-0.009927,0.012994,1.1407,-0.8710,-0.0473
10932,11.0,0.000146,-0.000021,-0.300044,-0.000256,-0.001754,0.003463,1.1968,-0.6543,-0.0928,-0.00001092,0.00000396,0.00571198,0.00056788,-0.00065363,-0.00081324,-0.1258,-0.1872,-9.7420,0.014357,0.018465,-0.031033,26.3752,0.3000,120,0,0,0.000176,-0.000599,-0.299364,-0.002029,-0.010465,0.014645,1.1587,-0.8829,-0.0686
10943,11.0,0.000073,-0.000012,-0.299994,-0.001432,-0.001186,0.005568,1.0344,-0.5765,-0.1076,-0.00000446,0.00000254,0.00571201,0.00079613,-0.00077152,-0.00081388,-0.0830,-0.0567,-9.6210,-0.008602,0.034837,-0.014212,26.3752,0.3010,125,0,0,0.000165,-0.000566,-0.299215,-0.001956,-0.009883,0.015252,1.1817,-0.8743,-0.0900
10954,11.0,0.000055,-0.000026,-0.299668,-0.000804,0.001150,0.012196,1.0256,-0.5697,-0.0972,-0.00000435,0.00000250,0.00571201,0.00081536,-0.00072112,-0.00123695,-0.0284,0.0636,-9.5592,-0.002725,0.006456,0.021748,26.3752,0.3010,124,0,0,0.000167,-0.000690,-0.300029,-0.001100,-0.008044,0.007813,1.1144,-0.8246,-0.1088
10965,11.0,0.000106,-0.000024,-0.300522,0.000035,0.001059,0.001026,0.9410,-0.6742,-0.0766,0.00000026,0.00000682,0.00571199,0.00062736,-0.00068498,0.00069871,-0.1702,-0.0942,-9.5660,-0.012279,-0.025248,0.039664,26.3752,0.3010,127,0,0,0.000165,-0.000691,-0.299938,-0.000031,-0.005277,0.010352,1.1245,-0.8297,-0.1008
10976,11.0,0.000218,-0.000040,-0.300369,0.000503,-0.001091,0.003732,0.9091,-0.7503,-0.0553,0.00000043,0.00000817,0.00571192,0.00011370,-0.00062231,0.00029458,-0.2488,-0.3315,-9.7251,-0.039649,-0.043438,0.032720,26.3752,0.3000,124,0,0,0.000190,-0.000819,-0.299746,-0.000662,-0.005561,0.013564,1.0837,-0.8722,-0.0668
10987,11.0,0.000075,-0.000082,-0.300330,-0.002045,-0.001959,0.003377,1.0759,-0.7878,-0.0559,-0.00001649,0.00001246,0.00571203,0.00085737,-0.00027147,0.00027993,-0.2207,-0.4082,-9.8338,-0.025929,-0.040587,0.015502,26.4333,0.3000,129,-1,0,0.000217,-0.000918,-0.299608,-0.000719,-0.006019,0.014024,1.1156,-0.9332,0.0070
10998,11.0,-0.000107,-0.000073,-0.299985,-0.005462,-0.004731,0.005986,1.0929,-0.7406,-0.0806,-0.00001730,0.00001000,0.00571230,0.00156350,-0.00052734,-0.00098079,-0.2206,-0.5119,-9.9081,-0.004019,-0.020774,-0.012689,26.4333,0.3000,121,-1,0,0.000235,-0.000778,-0.299353,-0.001248,-0.007256,0.014999,1.1161,-0.9661,0.0119
11008,10.0,-0.000122,-0.000097,-0.299930,-0.004998,-0.004853,0.005000,1.3285,-0.8212,-0.0988,-0.00004436,0.00001874,0.00571223,0.00150358,-0.00020800,-0.00098650,-0.2310,-0.5306,-9.8947,0.017034,-0.001404,-0.030950,26.4333,0.3010,126,0,0,0.000242,-0.000600,-0.299209,-0.001265,-0.006782,0.013904,1.2066,-1.0007,0.0052
11020,12.0,0.000034,-0.000078,-0.299746,-0.001836,-0.005395,0.005816,1.3905,-0.8842,-0.1224,-0.00004626,0.00002340,0.00571184,0.00041357,-0.00066823,-0.00174015,-0.1642,-0.3917,-9.8639,0.042975,0.021409,-0.050887,26.4333,0.3010,118,1,0,0.000218,-0.000565,-0.300092,-0.001804,-0.009677,0.000208,1.3288,-1.0238,-0.0404
11031,11.0,0.000191,-0.000091,-0.300376,0.000989,-0.004769,-0.002104,1.4294,-0.9211,-0.1377,-0.00005107,0.00002677,0.00571147,-0.00044616,-0.00075288,0.00270504,-0.1426,-0.2786,-9.7891,-0.001106,0.031321,-0.041998,26.4333,0.3010,122,1,0,0.000191,-0.000736,-0.300094,-0.001776,-0.011693,-0.000555,1.3639,-1.0210,-0.0715
11042,11.0,0.000124,-0.000127,-0.300299,0.000278,-0.003591,0.000731,1.4075,-0.8696,-0.1580,-0.00005134,0.00002455,0.00571167,-0.00003745,-0.00082368,0.00200714,-0.1044,-0.1499,-9.6486,-0.040546,0.037993,-0.016067,26.4333,0.3010,126,0,0,0.000193,-0.000842,-0.299943,-0.000981,-0.011008,0.001453,1.4039,-0.9971,-0.1179
11053,11.0,0.000100,-0.000171,-0.300276,0.000055,-0.003374,0.003328,1.3273,-0.8216,-0.1613,-0.00004381,0.00001833,0.00571172,-0.00000902,-0.00094736,0.00200985,-0.0924,-0.1607,-9.5712,-0.071792,0.023565,0.001625,26.4333,0.3010,126,0,0,0.000216,-0.000786,-0.300466,-0.000710,-0.010172,-0.003048,1.3724,-0.9695,-0.1292
11064,11.0,0.000117,-0.000224,-0.300534,0.000930,-0.002272,0.002227,1.2767,-0.8253,-0.1567,-0.00004309,0.00001875,0.00571167,-0.00003721,-0.00076462,0.00459412,-0.0761,-0.0903,-9.5801,-0.070403,0.000938,0.010205,26.4333,0.3010,122,0,0,0.000298,-0.000758,-0.300486,0.000493,-0.008296,0.001201,1.2964,-0.9467,-0.1318
11075,11.0,0.000162,-0.000235,-0.300499,0.001550,-0.001334,0.003974,1.1928,-0.8317,-0.1593,-0.00002386,0.00001620,0.00571167,-0.00030021,-0.00125513,0.00461074,-0.1104,-0.0423,-9.6477,-0.028652,-0.015653,0.003666,26.4333,0.3010,120,0,0,0.000333,-0.000794,-0.300309,0.001332,-0.006683,0.005005,1.2725,-0.9582,-0.1296
11086,11.0,0.000446,-0.000244,-0.300337,0.005242,-0.000811,0.006002,1.1894,-0.9221,-0.1489,-0.00002403,0.00002694,0.00571121,-0.00172048,-0.00130198,0.00350641,-0.1758,-0.1609,-9.7462,-0.006442,-0.026565,0.001018,26.4333,0.3010,122,1,0,0.000350,-0.000846,-0.300643,0.001468,-0.006259,0.002283,1.2299,-0.9652,-0.0693
11097,11.0,0.000240,-0.000237,-0.300617,0.001286,-0.000472,0.002239,1.1944,-0.8624,-0.1751,-0.00002202,0.00001744,0.00571173,-0.00025663,-0.00136365,0.00685689,-0.1686,-0.1842,-9.7694,0.011697,-0.005998,-0.011567,26.4333,0.3010,122,-1,0,0.000357,-0.001415,-0.300483,0.001382,-0.006951,0.004372,1.2320,-1.0068,-0.0758
11108,11.0,0.000215,-0.000220,-0.300501,0.000451,0.000301,0.004064,1.2198,-0.8471,-0.1919,-0.00002294,0.00001568,0.00571184,-0.00007668,-0.00148263,0.00595125,-0.1725,-0.1601,-9.7327,0.032616,0.008785,-0.017093,26.4333,0.3010,124,0,0,0.000349,-0.001193,-0.300438,0.001367,-0.005567,0.004606,1.2576,-1.0177,-0.0883
11119,11.0,0.000196,-0.000199,-0.300450,-0.000059,0.000804,0.005252,1.2261,-0.8474,-0.2092,-0.00001633,0.00001845,0.00571197,0.00013403,-0.00174007,0.00595441,-0.1731,-0.1575,-9.6933,0.030326,0.004612,-0.014280,26.4333,0.3010,125,0,0,0.000313,-0.001150,-0.300580,0.000989,-0.004319,0.003737,1.3058,-1.0248,-0.1159
11130,11.0,0.000245,-0.000195,-0.300594,0.000308,0.000851,0.003926,1.2282,-0.8738,-0.2123,-0.00001595,0.00002125,0.00571185,-0.00009676,-0.00166488,0.00808297,-0.1783,-0.1976,-9.6942,0.005069,-0.023479,-0.002721,26.3963,0.3010,119,0,0,0.000298,-0.001154,-0.300409,0.000885,-0.004055,0.006134,1.3209,-1.0344,-0.1262
11141,11.0,0.000316,-0.000209,-0.300549,0.000961,0.000319,0.004191,1.2201,-0.9229,-0.2082,-0.00002071,0.00003272,0.00571166,-0.00027971,-0.00141047,0.00807890,-0.2044,-0.2487,-9.7728,-0.023247,-0.031638,0.008161,26.3963,0.3010,130,0,0,0.000297,-0.001206,-0.300344,0.000850,-0.003844,0.006947,1.3337,-1.0567,-0.1309
11152,11.0,0.000369,-0.000226,-0.300379,0.001079,-0.000977,0.004930,1.1953,-0.9439,-0.2077,-0.00001990,0.00003558,0.00571150,-0.00052494,-0.00137210,0.00672157,-0.2072,-0.3120,-9.8724,-0.034953,-0.018562,0.002001,26.3963,0.3010,117,0,0,0.000329,-0.001342,-0.300496,0.000563,-0.004687,0.004088,1.3279,-1.1084,-0.1312
11163,11.0,0.000349,-0.000248,-0.300643,0.000452,-0.001724,0.000059,1.2014,-0.9376,-0.2158,-0.00003610,0.00003912,0.00571153,-0.00019338,-0.00086887,0.00988227,-0.1951,-0.3084,-9.9014,-0.029908,0.014251,-0.007673,26.3963,0.3010,118,0,0,0.000352,-0.001378,-0.300460,0.000565,-0.004880,0.003057,1.3356,-1.1276,-0.1348
11174,11.0,0.000255,-0.000264,-0.300541,-0.000537,-0.001307,0.001875,1.1888,-0.8877,-0.2373,-0.00003611,0.00003180,0.00571186,0.00028616,-0.00089024,0.00884639,-0.1195,-0.1679,-9.7434,-0.020611,0.047719,-0.020580,26.3963,0.3010,118,0,0,0.000372,-0.001361,-0.300272,0.000594,-0.005397,0.003804,1.3306,-1.1302,-0.1431
11185,11.0,0.000161,-0.000267,-0.300504,-0.001387,-0.000476,0.004864,1.1621,-0.8292,-0.2622,-0.00001809,0.00001550,0.00571217,0.00050612,-0.00135467,0.00885525,-0.0895,-0.0926,-9.5293,-0.005572,0.046046,-0.026487,26.3963,0.3010,124,0,0,0.000388,-0.000948,-0.300611,0.001803,-0.002600,0.001056,1.3386,-1.0852,-0.2059
11196,11.0,0.000153,-0.000269,-0.300620,-0.000721,0.000935,0.005863,1.1662,-0.8295,-0.2743,-0.00001770,0.00001587,0.00571215,0.00051475,-0.00129228,0.01071967,-0.0828,-0.0598,-9.5073,0.007634,0.000328,-0.013944,26.3963,0.3010,125,0,0,0.000387,-0.000869,-0.300458,0.002015,-0.001846,0.005233,1.3282,-1.0557,-0.2228
11207,11.0,0.000477,-0.000268,-0.300541,0.003996,0.001775,0.008565,1.1317,-0.9050,-0.2705,0.00001001,0.00003575,0.00571146,-0.00123452,-0.00182711,0.01075754,-0.1076,-0.0510,-9.5538,-0.002476,-0.046979,0.000562,26.3963,0.3010,124,1,0,0.000379,-0.000871,-0.300391,0.002809,-0.000223,0.008035,1.3442,-1.0631,-0.2346
11218,11.0,0.000855,-0.000284,-0.300313,0.008354,0.002606,0.011076,1.1128,-1.0004,-0.2554,0.00001366,0.00006538,0.00571068,-0.00282084,-0.00165852,0.00949653,-0.1728,-0.0653,-9.7131,-0.019135,-0.066285,0.016092,26.3963,0.3010,120,1,0,0.000382,-0.001559,-0.300475,0.003127,-0.000224,0.009232,1.3208,-1.1198,-0.2377
11229,11.0,0.000978,-0.000291,-0.300583,0.009094,0.002032,0.005628,1.0985,-1.0273,-0.2411,0.00001359,0.00005923,0.00571042,-0.00309658,-0.00134091,0.01320362,-0.1300,-0.2067,-9.8738,-0.018903,-0.049301,0.020678,26.3963,0.3010,121,0,0,0.000392,-0.001944,-0.300380,0.003092,-0.000970,0.009858,1.2915,-1.1607,-0.2320
11240,11.0,0.001037,-0.000288,-0.300431,0.009173,0.000681,0.005575,1.0925,-1.0345,-0.2359,0.00001475,0.00005488,0.00571053,-0.00291000,-0.00130315,0.01224629,-0.1194,-0.2995,-9.9065,-0.006612,-0.021605,0.016110,26.3963,0.3010,121,0,0,0.000401,-0.002074,-0.300122,0.003670,-0.000739,0.011087,1.2906,-1.2017,-0.2246
11251,11.0,0.000771,-0.000275,-0.300376,0.004233,-0.000984,0.004341,1.1501,-0.9705,-0.2576,-0.00003489,0.00002085,0.00571182,-0.00117193,-0.00032766,0.01219674,-0.1900,-0.4294,-9.9017,0.020031,0.023359,-0.013145,26.3963,0.3010,128,-1,0,0.000402,-0.001905,-0.300384,0.004263,-0.001729,0.004023,1.3198,-1.2230,-0.2156
11262,11.0,0.000470,-0.000240,-0.300567,-0.000511,-0.002792,0.001279,1.1847,-0.9015,-0.3048,-0.00004117,-0.00001667,0.00571378,0.00039208,-0.00054208,0.01436382,-0.1807,-0.4343,-9.8109,0.041360,0.032696,-0.033101,26.3963,0.3010,124,-1,0,0.000391,-0.001612,-0.300350,0.004207,-0.001387,0.002709,1.3737,-1.2153,-0.2247
11273,11.0,0.000387,-0.000222,-0.300550,-0.001448,-0.003128,0.001922,1.2372,-0.8681,-0.3350,-0.00007367,-0.00002712,0.00571421,0.00070188,-0.00023378,0.01435130,-0.1421,-0.3319,-9.7311,0.038056,0.033472,-0.039824,26.4544,0.3020,130,0,0,0.000369,-0.001295,-0.300326,0.004265,-0.002115,0.002002,1.4122,-1.2058,-0.2458
11285,12.0,0.000342,-0.000208,-0.300411,-0.001009,-0.001249,0.004518,1.2723,-0.8554,-0.3563,-0.00007873,-0.00003098,0.00571450,0.00082778,-0.00044115,0.01336041,-0.0748,-0.1001,-9.6891,0.042576,0.011759,-0.020981,26.4544,0.3020,123,0,0,0.000315,-0.001134,-0.301231,0.005006,-0.001533,-0.006811,1.5020,-1.1799,-0.2507
11296,11.0,0.000590,-0.000208,-0.301214,0.002250,-0.000010,-0.005022,1.2553,-0.8939,-0.3517,-0.00004907,0.00000179,0.00571356,-0.00013707,-0.00095418,0.02092035,-0.1557,-0.0787,-9.7455,0.005755,-0.009474,0.003996,26.4544,0.3020,128,1,0,0.000266,-0.001101,-0.301230,0.005743,0.000912,-0.003950,1.5450,-1.1709,-0.2769
11307,11.0,0.000652,-0.000239,-0.301186,0.002960,0.000119,-0.003752,1.2219,-0.9122,-0.3368,-0.00004475,0.00000648,0.00571329,-0.00030233,-0.00082825,0.02018709,-0.1314,-0.1639,-9.7620,-0.046240,-0.021607,0.025681,26.4544,0.3010,125,0,0,0.000271,-0.001377,-0.301004,0.005793,0.000711,-0.000813,1.5234,-1.1804,-0.2740
11318,11.0,0.000701,-0.000264,-0.301226,0.002962,-0.001010,-0.003469,1.2083,-0.9269,-0.3223,-0.00006672,0.00001403,0.00571302,-0.00026869,-0.00024747,0.02017390,-0.1805,-0.3110,-9.7581,-0.042282,-0.014512,0.021894,26.4544,0.3010,121,0,0,0.000296,-0.001442,-0.300927,0.006397,0.001491,0.000336,1.5085,-1.2017,-0.2637
11329,11.0,0.000749,-0.000262,-0.300999,0.002417,-0.002427,-0.001044,1.2081,-0.9407,-0.3263,-0.00006976,0.00001681,0.00571298,-0.00038521,-0.00039059,0.01788604,-0.2319,-0.3641,-9.8502,-0.004551,-0.018356,-0.000705,26.4544,0.3010,124,0,0,0.000344,-0.001529,-0.300784,0.006271,0.000296,0.001898,1.4895,-1.2312,-0.2493
11340,11.0,0.000554,-0.000255,-0.301018,-0.000876,-0.002726,-0.002463,1.2349,-0.9363,-0.3567,-0.00009771,0.00000133,0.00571453,0.00079606,-0.00010535,0.01786062,-0.2248,-0.3017,-9.9146,0.014875,-0.016985,-0.018784,26.4544,0.3020,126,-1,0,0.000348,-0.001567,-0.301403,0.005985,-0.000273,-0.005935,1.5111,-1.2512,-0.2541
11351,11.0,0.000542,-0.000243,-0.300948,-0.001553,-0.002756,-0.002760,1.2535,-0.9338,-0.3788,-0.00010425,0.00000148,0.00571472,0.00077704,-0.00030506,0.01695708,-0.2245,-0.2690,-9.9300,0.021419,0.003339,-0.026388,26.4544,0.3020,122,0,0,0.000344,-0.001367,-0.301469,0.005742,-0.000298,-0.007276,1.5314,-1.2697,-0.2686
11362,11.0,0.000459,-0.000232,-0.301483,-0.002427,-0.002455,-0.009927,1.2769,-0.9061,-0.4057,-0.00011801,-0.00000583,0.00571536,0.00115728,-0.00025141,0.02105881,-0.1666,-0.2447,-9.9069,0.023473,0.034578,-0.028943,26.4544,0.3020,129,0,0,0.000320,-0.001320,-0.301526,0.005541,-0.000307,-0.009159,1.5830,-1.2771,-0.3079
11373,11.0,0.000345,-0.000230,-0.301510,-0.003672,-0.001184,-0.008750,1.2887,-0.8658,-0.4294,-0.00012161,-0.00001940,0.00571601,0.00148187,-0.00035750,0.02037084,-0.1699,-0.1301,-9.7697,0.014605,0.049712,-0.024159,26.4544,0.3010,124,0,0,0.000305,-0.001234,-0.301067,0.005611,0.000176,-0.004158,1.6051,-1.2578,-0.3273
11384,11.0,0.000484,-0.000240,-0.301600,-0.001374,-0.000388,-0.007617,1.2702,-0.8557,-0.4333,-0.00009683,0.00000758,0.00571510,0.00075034,-0.00079892,0.02039235,-0.1375,-0.1262,-9.6853,-0.010700,0.041553,-0.009389,26.4544,0.3010,126,1,0,0.000294,-0.001132,-0.301109,0.005831,0.001815,-0.004219,1.6282,-1.2382,-0.3449
11395,11.0,0.000455,-0.000261,-0.301205,-0.001698,-0.000003,-0.000472,1.2497,-0.8439,-0.4337,-0.00009313,0.00000541,0.00571507,0.00073436,-0.00080844,0.01660469,-0.1596,-0.1573,-9.6422,-0.029437,0.016858,0.004239,26.5496,0.3010,122,0,0,0.000307,-0.001447,-0.301089,0.006236,0.002931,-0.001289,1.6159,-1.1985,-0.4741
11407,12.0,0.000456,-0.000279,-0.301204,-0.001304,0.000228,0.000627,1.2227,-0.8423,-0.4288,-0.00007674,0.00000410,0.00571491,0.00057661,-0.00095050,0.01661053,-0.1273,-0.1641,-9.6997,-0.028206,0.002002,0.011659,26.5496,0.3020,128,0,0,0.000325,-0.001419,-0.301095,0.006285,0.003484,0.000087,1.5972,-1.1910,-0.4762
11418,11.0,0.000679,-0.000295,-0.301124,0.001449,-0.000368,0.001852,1.2049,-0.8588,-0.4151,-0.00007414,0.00004639,0.00571343,-0.00033432,-0.00091119,0.01604448,-0.1588,-0.2457,-9.7562,-0.026119,0.007548,0.010782,26.5496,0.3020,131,1,0,0.000357,-0.001429,-0.301549,0.006794,0.004587,-0.003095,1.5802,-1.1970,-0.4700
11429,11.0,0.000623,-0.000304,-0.301545,0.000452,-0.001252,-0.002549,1.2063,-0.8359,-0.4188,-0.00010246,0.00003804,0.00571374,0.00007136,-0.00035583,0.01951301,-0.1593,-0.3034,-9.7126,-0.016335,0.029473,-0.000470,26.5496,0.3020,130,0,0,0.000370,-0.001650,-0.301579,0.007102,0.003915,-0.002891,1.5740,-1.1998,-0.4660
11440,11.0,0.000063,-0.000302,-0.301510,-0.005955,-0.001848,-0.000337,1.2037,-0.7593,-0.4578,-0.00010546,-0.00006768,0.00571780,0.00216480,-0.00041707,0.01905061,-0.0963,-0.2801,-9.6447,-0.006994,0.045506,-0.011900,26.5496,0.3000,123,-2,0,0.000393,-0.001051,-0.300480,0.007763,0.005392,0.010802,1.5898,-1.1761,-0.4772
11451,11.0,-0.000264,-0.000307,-0.301497,-0.008965,-0.001747,0.002687,1.1998,-0.7089,-0.4817,-0.00010927,-0.00012309,0.00571966,0.00304724,-0.00044469,0.01903834,-0.1058,-0.2092,-9.5132,-0.009155,0.042156,-0.014405,26.5496,0.3000,125,-1,0,0.000397,-0.000716,-0.300307,0.008025,0.006284,0.013234,1.6010,-1.1468,-0.4868
11462,11.0,-0.000308,-0.000310,-0.300560,-0.008306,-0.001360,0.016725,1.2016,-0.7037,-0.4918,-0.00011215,-0.00011261,0.00571935,0.00273607,-0.00065713,0.01224039,-0.1146,-0.1808,-9.4620,0.000720,0.014529,-0.013958,26.5496,0.3000,130,0,0,0.000403,-0.000395,-0.300161,0.008615,0.007676,0.015877,1.6110,-1.1304,-0.4996
11473,11.0,-0.000269,-0.000558,-0.300360,-0.006831,-0.003409,0.019662,1.1617,-0.7271,-0.4945,-0.00003791,-0.00008618,0.00571768,0.00225543,-0.00021970,0.01223925,-0.1237,-0.1139,-9.5296,-0.019262,-0.021215,-0.010171,26.4914,0.3020,126,0,-1,0.000646,-0.000358,-0.300949,0.010249,0.009124,0.009109,1.6233,-1.1348,-0.5227
11484,11.0,0.000263,-0.000569,-0.300042,0.000705,-0.002291,0.022776,1.1655,-0.7955,-0.4842,-0.00004325,0.00003760,0.00571415,0.00005010,-0.00033694,0.01156202,-0.0945,-0.1169,-9.6141,0.003032,-0.036269,-0.008254,26.4914,0.3020,124,2,0,0.000655,-0.000651,-0.300847,0.010412,0.008547,0.011436,1.6018,-1.1508,-0.3683
11495,11.0,0.000780,-0.000576,-0.300952,0.007019,-0.001687,0.010217,1.1641,-0.8440,-0.4785,-0.00003289,0.00013237,0.00571126,-0.00181891,-0.00045160,0.02036442,-0.1055,-0.1535,-9.6884,0.003055,-0.023717,-0.009147,26.4914,0.3020,124,2,0,0.000648,-0.001202,-0.300632,0.011062,0.008059,0.014168,1.6066,-1.1781,-0.3750
11506,11.0,0.000798,-0.000582,-0.300766,0.006670,-0.001412,0.011863,1.1619,-0.8420,-0.4895,-0.00003530,0.00011921,0.00571166,-0.00160840,-0.00050242,0.01982435,-0.1109,-0.1857,-9.7149,-0.005168,-0.003948,-0.008383,26.4914,0.3000,123,0,0,0.000641,-0.001766,-0.300022,0.011588,0.007246,0.019242,1.6108,-1.2058,-0.3892
11517,11.0,0.000790,-0.000577,-0.300628,0.006530,-0.000332,0.013150,1.1616,-0.8233,-0.4991,-0.00000602,0.00007058,0.00571212,-0.00174894,-0.00104232,0.01983935,-0.0520,-0.1008,-9.6733,0.013894,0.004943,-0.008302,26.4914,0.3000,124,0,0,0.000642,-0.001775,-0.299753,0.011769,0.007476,0.020779,1.6103,-1.2043,-0.3973
11529,12.0,0.000791,-0.000575,-0.300098,0.006332,0.000306,0.019563,1.1675,-0.8151,-0.5010,-0.00000658,0.00005229,0.00571256,-0.00149784,-0.00110157,0.01720426,-0.0766,-0.1451,-9.6058,0.008338,0.003690,0.005525,26.4914,0.3000,134,0,0,0.000618,-0.001755,-0.299200,0.013179,0.009643,0.024569,1.6286,-1.1981,-0.4111
11540,11.0,0.000357,-0.000576,-0.299872,0.000436,0.000055,0.021510,1.1638,-0.7873,-0.5092,-0.00001219,-0.00006482,0.00571539,0.00023918,-0.00097047,0.01717832,-0.1337,-0.2201,-9.6123,-0.008567,-0.010696,0.010163,26.4914,0.3010,129,-2,0,0.000612,-0.001753,-0.300065,0.013910,0.010434,0.013973,1.6417,-1.2036,-0.4112
11551,11.0,0.000216,-0.000584,-0.299530,-0.001592,-0.000597,0.023816,1.1508,-0.8023,-0.5121,-0.00001057,-0.00009845,0.00571627,0.00072605,-0.00095821,0.01643229,-0.1636,-0.2514,-9.6877,-0.020000,-0.039060,0.007950,26.4703,0.3010,121,-1,0,0.000620,-0.001306,-0.299917,0.013897,0.011805,0.015559,1.6460,-1.2086,-0.4104
11562,11.0,0.000300,-0.000603,-0.300171,-0.000275,-0.000684,0.013750,1.1325,-0.8289,-0.5093,-0.00000623,-0.00008251,0.00571551,0.00035580,-0.00081250,0.02295200,-0.1199,-0.1910,-9.7389,-0.027018,-0.035585,0.004293,26.4703,0.3010,129,0,0,0.000651,-0.001241,-0.299475,0.013956,0.011858,0.018414,1.6370,-1.2583,-0.4069
11572,10.0,0.000336,-0.000614,-0.299958,0.000627,-0.000152,0.015039,1.1245,-0.8402,-0.5082,-0.00000445,-0.00007367,0.00571526,0.00022687,-0.00079764,0.02240710,-0.0935,-0.1313,-9.7468,-0.013083,-0.015803,0.006275,26.4703,0.3000,125,0,0,0.000665,-0.001323,-0.299132,0.014600,0.012117,0.020449,1.6315,-1.2848,-0.4083
11583,11.0,0.000356,-0.000610,-0.299787,0.000989,0.000113,0.016180,1.1274,-0.8451,-0.5078,0.00000321,-0.00007985,0.00571517,0.00005846,-0.00093513,0.02241261,-0.1191,-0.1686,-9.6817,0.007927,-0.010430,0.005294,26.4703,0.3000,127,0,0,0.000673,-0.001368,-0.299498,0.014818,0.012362,0.014674,1.6189,-1.2901,-0.4080
11594,11.0,0.000624,-0.000605,-0.299711,0.003694,0.000398,0.016221,1.1361,-0.8725,-0.5076,0.00000218,-0.00001390,0.00571356,-0.00080422,-0.00093766,0.02320070,-0.1723,-0.1681,-9.6636,0.013275,-0.018128,-0.002654,26.4703,0.3000,128,1,0,0.000663,-0.001403,-0.299082,0.015235,0.013229,0.017612,1.6397,-1.3048,-0.5223
11605,11.0,0.000710,-0.000609,-0.299530,0.004189,0.000955,0.016696,1.1275,-0.8984,-0.5174,0.00003096,-0.00000234,0.00571341,-0.00096044,-0.00124809,0.02320975,-0.1530,-0.1232,-9.7419,-0.002178,-0.037039,-0.006140,26.5258,0.3010,125,0,0,0.000654,-0.001672,-0.298901,0.015275,0.013054,0.018695,1.6540,-1.3216,-0.5267
11616,11.0,0.001030,-0.000614,-0.299269,0.007737,0.001288,0.017614,1.1253,-0.9390,-0.5190,0.00003524,0.00006971,0.00571173,-0.00186662,-0.00120558,0.02266790,-0.1198,-0.1441,-9.7867,-0.002028,-0.038452,-0.003768,26.5258,0.3010,123,1,0,0.000655,-0.001834,-0.299873,0.015538,0.013746,0.006036,1.6574,-1.3691,-0.5400
11627,11.0,0.001078,-0.000614,-0.300075,0.007421,0.000805,0.005355,1.1246,-0.9463,-0.5207,0.00002579,0.00005478,0.00571177,-0.00171564,-0.00086030,0.02959376,-0.1508,-0.2288,-9.8287,-0.004664,-0.017039,0.000513,26.5258,0.3010,119,0,0,0.000652,-0.002142,-0.299815,0.015735,0.013144,0.005580,1.6518,-1.3836,-0.5425
11638,11.0,0.001088,-0.000616,-0.299960,0.006787,0.000365,0.005562,1.1194,-0.9415,-0.5236,0.00002843,0.00003470,0.00571223,-0.00148346,-0.00083527,0.02916615,-0.1449,-0.2245,-9.8238,-0.007423,0.000776,0.003529,26.5258,0.3000,124,0,0,0.000653,-0.002184,-0.299663,0.016227,0.013252,0.006037,1.6588,-1.4015,-0.5458
11649,11.0,0.001075,-0.000619,-0.299896,0.005741,-0.000096,0.005991,1.1180,-0.9296,-0.5259,0.00001361,0.00001225,0.00571276,-0.00117212,-0.00060749,0.02915657,-0.1651,-0.2335,-9.7378,-0.007842,0.011511,0.002922,26.5258,0.3000,126,0,0,0.000662,-0.002177,-0.299609,0.016724,0.013437,0.004807,1.6651,-1.4041,-0.5477
11660,11.0,0.001085,-0.000626,-0.299824,0.004847,-0.000735,0.006579,1.1086,-0.9254,-0.5332,0.00001439,-0.00000252,0.00571316,-0.00100632,-0.00059835,0.02913261,-0.1858,-0.2469,-9.7260,-0.014874,0.001756,-0.003584,26.5258,0.3000,126,0,0,0.000670,-0.002153,-0.299560,0.016642,0.013399,0.005052,1.6649,-1.3982,-0.5491
11671,11.0,0.001122,-0.000389,-0.299750,0.004963,0.002254,0.006893,1.1269,-0.9304,-0.5469,-0.00004835,-0.00002186,0.00571468,-0.00111221,-0.00147724,0.02915091,-0.1257,-0.1716,-9.7501,0.009644,-0.014832,-0.008195,26.5258,0.3010,125,0,1,0.000680,-0.002150,-0.299507,0.016723,0.013387,0.005439,1.6668,-1.4036,-0.5545
11682,11.0,0.001168,-0.000377,-0.299597,0.005599,0.002582,0.007708,1.1378,-0.9436,-0.5522,-0.00004370,-0.00002566,0.00571470,-0.00107839,-0.00143664,0.02861425,-0.0896,-0.1476,-9.7908,0.018515,-0.022264,-0.002149,26.5258,0.3010,121,0,0,0.000428,-0.002216,-0.300225,0.016741,0.014169,-0.002691,1.6920,-1.4227,-0.6639
11693,11.0,0.001177,-0.000371,-0.300273,0.005297,0.002074,-0.001237,1.1410,-0.9387,-0.5510,-0.00004861,-0.00005497,0.00571481,-0.00099194,-0.00113944,0.03368023,-0.1295,-0.2234,-9.7787,0.003245,-0.001667,0.004354,26.4914,0.3010,127,0,0,0.000416,-0.002255,-0.300162,0.017079,0.014391,-0.001883,1.7001,-1.4277,-0.6668
11704,11.0,0.001174,-0.000368,-0.300216,0.005078,0.001688,-0.000115,1.1391,-0.9329,-0.5488,-0.00004261,-0.00007440,0.00571524,-0.00079894,-0.00108556,0.03320099,-0.1141,-0.2106,-9.7481,-0.001265,0.003822,0.011398,26.4914,0.2990,123,0,0,0.000410,-0.002268,-0.300182,0.017829,0.014751,-0.002202,1.7132,-1.4382,-0.6682
11715,11.0,0.001178,-0.000369,-0.300214,0.004602,0.001133,0.000436,1.1372,-0.9277,-0.5434,-0.00005235,-0.00009588,0.00571544,-0.00069711,-0.00084930,0.03319435,-0.1464,-0.2313,-9.7229,-0.006456,0.002046,0.012631,26.4914,0.2990,124,0,0,0.000412,-0.002019,-0.299198,0.018817,0.016123,0.008585,1.7265,-1.4370,-0.6634
11726,11.0,0.001225,-0.000371,-0.299440,0.004369,-0.000006,0.009349,1.1295,-0.9385,-0.5360,-0.00004964,-0.00009610,0.00571540,-0.00076200,-0.00091826,0.02815754,-0.1778,-0.2909,-9.7833,-0.011459,-0.017073,0.017673,26.4914,0.2990,123,0,0,0.000417,-0.002015,-0.299110,0.018849,0.016038,0.009024,1.7268,-1.4344,-0.6589
11737,11.0,0.001268,-0.000378,-0.299340,0.004300,-0.001226,0.008881,1.1289,-0.9475,-0.5306,-0.00010224,-0.00009761,0.00571506,-0.00074304,-0.00030072,0.02814421,-0.1623,-0.3179,-9.8187,-0.017697,-0.014610,0.006729,26.4914,0.3020,123,0,0,0.000423,-0.002041,-0.299021,0.018972,0.015588,0.008954,1.7311,-1.4483,-0.6532
11749,12.0,0.001267,-0.000382,-0.299145,0.003601,-0.002753,0.009345,1.1217,-0.9399,-0.5454,-0.00010899,-0.00011431,0.00571583,-0.00059616,-0.00037584,0.02753222,-0.1716,-0.3424,-9.8295,-0.012585,0.006611,-0.011508,26.4914,0.3020,123,0,0,0.000441,-0.002091,-0.300672,0.019028,0.013833,-0.010403,1.7355,-1.4671,-0.6544
11760,11.0,0.001237,-0.000389,-0.298966,0.003192,-0.003288,0.010217,1.1245,-0.9219,-0.5571,-0.00015572,-0.00015508,0.00571649,-0.00057536,-0.00004274,0.02703345,-0.1190,-0.2792,-9.7805,-0.009847,0.016867,-0.015569,26.4914,0.2990,120,0,0,0.000455,-0.002051,-0.300792,0.019465,0.012750,-0.010627,1.7499,-1.4638,-0.6742
11771,11.0,0.001221,-0.000399,-0.298779,0.003294,-0.003566,0.011845,1.1171,-0.9124,-0.5740,-0.00016515,-0.00017351,0.00571739,-0.00041657,-0.00013779,0.02657609,-0.0899,-0.2461,-9.7082,-0.014513,0.009945,-0.015773,26.4914,0.2990,124,0,0,0.000461,-0.002015,-0.299563,0.019842,0.012718,0.004007,1.7526,-1.4492,-0.6836
11782,11.0,0.001207,-0.000416,-0.298641,0.003010,-0.003503,0.013326,1.1066,-0.9000,-0.5881,-0.00018148,-0.00020446,0.00571799,-0.00041189,-0.00011014,0.02657491,-0.1237,-0.2089,-9.6457,-0.021561,0.010849,-0.016344,26.4914,0.2990,124,0,0,0.000468,-0.001995,-0.299520,0.020764,0.012923,0.004538,1.7543,-1.4491,-0.6967
11793,11.0,0.001218,-0.000427,-0.298665,0.003182,-0.002565,0.012537,1.1040,-0.9006,-0.6011,-0.00018973,-0.00021287,0.00571843,-0.00032285,-0.00015341,0.02769312,-0.1126,-0.1259,-9.6646,-0.006558,-0.003437,-0.012312,26.4914,0.2990,122,0,0,0.000491,-0.001975,-0.299295,0.021523,0.013655,0.007885,1.7467,-1.4422,-0.7146
11804,11.0,0.001257,-0.000446,-0.298524,0.003622,-0.001615,0.013175,1.0848,-0.9053,-0.6092,-0.00015149,-0.00023232,0.00571853,-0.00054157,-0.00060065,0.02770582,-0.1112,-0.0973,-9.7237,-0.019782,-0.013509,-0.005379,26.4914,0.3010,122,0,0,0.000498,-0.001991,-0.300143,0.021670,0.014243,-0.001381,1.7366,-1.4395,-0.7253
11815,11.0,0.001296,-0.000461,-0.298289,0.003206,-0.000866,0.014345,1.0757,-0.9133,-0.6152,-0.00015096,-0.00023159,0.00571850,-0.00055548,-0.00061072,0.02713187,-0.1958,-0.1174,-9.7720,-0.014501,-0.013008,-0.003676,26.4914,0.3010,122,0,0,0.000508,-0.002032,-0.300081,0.022391,0.015675,-0.000081,1.7349,-1.4531,-0.7332
11826,11.0,0.001288,-0.000464,-0.299654,0.002807,0.000165,-0.003686,1.0691,-0.9068,-0.6311,-0.00010740,-0.00025121,0.00571929,-0.00032455,-0.00089037,0.03654345,-0.1489,-0.0825,-9.8003,0.001198,0.005047,-0.011786,26.5496,0.3010,126,0,0,0.000532,-0.001860,-0.300083,0.022174,0.018218,-0.000343,1.7248,-1.4713,-0.7480
11837,11.0,0.001225,-0.000460,-0.299639,0.002184,0.001633,-0.002424,1.0787,-0.8843,-0.6398,-0.00010477,-0.00028580,0.00571999,-0.00004522,-0.00087558,0.03620500,-0.1129,-0.0425,-9.7169,0.015488,0.027847,-0.006519,26.5496,0.3000,120,0,0,0.000532,-0.001845,-0.299852,0.022229,0.019131,0.001981,1.7187,-1.4641,-0.7590
11848,11.0,0.001160,-0.000452,-0.299659,0.001453,0.002611,-0.001155,1.0781,-0.8598,-0.6510,-0.00004382,-0.00032974,0.00572075,0.00009190,-0.00140057,0.03621379,-0.1226,-0.0668,-9.6580,0.015029,0.028278,-0.006765,26.5496,0.3000,126,0,0,0.000522,-0.001795,-0.299830,0.022923,0.021230,0.002348,1.7365,-1.4560,-0.7667
11859,11.0,0.001141,-0.000445,-0.299758,0.001460,0.002872,0.000045,1.0821,-0.8537,-0.5785,-0.00003450,-0.00034305,0.00570776,0.00026967,-0.00135764,0.03681324,-0.1059,-0.1320,-9.5578,0.009148,0.007395,0.001680,26.5496,0.3000,127,0,0,0.000506,-0.001681,-0.299685,0.023569,0.023743,0.005682,1.7523,-1.4284,-0.7782
11870,11.0,0.001169,-0.000444,-0.299744,0.002306,0.003400,0.002494,1.0731,-0.8557,-0.5771,0.00002411,-0.00037818,0.00570745,-0.00014123,-0.00172123,0.03682743,-0.0665,-0.0879,-9.5505,0.000583,-0.012929,0.006201,26.5496,0.3010,124,0,0,0.000502,-0.001655,-0.300306,0.023674,0.024142,0.000144,1.7519,-1.4170,-0.7803
11881,11.0,0.001259,-0.000442,-0.299641,0.003437,0.003366,0.004622,1.0720,-0.8843,-0.5704,0.00003754,-0.00035485,0.00570686,-0.00032907,-0.00162268,0.03640584,-0.1064,-0.1480,-9.6532,0.000980,-0.040987,0.016244,26.5496,0.3010,126,0,0,0.000500,-0.001730,-0.300201,0.024886,0.025619,0.004625,1.7492,-1.4358,-0.6791
11892,11.0,0.001353,-0.000438,-0.300312,0.004236,0.002614,-0.003595,1.0722,-0.9111,-0.5593,0.00003053,-0.00034528,0.00570607,-0.00053664,-0.00126995,0.04072330,-0.1334,-0.2243,-9.7470,-0.001826,-0.041399,0.018658,26.6077,0.3010,119,0,0,0.000499,-0.001823,-0.300090,0.025481,0.026014,0.006313,1.7561,-1.4657,-0.6741
11903,11.0,0.001413,-0.000434,-0.300318,0.004465,0.002054,-0.003638,1.0716,-0.9275,-0.5533,0.00003894,-0.00034049,0.00570584,-0.00057520,-0.00120950,0.04050183,-0.1487,-0.2136,-9.8095,0.000844,-0.025246,0.015149,26.6077,0.2990,127,0,0,0.000502,-0.001911,-0.300026,0.025486,0.025513,0.006569,1.7557,-1.4857,-0.6663
11914,11.0,0.001406,-0.000443,-0.300359,0.003583,0.000751,-0.003909,1.0625,-0.9208,-0.5487,-0.00000123,-0.00034767,0.00570594,-0.00028359,-0.00063044,0.04048532,-0.1858,-0.2857,-9.7888,-0.025278,0.009818,0.009935,26.6077,0.2990,125,0,0,0.000510,-0.002001,-0.298997,0.025725,0.024959,0.014223,1.7637,-1.5165,-0.6544
11925,11.0,0.001354,-0.000444,-0.301199,0.002349,0.000081,-0.012628,1.0568,-0.8989,-0.5527,0.00000260,-0.00038353,0.00570673,0.00003548,-0.00053967,0.04517834,-0.1760,-0.2361,-9.7060,-0.008194,0.027516,0.001241,26.6077,0.3020,122,0,0,0.000526,-0.001985,-0.298856,0.025757,0.024497,0.013897,1.7586,-1.5172,-0.6523
11936,11.0,0.001308,-0.000441,-0.301331,0.001848,0.000412,-0.011368,1.0578,-0.8798,-0.5611,0.00001992,-0.00042689,0.00570736,0.00009548,-0.00070629,0.04518043,-0.1208,-0.1463,-9.6486,0.005798,0.020760,-0.006611,26.6077,0.3020,126,0,0,0.000539,-0.001863,-0.300416,0.025869,0.024692,-0.003117,1.7650,-1.4893,-0.6581
11947,11.0,0.001318,-0.000436,-0.301390,0.001980,0.001405,-0.009014,1.0673,-0.8828,-0.5634,0.00002178,-0.00043150,0.00570743,0.00012413,-0.00069777,0.04484401,-0.1250,-0.0837,-9.6117,0.015294,-0.006145,0.002149,26.5839,0.3020,127,0,0,0.000537,-0.001828,-0.300441,0.025937,0.025193,-0.001845,1.7639,-1.4761,-0.6646
11958,11.0,0.001369,-0.000429,-0.301716,0.002493,0.002156,-0.010321,1.0685,-0.8972,-0.5706,0.00007339,-0.00043257,0.00570730,-0.00005246,-0.00108271,0.04621059,-0.1295,-0.0908,-9.6332,0.014079,-0.024385,-0.002914,26.5839,0.3020,128,0,0,0.000528,-0.001837,-0.300385,0.026405,0.026539,0.000449,1.7798,-1.4835,-0.6690
11969,11.0,0.001444,-0.000418,-0.301784,0.003547,0.002935,-0.009247,1.0785,-0.9249,-0.3356,0.00008119,-0.00041319,0.00566213,0.00001507,-0.00117573,0.04595575,-0.1045,-0.0921,-9.7132,0.020769,-0.037630,0.016345,26.5839,0.2980,127,0,0,0.000509,-0.001936,-0.298657,0.027150,0.028441,0.021166,1.7972,-1.5124,-0.6753
11980,11.0,0.001759,-0.000413,-0.301887,0.006846,0.002318,-0.009531,1.0812,-0.9584,-0.3174,0.00007365,-0.00031539,0.00565966,-0.00087356,-0.00095250,0.04596609,-0.1363,-0.2187,-9.7867,0.002394,-0.036944,0.028026,26.5839,0.2980,123,1,0,0.000499,-0.002009,-0.298443,0.027334,0.028720,0.021631,1.7988,-1.5265,-0.6693
11991,11.0,0.001823,-0.000413,-0.299726,0.006398,0.000071,0.016243,1.0694,-0.9721,-0.3083,0.00007678,-0.00031765,0.00565968,-0.00102813,-0.00110512,0.03307143,-0.1958,-0.3783,-9.8293,-0.018518,-0.022013,0.020885,26.5839,0.2980,123,0,0,0.000493,-0.002318,-0.298228,0.027889,0.027994,0.021462,1.8046,-1.5542,-0.6109
12003,12.0,0.001828,-0.000402,-0.299534,0.005755,-0.001536,0.015801,1.0882,-0.9658,-0.3040,-0.00001660,-0.00035487,0.00566018,-0.00089086,-0.00037374,0.03305376,-0.1518,-0.3513,-9.8078,0.007773,0.002670,0.006749,26.5839,0.3010,127,0,0,0.000517,-0.002384,-0.299559,0.027756,0.025523,0.001248,1.8023,-1.5755,-0.5929
12014,11.0,0.001822,-0.000393,-0.299303,0.005072,-0.002445,0.016458,1.0953,-0.9597,-0.3123,-0.00003020,-0.00038393,0.00566132,-0.00070748,-0.00046642,0.03272554,-0.1570,-0.3030,-9.7738,0.008733,0.004265,-0.003312,26.5839,0.3010,127,0,0,0.000517,-0.002371,-0.299504,0.027677,0.024617,0.001249,1.8166,-1.5710,-0.5906
12025,11.0,0.001843,-0.000388,-0.300106,0.004698,-0.003151,0.004643,1.1088,-0.9623,-0.3188,-0.00010364,-0.00040024,0.00566181,-0.00053772,0.00005356,0.03817515,-0.1632,-0.3002,-9.8061,0.005380,-0.007554,-0.006978,26.5839,0.3010,122,0,0,0.000507,-0.002585,-0.299485,0.027758,0.022701,0.000598,1.8405,-1.5728,-0.6027
12036,11.0,0.001851,-0.000401,-0.300030,0.004509,-0.003399,0.004785,1.0985,-0.9592,-0.3294,-0.00011386,-0.00041959,0.00566264,-0.00041836,-0.00001333,0.03802376,-0.1361,-0.2374,-9.7841,-0.018400,0.000977,-0.008025,26.6420,0.2990,123,0,0,0.000507,-0.002597,-0.299010,0.028084,0.022179,0.005276,1.8501,-1.5822,-0.6112
12047,11.0,0.001816,-0.000419,-0.299974,0.003994,-0.002089,0.005363,1.0809,-0.9395,-0.3438,-0.00005972,-0.00047781,0.00566398,-0.00038439,-0.00058250,0.03803391,-0.1204,-0.0718,-9.7192,-0.015638,0.019634,-0.010793,26.6420,0.2990,125,0,0,0.000521,-0.002597,-0.298958,0.028198,0.022007,0.004992,1.8431,-1.5760,-0.6187
12058,11.0,0.001792,-0.000446,-0.299341,0.004108,-0.000629,0.013107,1.0623,-0.9262,-0.3479,-0.00005300,-0.00050886,0.00566463,-0.00023712,-0.00060931,0.03491822,-0.0757,-0.0374,-9.6711,-0.028546,0.015595,0.000784,26.6420,0.2990,117,0,0,0.000547,-0.002532,-0.298813,0.029217,0.024461,0.006307,1.8187,-1.5505,-0.6354
12069,11.0,0.001804,-0.000453,-0.299190,0.003946,0.001064,0.014247,1.0487,-0.9250,-0.3521,0.00004609,-0.00053523,0.00566532,-0.00025481,-0.00142170,0.03493476,-0.1365,-0.0015,-9.6720,0.000212,-0.003754,0.006549,26.6420,0.3000,126,0,0,0.000563,-0.002513,-0.299341,0.030235,0.026466,0.000753,1.8104,-1.5458,-0.6387
12080,11.0,0.001857,-0.000444,-0.298999,0.003996,0.002180,0.014856,1.0583,-0.9441,-0.0083,0.00005113,-0.00052900,0.00559128,0.00002865,-0.00162130,0.03474707,-0.1654,-0.0679,-9.7555,0.021326,-0.025052,0.015775,26.6420,0.3000,129,0,0,0.000562,-0.002553,-0.299277,0.030932,0.029529,0.002636,1.8011,-1.5563,-0.4737
12091,11.0,0.001910,-0.000444,-0.299422,0.003771,0.001684,0.007657,1.0557,-0.9597,0.0007,0.00004604,-0.00050781,0.00559107,0.00019733,-0.00137436,0.03790285,-0.1960,-0.2079,-9.8047,-0.005512,-0.020567,0.020449,26.6420,0.3000,121,0,0,0.000557,-0.002599,-0.299208,0.030740,0.029962,0.003178,1.8000,-1.5664,-0.4686
12102,11.0,0.001694,-0.000438,-0.299318,0.000457,0.000374,0.007014,1.0529,-0.9517,0.0059,0.00004958,-0.00061986,0.00559349,0.00086036,-0.00135340,0.03774671,-0.2096,-0.2960,-9.8530,-0.003680,-0.005014,0.019075,26.6420,0.2990,126,-1,0,0.000562,-0.002645,-0.299178,0.030662,0.030059,0.002749,1.8045,-1.5834,-0.4609
12113,11.0,0.001666,-0.000443,-0.299244,0.000066,-0.000939,0.006284,1.0526,-0.9403,0.0071,-0.00002051,-0.00063222,0.00559350,0.00097056,-0.00073451,0.03773224,-0.1655,-0.3112,-9.8332,-0.015789,0.015583,0.002590,26.6420,0.2990,125,0,0,0.000582,-0.002175,-0.298813,0.030344,0.029906,0.003909,1.8109,-1.5897,-0.4504
12124,11.0,0.001608,-0.000446,-0.299010,-0.000476,-0.001674,0.008686,1.0475,-0.9196,-0.0003,-0.00002576,-0.00065895,0.00559433,0.00111181,-0.00077960,0.03686453,-0.1479,-0.2591,-9.7223,-0.009119,0.028023,-0.004221,26.6420,0.2990,129,0,0,0.000597,-0.002135,-0.298777,0.030265,0.029241,0.003299,1.8095,-1.5753,-0.4504
12135,11.0,0.001565,-0.000454,-0.298908,-0.001061,-0.001810,0.009833,1.0433,-0.9054,-0.0096,-0.00004559,-0.00066598,0.00559488,0.00128628,-0.00068643,0.03685970,-0.1723,-0.2050,-9.6652,-0.010750,0.021148,-0.007837,26.6420,0.3000,129,0,0,0.000605,-0.002075,-0.298698,0.030620,0.029062,0.004105,1.8114,-1.5643,-0.4553
12146,11.0,0.001573,-0.000447,-0.298762,-0.000610,-0.001415,0.011163,1.0544,-0.9099,-0.0226,-0.00005747,-0.00065781,0.00559491,0.00123627,-0.00075814,0.03668020,-0.1298,-0.1684,-9.6865,0.015440,-0.006920,-0.014758,26.6420,0.3000,127,0,0,0.000619,-0.001998,-0.299334,0.030842,0.029547,-0.001295,1.8117,-1.5441,-0.4688
12157,11.0,0.001607,-0.000428,-0.299332,-0.000092,-0.000257,0.003436,1.0736,-0.9237,-0.0362,-0.00002486,-0.00064589,0.00559498,0.00113863,-0.00116273,0.04033871,-0.1468,-0.0987,-9.7362,0.037872,-0.021537,-0.012572,26.6420,0.3000,124,0,0,0.000613,-0.002008,-0.299309,0.030799,0.029641,-0.000184,1.8172,-1.5427,-0.4801
12167,10.0,0.001630,-0.000414,-0.299278,0.000430,0.000448,0.003715,1.0898,-0.9331,-0.0415,-0.00003120,-0.00063529,0.00559486,0.00107714,-0.00120055,0.04024010,-0.1307,-0.1297,-9.7627,0.027128,-0.015453,-0.003489,26.6658,0.3000,128,0,0,0.000591,-0.002047,-0.299309,0.031091,0.030749,0.000148,1.8444,-1.5590,-0.4913
12178,11.0,0.001859,-0.000423,-0.299239,0.003136,-0.000313,0.003477,1.0828,-0.9379,-0.0287,-0.00006422,-0.00054573,0.00559193,0.00040301,-0.00086855,0.04024514,-0.1365,-0.2527,-9.7875,-0.018164,0.004355,0.014994,26.6658,0.3000,120,1,0,0.000574,-0.002086,-0.299571,0.031427,0.031464,-0.002786,1.8615,-1.5713,-0.4985
12189,11.0,0.001804,-0.000216,-0.299568,0.002944,0.001382,-0.000002,1.0633,-0.9123,-0.0940,-0.00016346,-0.00059035,0.00561182,0.00060732,-0.00132984,0.04218183,-0.0796,-0.2477,-9.6864,-0.046341,0.032784,0.019606,26.6658,0.3000,131,0,1,0.000590,-0.002305,-0.299600,0.031476,0.030464,-0.003107,1.8498,-1.5596,-0.5383
12200,11.0,0.001952,-0.000235,-0.299557,0.005067,0.000405,0.002030,1.0427,-0.8825,-0.0764,-0.00018442,-0.00058602,0.00560972,-0.00006547,-0.00096160,0.04218527,-0.0656,-0.2420,-9.5804,-0.037833,0.044685,0.021092,26.6658,0.3000,127,1,0,0.000383,-0.002257,-0.299598,0.031688,0.030385,-0.002323,1.8311,-1.5473,-0.5306
12211,11.0,0.001910,-0.000224,-0.299492,0.004178,-0.000561,0.005615,1.0499,-0.8650,-0.0771,-0.00019051,-0.00063203,0.00561112,0.00018423,-0.00099601,0.04205098,-0.1271,-0.2753,-9.4647,0.010322,0.020479,0.008001,26.6658,0.3000,126,0,0,0.000427,-0.002319,-0.299680,0.032970,0.029686,0.000770,1.7989,-1.4927,-0.5136
12222,11.0,0.002212,-0.000205,-0.299140,0.006812,-0.001664,0.012078,1.0649,-0.8958,-0.0747,-0.00020566,-0.00051153,0.00560773,-0.00048703,-0.00111161,0.04067563,-0.1638,-0.3083,-9.4642,0.021510,-0.032186,-0.000476,26.6658,0.2990,122,1,0,0.000425,-0.002263,-0.299658,0.033276,0.029298,0.003633,1.8096,-1.4838,-0.5115
12233,11.0,0.002359,-0.000196,-0.298995,0.007191,-0.001997,0.013985,1.0755,-0.9397,-0.0805,-0.00022056,-0.00047617,0.00560692,-0.00067521,-0.00119300,0.04066788,-0.1925,-0.2423,-9.5939,0.014279,-0.065286,-0.005094,26.7240,0.2990,132,0,0,0.000409,-0.002631,-0.299009,0.032666,0.026898,0.013965,1.8380,-1.5275,-0.5204
12244,11.0,0.002518,-0.000186,-0.298848,0.007669,-0.001792,0.012754,1.0906,-0.9905,-0.0859,-0.00024557,-0.00041586,0.00560615,-0.00070954,-0.00119902,0.04066892,-0.2062,-0.2031,-9.8771,0.019393,-0.071360,-0.002697,26.7240,0.2990,124,0,0,0.000401,-0.002554,-0.298866,0.032530,0.027382,0.014552,1.8575,-1.5743,-0.5294
12255,11.0,0.002579,-0.000189,-0.298817,0.006926,-0.002148,0.009167,1.0893,-1.0029,-0.0926,-0.00025567,-0.00042622,0.00560668,-0.00064965,-0.00123950,0.04115170,-0.2199,-0.2454,-9.9883,-0.003908,-0.021744,-0.002983,26.7240,0.2990,124,0,0,0.000396,-0.002796,-0.298596,0.031866,0.026837,0.011566,1.8727,-1.6430,-0.5400
12267,12.0,0.002519,-0.000195,-0.298717,0.005000,-0.003295,0.007551,1.0934,-0.9743,-0.1053,-0.00034667,-0.00047115,0.00560897,-0.00011938,-0.00068089,0.04113133,-0.2073,-0.3218,-9.8970,-0.010880,0.036382,-0.008945,26.7240,0.2990,128,0,0,0.000410,-0.002343,-0.298634,0.031388,0.027825,0.007769,1.8751,-1.6470,-0.5471
12278,11.0,0.002411,-0.000195,-0.298631,0.002857,-0.004329,0.007529,1.0928,-0.9331,-0.1268,-0.00036814,-0.00054902,0.00561220,0.00026903,-0.00078544,0.04111063,-0.1989,-0.3272,-9.7677,-0.004780,0.053428,-0.018666,26.7240,0.2990,128,0,0,0.000421,-0.002269,-0.298562,0.031294,0.027336,0.006298,1.8769,-1.6316,-0.5550
12289,11.0,0.002330,-0.000198,-0.298742,0.001936,-0.003258,0.006988,1.0949,-0.9016,-0.1506,-0.00035222,-0.00062327,0.00561453,0.00041243,-0.00115177,0.04212129,-0.1224,-0.1241,-9.6010,0.006996,0.037086,-0.025188,26.7240,0.2990,118,0,0,0.000436,-0.002052,-0.298436,0.031197,0.027120,0.006671,1.8880,-1.5783,-0.5215
12300,11.0,0.002324,-0.000199,-0.298648,0.002409,-0.001649,0.009800,1.1033,-0.9009,-0.0383,-0.00036512,-0.00063793,0.00558055,0.00062100,-0.00131183,0.04210950,-0.0773,-0.0636,-9.5153,0.012610,0.000057,-0.017724,26.7240,0.3000,130,0,0,0.000437,-0.001971,-0.299192,0.031256,0.027874,-0.000513,1.8837,-1.5495,-0.5381
12311,11.0,0.002637,-0.000206,-0.298529,0.006452,-0.000087,0.011748,1.0942,-0.9280,-0.0358,-0.00027941,-0.00055814,0.00557728,-0.00051740,-0.00201926,0.04214264,-0.0597,-0.0363,-9.5922,0.002689,-0.036220,0.003457,26.7002,0.3000,130,1,0,0.000428,-0.001969,-0.299185,0.032152,0.029565,0.001871,1.8977,-1.5515,-0.5518
12322,11.0,0.003010,-0.000221,-0.298668,0.009969,0.000748,0.009227,1.0832,-0.9771,-0.0226,-0.00027069,-0.00041164,0.00557384,-0.00122581,-0.00194525,0.04347235,-0.1419,-0.0923,-9.7095,-0.016393,-0.057788,0.021443,26.7002,0.2990,126,1,0,0.000426,-0.002609,-0.299097,0.033131,0.030680,0.005316,1.8845,-1.5866,-0.5521
12333,11.0,0.003384,-0.000239,-0.298575,0.012913,0.000313,0.007531,1.0640,-1.0221,-0.0053,-0.00027228,-0.00028487,0.00557054,-0.00188279,-0.00177861,0.04348081,-0.1694,-0.2061,-9.9173,-0.031290,-0.053953,0.026957,26.7002,0.2990,131,1,0,0.000442,-0.002970,-0.298852,0.032993,0.030287,0.007665,1.8578,-1.6138,-0.5434
12344,11.0,0.003451,-0.000243,-0.298497,0.011843,-0.000391,0.004774,1.0561,-1.0322,0.0015,-0.00027012,-0.00032138,0.00557138,-0.00170703,-0.00176858,0.04341909,-0.2041,-0.2485,-10.0251,-0.012269,-0.021181,0.018448,26.7002,0.2990,120,0,0,0.000481,-0.003426,-0.298716,0.033089,0.029497,0.004486,1.8268,-1.6686,-0.5205
12354,10.0,0.003415,-0.000240,-0.298699,0.009848,-0.000726,-0.000544,1.0618,-1.0180,-0.0013,-0.00030606,-0.00037243,0.00557339,-0.00113497,-0.00151992,0.04454987,-0.2171,-0.2354,-10.0160,0.002033,0.018309,0.005187,26.7002,0.2990,133,0,0,0.000492,-0.003214,-0.298670,0.032944,0.029928,0.001868,1.8294,-1.6782,-0.5159
12365,11.0,0.003058,-0.000221,-0.298697,0.004765,-0.000682,-0.001783,1.0825,-0.9610,-0.0184,-0.00031998,-0.00060455,0.00557958,-0.00003953,-0.00158154,0.04445258,-0.1698,-0.2104,-9.8918,0.030123,0.057816,-0.009462,26.6764,0.3010,130,-1,0,0.000496,-0.003161,-0.298664,0.032553,0.029782,-0.000614,1.8330,-1.6638,-0.5163
12377,12.0,0.002676,-0.000208,-0.298709,0.000309,-0.000776,-0.000229,1.1012,-0.8926,-0.0355,-0.00034842,-0.00084421,0.00558530,0.00085635,-0.00150423,0.04443356,-0.1222,-0.2167,-9.6330,0.022123,0.067368,-0.011346,26.6764,0.3010,128,-1,0,0.000476,-0.002416,-0.300148,0.032629,0.031957,-0.016572,1.8739,-1.5923,-0.5322
12388,11.0,0.002586,-0.000199,-0.299900,-0.000631,-0.001110,-0.011571,1.1099,-0.8632,-0.0435,-0.00035943,-0.00089154,0.00558680,0.00117431,-0.00144333,0.05013045,-0.1388,-0.2365,-9.5192,0.011814,0.039230,-0.004418,26.6764,0.3010,132,0,0,0.000468,-0.002029,-0.300307,0.033222,0.033075,-0.015250,1.8936,-1.5578,-0.5305
12400,12.0,0.002641,-0.000200,-0.300027,0.000026,-0.001108,-0.009630,1.1115,-0.8825,-0.0469,-0.00037141,-0.00086218,0.00558603,0.00101053,-0.00142841,0.05013297,-0.1474,-0.2002,-9.5949,0.000025,-0.025506,-0.000892,26.6764,0.3000,131,0,0,0.000469,-0.001914,-0.300044,0.033218,0.033194,-0.005179,1.9087,-1.5277,-0.5404
12411,11.0,0.002754,-0.000210,-0.300113,0.001272,-0.001676,-0.009651,1.1010,-0.9178,-0.0145,-0.00037474,-0.00080581,0.00557605,0.00077645,-0.00146993,0.05003323,-0.1508,-0.2503,-9.7813,-0.016958,-0.048691,0.009569,26.6764,0.3000,127,0,0,0.000478,-0.001985,-0.300072,0.033023,0.032801,-0.003769,1.9017,-1.5412,-0.5432
12422,11.0,0.002811,-0.000218,-0.300049,0.001836,-0.002961,-0.008736,1.1004,-0.9325,-0.0086,-0.00047222,-0.00079098,0.00557503,0.00061849,-0.00085289,0.04919945,-0.1485,-0.3387,-9.8574,-0.019933,-0.022420,0.008530,26.6764,0.3000,124,0,0,0.000490,-0.002089,-0.300110,0.033245,0.032364,-0.003833,1.8968,-1.5714,-0.5421
12433,11.0,0.003000,-0.000220,-0.300135,0.003619,-0.003798,-0.009790,1.0980,-0.9242,-0.0120,-0.00049092,-0.00070586,0.00557272,0.00022682,-0.00094415,0.04912946,-0.1690,-0.3047,-9.8690,-0.006943,0.023797,-0.006354,26.6764,0.3000,127,1,0,0.000518,-0.002383,-0.299929,0.033434,0.029979,-0.003025,1.8851,-1.5847,-0.5408
12444,11.0,0.002915,-0.000219,-0.300243,0.002615,-0.003404,-0.009890,1.1056,-0.8915,-0.0268,-0.00051711,-0.00078885,0.00557493,0.00036836,-0.00100627,0.04912753,-0.1200,-0.1970,-9.7673,0.007454,0.038339,-0.014778,26.6420,0.3000,125,0,0,0.000526,-0.002554,-0.299965,0.033196,0.028864,-0.004118,1.8851,-1.5644,-0.5470
12455,11.0,0.002820,-0.000220,-0.300086,0.002208,-0.001214,-0.005611,1.1192,-0.8602,-0.0400,-0.00053005,-0.00085385,0.00557689,0.00064563,-0.00109145,0.04793283,-0.0578,-0.0159,-9.6470,0.018907,0.039769,-0.012057,26.6420,0.3000,125,0,0,0.000524,-0.002467,-0.299967,0.033649,0.029439,-0.003913,1.8956,-1.5449,-0.5584
12466,11.0,0.002755,-0.000208,-0.300135,0.001758,0.000773,-0.003226,1.1273,-0.8358,-0.0408,-0.00042906,-0.00093360,0.00557847,0.00060434,-0.00194866,0.04795034,-0.0871,-0.0088,-9.5466,0.032788,0.024968,0.009100,26.6420,0.3000,126,0,0,0.000503,-0.002289,-0.299851,0.034913,0.033538,0.000386,1.9128,-1.4906,-0.5748
12477,11.0,0.002778,-0.000215,-0.300122,0.001438,0.000746,-0.000171,1.1195,-0.8401,-0.0243,-0.00042085,-0.00093098,0.00557827,0.00059011,-0.00191427,0.04779048,-0.1733,-0.1763,-9.5181,-0.011410,-0.006875,0.031530,26.6420,0.3000,131,0,0,0.000493,-0.002222,-0.299802,0.034866,0.034697,0.002962,1.9108,-1.4677,-0.5723
12488,11.0,0.002852,-0.000237,-0.300003,0.001821,0.000076,0.003059,1.0960,-0.8607,-0.0048,-0.00042830,-0.00088908,0.00557724,0.00053475,-0.00169204,0.04728660,-0.1672,-0.2250,-9.5809,-0.039606,-0.026642,0.035058,26.6420,0.3000,126,0,0,0.000498,-0.002224,-0.299760,0.034711,0.035590,0.005467,1.9164,-1.4691,-0.6237
12499,11.0,0.002969,-0.000261,-0.299944,0.002706,-0.000635,0.003203,1.0693,-0.8938,0.0193,-0.00041745,-0.00083956,0.00557581,0.00030763,-0.00164583,0.04716796,-0.1651,-0.2326,-9.7741,-0.040792,-0.046085,0.042137,26.6420,0.3000,123,0,0,0.000556,-0.002368,-0.299673,0.034175,0.035212,0.007885,1.8722,-1.5028,-0.5907
12510,11.0,0.002804,-0.000278,-0.299915,0.000427,-0.002241,0.002052,1.0579,-0.9022,0.0407,-0.00051249,-0.00093034,0.00557798,0.00080901,-0.00092006,0.04714487,-0.1677,-0.3435,-9.8613,-0.036555,-0.025238,0.040637,26.5839,0.3000,126,-1,0,0.000588,-0.002475,-0.299594,0.033871,0.034595,0.007828,1.8450,-1.5254,-0.5703
12522,12.0,0.002513,-0.000318,-0.299872,-0.002665,-0.003292,0.002607,1.0159,-0.8658,-0.0428,-0.00050883,-0.00108094,0.00561491,0.00136710,-0.00081963,0.04705755,-0.1370,-0.2632,-9.7288,-0.062022,0.032852,0.035963,26.5839,0.3000,135,-1,0,0.000650,-0.002096,-0.299389,0.033916,0.033450,0.006785,1.8171,-1.5437,-0.5323
12533,11.0,0.002443,-0.000371,-0.299834,-0.002845,-0.003552,0.004262,0.9666,-0.8355,-0.0213,-0.00050941,-0.00111884,0.00561517,0.00134446,-0.00071652,0.04705568,-0.1158,-0.1805,-9.6101,-0.078907,0.041521,0.038081,26.5839,0.3000,129,0,0,0.000690,-0.002046,-0.299580,0.034292,0.033032,0.004148,1.7874,-1.5301,-0.5145
12544,11.0,0.002429,-0.000404,-0.299715,-0.002221,-0.004814,0.007868,0.9313,-0.8280,-0.0006,-0.00051601,-0.00111134,0.00561506,0.00130707,-0.00075189,0.04680247,-0.0959,-0.2896,-9.4917,-0.057012,0.012261,0.038053,26.5839,0.3000,129,0,0,0.000792,-0.001919,-0.299420,0.035168,0.033002,0.007729,1.7018,-1.4834,-0.4740
12555,11.0,0.002745,-0.000433,-0.299787,0.001269,-0.005807,0.008471,0.9134,-0.8619,0.0196,-0.00061043,-0.00092892,0.00560947,0.00062259,-0.00023436,0.04756498,-0.1634,-0.2884,-9.5218,-0.045864,-0.029635,0.022700,26.5839,0.3000,127,1,0,0.000830,-0.001915,-0.299259,0.035658,0.032063,0.011067,1.6732,-1.4827,-0.4571
12566,11.0,0.003119,-0.000216,-0.299644,0.004700,-0.004102,0.010215,0.9060,-0.9121,0.0247,-0.00075634,-0.00074517,0.00560625,-0.00020416,-0.00090278,0.04739594,-0.1977,-0.2890,-9.6449,-0.031723,-0.056167,0.005878,26.5839,0.3000,125,1,1,0.000861,-0.002214,-0.299517,0.035607,0.030255,0.009243,1.6482,-1.5004,-0.4482
12577,11.0,0.003508,-0.000252,-0.299535,0.008463,-0.002442,0.009719,0.8699,-0.9634,0.0287,-0.00066431,-0.00058245,0.00560203,-0.00102114,-0.00158694,0.04742308,-0.1508,0.0065,-9.8080,-0.039964,-0.060835,0.008095,26.5839,0.3000,122,1,0,0.000446,-0.002947,-0.299260,0.033179,0.027627,0.011190,1.6137,-1.5615,-0.4473
12588,11.0,0.003555,-0.000286,-0.299672,0.009402,-0.002345,0.006571,0.8402,-0.9689,0.0311,-0.00066123,-0.00061037,0.00560272,-0.00088227,-0.00154723,0.04848326,-0.0262,-0.1350,-9.7921,-0.047240,-0.013014,0.010803,26.6077,0.3000,126,0,0,0.000476,-0.003314,-0.299151,0.033214,0.027679,0.010669,1.5716,-1.5841,-0.4949
12600,12.0,0.003550,-0.000320,-0.299595,0.007684,-0.003228,0.006240,0.8110,-0.9536,0.0357,-0.00071122,-0.00064256,0.00560419,-0.00043158,-0.00116963,0.04846840,-0.2080,-0.2244,-9.7847,-0.052047,0.019269,0.014008,26.6077,0.2990,125,0,0,0.000501,-0.003365,-0.298972,0.034738,0.028321,0.011166,1.5490,-1.5957,-0.4925
12610,10.0,0.003334,-0.000351,-0.299487,0.003955,-0.002042,0.006831,0.7891,-0.9418,0.0274,-0.00070873,-0.00078978,0.00560757,0.00021069,-0.00116113,0.04825044,-0.2174,-0.0162,-9.7564,-0.038719,-0.001595,-0.004014,26.6077,0.2990,128,-1,0,0.000585,-0.003087,-0.298655,0.033726,0.028871,0.011917,1.4976,-1.5729,-0.4866
12622,12.0,0.003378,-0.000118,-0.299142,0.004351,0.001736,0.010341,0.7980,-0.9498,0.0122,-0.00078274,-0.00081893,0.00561029,0.00001127,-0.00213480,0.04715239,-0.1184,-0.0453,-9.7194,0.005941,-0.017854,-0.011104,26.6077,0.2990,125,0,1,0.000616,-0.002869,-0.298535,0.033272,0.030204,0.011953,1.4668,-1.5727,-0.4946
12633,11.0,0.003168,-0.000118,-0.298990,0.001381,0.002316,0.011191,0.7999,-0.9444,-0.0619,-0.00077055,-0.00094988,0.00563478,0.00050639,-0.00203182,0.04698348,-0.1745,-0.0621,-9.7231,0.002365,-0.010410,-0.013383,26.6077,0.3000,127,-1,0,0.000386,-0.002907,-0.298414,0.033043,0.031443,0.012284,1.4699,-1.5821,-0.5051
12644,11.0,0.003192,-0.000118,-0.298868,0.001619,0.003166,0.011048,0.7934,-0.9500,-0.0728,-0.00068661,-0.00095462,0.00563477,0.00041895,-0.00245836,0.04699406,-0.1472,-0.0211,-9.7756,0.004059,-0.011263,-0.009407,26.4914,0.3000,127,0,0,0.000165,-0.002469,-0.299137,0.032281,0.033946,0.003373,1.4705,-1.5841,-0.5264
12655,11.0,0.003205,-0.000117,-0.299341,0.001608,0.003563,0.003967,0.7926,-0.9522,-0.0788,-0.00066708,-0.00095774,0.00563441,0.00047117,-0.00233598,0.04952045,-0.1579,-0.0633,-9.7794,0.000657,-0.005016,-0.004676,26.4914,0.3000,127,0,0,0.000169,-0.002498,-0.298971,0.032499,0.035396,0.004029,1.4668,-1.5883,-0.5433
12666,11.0,0.003176,-0.000131,-0.299298,0.001655,0.003713,0.003921,0.7709,-0.9351,-0.0759,-0.00059656,-0.00101660,0.00563412,0.00033878,-0.00251571,0.04952674,-0.1038,-0.0618,-9.7643,-0.023084,0.016351,0.008209,26.4914,0.3000,131,0,0,0.000178,-0.002496,-0.299444,0.032314,0.035511,-0.001660,1.4555,-1.5825,-0.5465
12677,11.0,0.003135,-0.000147,-0.299165,0.001953,0.003612,0.005119,0.7513,-0.9186,-0.0662,-0.00056640,-0.00104907,0.00563393,0.00047359,-0.00239069,0.04913381,-0.0687,-0.0841,-9.7486,-0.027520,0.021066,0.018935,26.4914,0.3000,130,0,0,0.000193,-0.002471,-0.299389,0.033067,0.036351,-0.000896,1.4470,-1.5760,-0.5448
12688,11.0,0.003341,-0.000391,-0.299559,0.004487,0.000426,0.000393,0.7286,-0.9117,-0.0525,-0.00042840,-0.00098743,0.00563004,-0.00011597,-0.00170640,0.05104780,-0.1032,-0.1373,-9.7098,-0.018138,0.016466,0.023724,26.4914,0.3000,130,1,-1,0.000464,-0.002625,-0.299407,0.034919,0.036239,-0.000876,1.4110,-1.5431,-0.5492
12699,11.0,0.003576,-0.000401,-0.299482,0.007139,0.000208,0.002076,0.7167,-0.9160,-0.0375,-0.00042091,-0.00089521,0.00562885,-0.00051722,-0.00167482,0.05075645,-0.0951,-0.1302,-9.6798,-0.017871,0.004756,0.031521,26.4914,0.3000,123,1,0,0.000715,-0.002827,-0.299589,0.035630,0.035274,-0.002175,1.3960,-1.5263,-0.5360
12710,11.0,0.003595,-0.000421,-0.299455,0.007324,0.000958,0.002811,0.6927,-0.9087,-0.0180,-0.00034905,-0.00097845,0.00562887,-0.00074937,-0.00203859,0.05076736,-0.0690,-0.0200,-9.6930,-0.024826,-0.003242,0.034585,26.4914,0.3000,131,0,0,0.000725,-0.003050,-0.299607,0.036271,0.034706,-0.001454,1.3872,-1.5249,-0.5212
12721,11.0,0.003888,-0.000448,-0.299651,0.010280,0.001843,0.000915,0.6683,-0.9286,0.0077,-0.00032576,-0.00087303,0.00562783,-0.00119121,-0.00193281,0.05173822,-0.0948,0.0058,-9.6876,-0.035179,-0.017837,0.051107,26.4914,0.3000,127,1,0,0.000766,-0.003324,-0.299520,0.037340,0.035409,0.001063,1.3459,-1.5215,-0.4839
12733,12.0,0.003974,-0.000229,-0.299633,0.010151,0.004045,0.002039,0.6514,-0.9417,0.0437,-0.00042646,-0.00090959,0.00562927,-0.00123204,-0.00235350,0.05174306,-0.1321,-0.1123,-9.6632,-0.036536,-0.024812,0.057472,26.4544,0.3000,133,0,1,0.000565,-0.003366,-0.299625,0.036725,0.035727,0.000548,1.3099,-1.5196,-0.4580
12744,11.0,0.004074,0.000001,-0.299502,0.009978,0.005300,0.003989,0.6436,-0.9638,0.0381,-0.00052315,-0.00091537,0.00564319,-0.00125215,-0.00273793,0.05129974,-0.1661,-0.1893,-9.6925,-0.025568,-0.036517,0.047913,26.4544,0.3000,125,0,1,0.000152,-0.003491,-0.299596,0.035543,0.035275,0.002182,1.2678,-1.5415,-0.3995
12755,11.0,0.003957,0.000005,-0.299721,0.007323,0.003617,0.000879,0.6433,-0.9850,0.0605,-0.00056602,-0.00102228,0.00564374,-0.00068922,-0.00213869,0.05235767,-0.1832,-0.2269,-9.7610,-0.010246,-0.047914,0.035824,26.4544,0.3000,123,-1,0,-0.000063,-0.003575,-0.299440,0.034846,0.034225,0.004201,1.2567,-1.5640,-0.3775
12767,12.0,0.004083,0.000015,-0.299636,0.007530,0.001766,0.000703,0.6387,-1.0194,0.0739,-0.00055420,-0.00100240,0.00564321,-0.00077685,-0.00208920,0.05201375,-0.1895,-0.2459,-9.8499,-0.005611,-0.048439,0.025663,26.4544,0.3000,131,0,0,-0.000047,-0.003438,-0.299646,0.034424,0.033577,0.001445,1.2556,-1.5855,-0.3591
12778,11.0,0.003650,0.000027,-0.299637,0.001687,-0.000326,-0.000934,0.6549,-1.0091,0.0844,-0.00067815,-0.00124995,0.00564755,0.00041430,-0.00120467,0.05197547,-0.1974,-0.3229,-9.9019,0.001195,-0.016960,0.019314,26.4544,0.3000,131,-2,0,-0.000027,-0.003613,-0.299544,0.033982,0.030809,0.000214,1.2574,-1.6312,-0.3360
12789,11.0,0.003592,0.000041,-0.299748,0.000296,-0.002383,-0.003318,0.6610,-0.9880,0.0817,-0.00069401,-0.00128739,0.00564879,0.00057374,-0.00126850,0.05235042,-0.2278,-0.3329,-9.8711,0.006862,0.027164,0.002416,26.4544,0.3000,127,0,0,-0.000021,-0.003159,-0.299549,0.033899,0.030133,-0.001343,1.2635,-1.6416,-0.2038
12800,11.0,0.003481,0.000056,-0.299786,-0.001685,-0.004161,-0.003525,0.6876,-0.9565,0.0676,-0.00085407,-0.00129624,0.00565038,0.00114939,-0.00041043,0.05232357,-0.2455,-0.3475,-9.7702,0.011194,0.050154,-0.017187,26.4544,0.3000,124,0,0,-0.000016,-0.002994,-0.299683,0.032858,0.027031,-0.004336,1.2929,-1.6014,-0.2115
12811,11.0,0.003630,0.000068,-0.299716,-0.000458,-0.005454,-0.001466,0.6987,-0.9383,0.0455,-0.00088866,-0.00120934,0.00564860,0.00078329,-0.00056037,0.05190181,-0.2214,-0.3035,-9.6776,0.011389,0.038834,-0.032303,26.4544,0.3000,121,1,0,-0.000015,-0.003110,-0.299622,0.032195,0.025247,-0.003219,1.3113,-1.5716,-0.2240
12822,11.0,0.003817,0.000076,-0.299295,0.001495,-0.005275,0.004650,0.7183,-0.9337,0.0187,-0.00095536,-0.00110356,0.00564638,0.00041511,-0.00049765,0.05017979,-0.1739,-0.1782,-9.6525,0.018472,0.020339,-0.040889,26.4544,0.2990,128,1,0,-0.000016,-0.003245,-0.299652,0.031726,0.023415,-0.002671,1.3215,-1.5496,-0.2444
12833,11.0,0.003807,0.000091,-0.299158,0.001423,-0.003778,0.006891,0.7459,-0.9319,-0.0112,-0.00098938,-0.00111743,0.00564761,0.00046566,-0.00064430,0.04985342,-0.1364,-0.0541,-9.6413,0.037437,-0.000653,-0.039638,26.4544,0.2990,130,0,0,-0.000038,-0.003610,-0.299035,0.031612,0.022194,0.005839,1.3559,-1.5240,-0.2945
12844,11.0,0.004072,0.000096,-0.299076,0.004776,-0.002162,0.007888,0.7545,-0.9470,-0.0306,-0.00094206,-0.00103341,0.00564545,-0.00033683,-0.00122165,0.04987709,-0.0927,-0.0113,-9.6700,0.022777,-0.016683,-0.025414,26.4544,0.2990,125,1,0,-0.000051,-0.003596,-0.298970,0.031504,0.022675,0.006997,1.3675,-1.5149,-0.3199
12856,12.0,0.004361,0.000101,-0.299444,0.008176,-0.001292,0.002254,0.7664,-0.9723,0.1658,-0.00095838,-0.00091795,0.00555340,-0.00051561,-0.00144604,0.05170463,-0.0867,-0.0825,-9.7860,0.017451,-0.022018,-0.012702,26.4544,0.3000,125,1,0,-0.000067,-0.003855,-0.298765,0.032171,0.023388,0.009374,1.3841,-1.5234,-0.3385
12867,11.0,0.004335,0.000101,-0.299426,0.007155,-0.001208,0.000986,0.7689,-0.9561,0.1655,-0.00097100,-0.00098776,0.00555454,-0.00035745,-0.00143450,0.05170097,-0.1440,-0.1414,-9.8715,0.000823,0.014497,0.004740,26.4544,0.3000,128,0,0,-0.000080,-0.004140,-0.299331,0.033182,0.024083,0.001366,1.3956,-1.5285,-0.3573
12878,11.0,0.004241,0.000071,-0.299314,0.005730,-0.002169,0.001783,0.7368,-0.9151,0.1692,-0.00096453,-0.00107557,0.00555628,-0.00000270,-0.00141464,0.05127537,-0.1196,-0.2088,-9.7956,-0.050833,0.052171,0.011513,26.4544,0.3000,129,0,0,-0.000072,-0.004110,-0.299218,0.033124,0.024234,0.001394,1.3928,-1.5136,-0.3578
12889,11.0,0.003614,-0.000203,-0.299646,-0.000807,-0.004996,-0.000952,0.6967,-0.8297,0.1742,-0.00085114,-0.00147807,0.00556061,0.00106216,-0.00081665,0.05265354,-0.0477,-0.1363,-9.6292,-0.049541,0.076039,0.010012,26.4544,0.3000,133,-2,-1,0.000235,-0.003417,-0.299034,0.034569,0.025774,0.003040,1.3480,-1.4381,-0.3919
12900,11.0,0.003488,-0.000202,-0.299552,-0.001581,-0.004724,0.004555,0.7047,-0.7893,0.1667,-0.00087951,-0.00153750,0.00556234,0.00130545,-0.00094051,0.05233061,-0.0859,-0.1479,-9.3416,0.007774,0.054447,-0.005944,26.4544,0.2990,124,0,0,0.000482,-0.002792,-0.298887,0.036213,0.027758,0.006412,1.3475,-1.3972,-0.3915
12911,11.0,0.003743,-0.000193,-0.299473,0.000790,-0.004329,0.009830,0.7205,-0.8063,0.1506,-0.00091035,-0.00140119,0.00556011,0.00073327,-0.00107026,0.05234163,-0.1860,-0.1421,-9.2755,0.019629,-0.010257,-0.020340,26.4544,0.2990,122,1,0,0.000482,-0.002664,-0.298803,0.036656,0.028029,0.010298,1.3562,-1.3651,-0.3971
12923,12.0,0.004266,-0.000184,-0.299610,0.006020,-0.003325,0.008451,0.7434,-0.9163,0.1291,-0.00093990,-0.00114558,0.00555585,-0.00031264,-0.00117642,0.05338594,-0.1706,-0.0925,-9.6151,0.028140,-0.129644,-0.024168,26.4544,0.3000,123,1,0,0.000464,-0.002987,-0.298383,0.035711,0.027130,0.020165,1.3884,-1.3945,-0.4270
12934,11.0,0.004826,-0.000175,-0.299531,0.011456,-0.001684,0.006071,0.7544,-1.0272,0.1135,-0.00089277,-0.00091006,0.00555296,-0.00139548,-0.00173891,0.05341395,-0.1570,-0.0125,-9.9724,0.026956,-0.145452,-0.012002,26.5126,0.3000,123,1,0,0.000449,-0.003479,-0.299116,0.035249,0.026354,0.011765,1.4045,-1.4643,-0.4445
12946,12.0,0.004984,-0.000184,-0.299406,0.012105,-0.000481,0.001683,0.7538,-1.0693,0.1124,-0.00089467,-0.00090097,0.00555289,-0.00143704,-0.00175083,0.05308407,-0.1475,-0.0405,-10.2047,-0.002086,-0.061103,0.004946,26.5126,0.3000,131,0,0,0.000432,-0.004267,-0.298920,0.035075,0.026121,0.006665,1.4121,-1.6067,-0.4659
