timestamp_ms,dt_ms,pos_x,pos_y,pos_z,vel_x,vel_y,vel_z,roll_deg,pitch_deg,yaw_deg,gyro_bias_x,gyro_bias_y,gyro_bias_z,accel_bias_x,accel_bias_y,accel_bias_z,raw_accel_x,raw_accel_y,raw_accel_z,raw_gyro_x,raw_gyro_y,raw_gyro_z,raw_mag_x,raw_mag_y,raw_mag_z,raw_baro_alt,raw_tof,raw_flow_squal,raw_flow_dx,raw_flow_dy,dev_pos_x,dev_pos_y,dev_pos_z,dev_vel_x,dev_vel_y,dev_vel_z,dev_roll_deg,dev_pitch_deg,dev_yaw_deg
28719,10.0,-0.000038,0.000046,-0.264003,-0.004204,0.005515,0.001434,0.0131,0.0101,0.0009,0.00000000,0.00000000,0.00507254,0.00132804,-0.02597088,0.00000000,-0.0846,0.1632,-9.6006,0.021437,0.016429,0.006679,33.7935,6.5561,37.4388,-31.0097,0.2640,174,0,0,0.010160,0.010358,-0.267902,0.022792,0.075224,-0.019667,-0.0058,0.2437,0.3227
28730,11.0,-0.000029,0.000006,-0.263974,-0.001904,0.002559,0.003914,-0.1893,-0.0412,-0.0033,0.00000064,0.00000014,0.00507254,0.00129502,-0.02590274,-0.00000002,-0.0531,0.2670,-9.5830,-0.013022,-0.003787,-0.001302,33.7935,6.5561,37.4388,-31.0097,0.2640,174,0,0,0.010133,0.010497,-0.265569,0.018720,0.069949,0.011340,0.0089,0.2569,0.3245
28741,11.0,0.000098,-0.000127,-0.264055,0.003218,-0.000272,-0.000233,-0.3133,-0.1505,-0.0124,0.00000092,0.00000037,0.00507254,0.00113583,-0.02570944,0.00000411,0.0021,0.3047,-9.6472,-0.044934,-0.048358,-0.005775,33.7935,6.5561,37.4388,-31.0097,0.2640,175,0,0,0.010208,0.010560,-0.265278,0.013823,0.060475,0.017945,-0.0079,0.2501,0.3179
28752,11.0,0.000278,0.004733,-0.263992,0.007744,0.138260,0.001974,3.1391,-0.2708,-0.0199,-0.00001320,0.00000060,0.00507252,0.00091448,-0.03335074,-0.00002613,0.0389,0.3455,-9.8287,-0.047494,-0.067363,-0.003291,35.1538,4.7547,35.6728,-31.0097,0.2640,170,0,1,0.010334,0.010510,-0.265091,0.013239,0.055994,0.020337,-0.0343,0.2236,0.3124
28763,11.0,0.000411,0.004785,-0.263989,0.009403,0.109131,-0.000228,1.6397,-0.3462,-0.0257,-0.00000465,0.00000086,0.00507254,0.00082036,-0.03023854,-0.00008799,-0.0021,0.3152,-9.9858,-0.037759,-0.048992,0.005914,35.1538,4.7547,35.6728,-31.0097,0.2650,171,0,0,0.010466,0.015391,-0.264882,0.013123,0.108609,0.021404,-0.0503,0.1889,0.3075
28774,11.0,0.000448,0.004932,-0.264007,0.008377,0.087965,-0.002491,0.2150,-0.2410,-0.0192,0.00000674,-0.00000011,0.00507253,0.00099554,-0.02756846,-0.00015372,0.0275,0.3309,-9.9766,-0.011080,-0.008597,0.010222,35.1538,4.7547,35.6728,-31.0467,0.2650,167,0,0,0.010663,0.015434,-0.264695,0.011849,0.091862,0.017954,-0.0926,0.1488,0.3074
28785,11.0,0.000463,0.005087,-0.264828,0.007100,0.071341,-0.018773,-0.8387,-0.1395,-0.0131,0.00001625,-0.00000104,0.00507252,0.00122256,-0.02523338,0.00024344,0.0267,0.3156,-9.9480,-0.002067,-0.000424,0.012083,35.1538,4.7547,35.6728,-31.0467,0.2650,167,0,0,0.010651,0.015514,-0.264522,0.014321,0.083565,0.017208,-0.2771,-0.2215,0.5115
28796,11.0,0.000462,0.005196,-0.265041,0.005298,0.056412,-0.019481,-1.8031,-0.0248,-0.0150,0.00002698,-0.00000227,0.00507248,0.00146552,-0.02314712,0.00022312,0.0011,0.3742,-9.8345,-0.019956,0.007149,0.000602,35.1538,4.7547,35.6728,-31.0467,0.2650,172,0,0,0.010743,0.015613,-0.264679,0.013204,0.071799,0.011561,-0.2939,-0.2369,0.5300
28807,11.0,0.000444,0.005293,-0.265246,0.003267,0.042922,-0.019911,-2.5234,0.0859,-0.0180,0.00003629,-0.00000361,0.00507243,0.00170575,-0.02147900,0.00019652,-0.0111,0.2815,-9.8453,-0.018572,0.013726,0.000020,35.1538,4.7547,35.6728,-31.0467,0.2650,170,0,0,0.010765,0.015605,-0.264559,0.012131,0.066680,0.012383,-0.3138,-0.2386,0.5336
28818,11.0,-0.003789,0.005315,-0.264972,-0.103305,0.031075,-0.014200,-2.9462,5.3893,-0.0300,0.00004045,-0.00008090,0.00506909,0.01592455,-0.01991108,-0.00075759,0.0293,0.2008,-9.9023,-0.032926,-0.021840,-0.018575,35.1538,4.7547,35.6728,-31.0467,0.2650,178,-1,0,0.010777,0.015604,-0.264422,0.011043,0.061307,0.013188,-0.3312,-0.2380,0.5380
28829,11.0,-0.004002,0.005379,-0.265123,-0.088094,0.023130,-0.014955,-3.2887,4.1698,-0.0347,0.00004644,-0.00005943,0.00507011,0.01268589,-0.01900582,-0.00085752,0.0792,0.3928,-9.9010,-0.009217,-0.014828,-0.005918,35.1538,4.7547,35.6728,-31.0467,0.2650,181,0,0,0.005946,0.015496,-0.264656,-0.040060,0.049878,0.007972,-0.3777,-0.2610,0.5301
28841,12.0,-0.004345,0.005466,-0.265311,-0.075166,0.016330,-0.016352,-3.4154,3.1444,-0.0168,0.00004778,-0.00003478,0.00507095,0.01041119,-0.01832530,-0.00095285,0.0805,0.2761,-9.9231,0.003146,0.011447,0.007774,35.1538,4.7547,35.6728,-31.0467,0.2650,177,0,0,0.005966,0.015504,-0.264576,-0.034555,0.047040,0.008004,-0.3884,-0.2784,0.5314
28852,11.0,-0.004581,0.005486,-0.264629,-0.065189,0.008970,-0.006444,-3.5602,2.4758,-0.0119,0.00005162,-0.00001771,0.00507162,0.00846077,-0.01781667,-0.00445658,0.0580,0.1909,-9.8527,-0.014115,0.024884,0.000331,35.1538,4.7547,35.6728,-31.0097,0.2650,177,0,0,0.005944,0.015533,-0.264498,-0.030088,0.044006,0.007785,-0.3937,-0.2843,0.5398
28863,11.0,-0.004822,0.005500,-0.264698,-0.055388,0.005504,-0.005789,-3.4001,1.8281,0.0106,0.00004085,0.00000602,0.00507205,0.00730480,-0.01706384,-0.00452550,0.0436,0.1537,-9.7448,0.006612,0.024872,0.002680,34.1330,6.9149,36.5445,-31.0097,0.2650,180,0,0,0.005819,0.015531,-0.264733,-0.024017,0.036200,0.004590,-0.4184,-0.2713,0.5478
28874,11.0,-0.004923,0.005535,-0.264763,-0.046175,0.001517,-0.004717,-3.4011,1.3359,0.0164,0.00004098,0.00002208,0.00507261,0.00567505,-0.01704897,-0.00459119,0.0442,0.2048,-9.6998,0.004330,-0.014287,0.000751,34.1330,6.9149,36.5445,-31.0097,0.2650,185,0,0,0.005762,0.015558,-0.264683,-0.021469,0.032830,0.006118,-0.4225,-0.2651,0.5523
28885,11.0,-0.004924,0.005507,-0.264621,-0.036381,-0.001613,-0.003125,-3.3920,0.8374,0.0197,0.00003867,0.00004136,0.00507323,0.00423382,-0.01675953,-0.00594918,0.0246,0.2888,-9.8650,-0.014513,-0.050869,-0.006025,34.1330,6.9149,36.5445,-31.0097,0.2650,185,0,0,0.005873,0.015595,-0.264520,-0.014638,0.030805,0.009638,-0.1883,-0.3279,0.3293
28896,11.0,-0.004921,0.005476,-0.264673,-0.028692,-0.005052,-0.005384,-3.3973,0.4789,0.0243,0.00003844,0.00005683,0.00507379,0.00305980,-0.01677634,-0.00599847,0.0093,0.2498,-10.0077,-0.016624,-0.040902,0.002846,34.1330,6.9149,36.5445,-31.0097,0.2660,187,0,0,0.006012,0.015591,-0.265375,-0.011066,0.029163,-0.000801,-0.1973,-0.3667,0.3254
28907,11.0,-0.004968,0.005409,-0.264752,-0.023476,-0.007738,-0.008368,-3.3080,0.2509,0.0254,0.00002766,0.00006962,0.00507414,0.00239290,-0.01629775,-0.00602215,-0.0047,0.1868,-10.0811,-0.020796,-0.011398,-0.001763,34.1330,6.9149,36.5445,-31.0097,0.2660,194,0,0,0.006133,0.015582,-0.265389,-0.008074,0.027321,-0.001808,-0.2076,-0.3999,0.3252
28918,11.0,-0.005121,0.005344,-0.264687,-0.022010,-0.010106,-0.008530,-3.3001,0.2062,0.0204,0.00002631,0.00007415,0.00507430,0.00212025,-0.01634740,-0.00746254,-0.0271,0.2774,-10.0076,-0.024854,0.043573,-0.001557,34.1330,6.9149,36.5445,-31.0097,0.2650,186,0,0,0.006191,0.015526,-0.265463,-0.005138,0.023001,-0.005428,-0.2362,-0.4191,0.3213
28929,11.0,-0.005313,0.005357,-0.264780,-0.021310,-0.009514,-0.008133,-3.1813,0.2077,0.0235,0.00001691,0.00007711,0.00507440,0.00201137,-0.01655304,-0.00749584,-0.0032,0.3107,-9.7739,0.015292,0.061242,0.013073,34.1330,6.9149,36.5445,-30.9252,0.2650,185,0,0,0.006108,0.015493,-0.265201,-0.005375,0.021818,-0.002750,-0.2498,-0.4005,0.3181
28940,11.0,-0.005443,0.005434,-0.264896,-0.019608,-0.007428,-0.006457,-3.0397,0.1653,0.0294,0.00000724,0.00008252,0.00507464,0.00174524,-0.01703361,-0.00719680,-0.0063,0.3538,-9.6128,0.041620,0.035154,0.018355,34.1330,6.9149,36.5445,-30.9252,0.2650,183,0,0,0.000934,0.015596,-0.265265,-0.062923,0.022335,0.000029,-0.2253,-0.3232,0.3332
28951,11.0,-0.001076,0.005515,-0.264799,0.070128,-0.005259,-0.002254,-2.9149,-2.4040,-0.0272,-0.00000256,0.00032721,0.00508597,-0.00908972,-0.01729110,-0.00967024,-0.0094,0.3784,-9.5649,0.040493,-0.023546,0.026011,34.1330,6.9149,36.5445,-30.9252,0.2650,187,1,0,0.000846,0.015706,-0.265294,-0.056950,0.023471,0.002734,-0.2034,-0.3213,0.3430
28962,11.0,-0.000810,0.005584,-0.264838,0.064005,-0.004113,-0.000478,-2.8242,-2.1585,-0.0000,-0.00001038,0.00029681,0.00508458,-0.00790518,-0.01760425,-0.00937005,-0.0470,0.3410,-9.6300,0.033231,-0.049925,0.031098,33.4540,5.8385,37.4388,-30.9252,0.2650,185,0,0,0.005821,0.015848,-0.265250,0.006317,0.025030,0.006112,-0.1834,-0.3730,0.3528
28973,11.0,-0.000504,0.005615,-0.264839,0.059906,-0.004049,-0.000265,-2.7626,-1.9754,0.0164,-0.00001805,0.00026574,0.00508348,-0.00724616,-0.01767427,-0.00936946,0.0020,0.3099,-9.8031,0.016146,-0.072485,0.023247,33.4540,5.8385,37.4388,-30.9252,0.2650,176,0,0,0.006150,0.016036,-0.264973,0.008671,0.025816,0.011797,-0.1503,-0.4509,0.3823
28984,11.0,-0.000267,0.005632,-0.264693,0.055153,-0.004588,0.000242,-2.7271,-1.7991,0.0416,-0.00002252,0.00023661,0.00508220,-0.00633514,-0.01776409,-0.01095624,-0.0392,0.2955,-9.9417,0.008382,-0.048243,0.029700,33.4540,5.8385,37.4388,-30.9252,0.2650,179,0,0,0.006401,0.016102,-0.264853,0.005734,0.024354,0.012529,-0.2456,-0.0577,0.4197
28995,11.0,-0.000097,0.005617,-0.264701,0.049932,-0.005653,-0.001981,-2.6946,-1.5944,0.0536,-0.00003004,0.00019890,0.00508098,-0.00570562,-0.01766490,-0.01095854,-0.0156,0.2619,-10.0224,-0.003436,-0.022446,0.019805,33.4540,5.8385,37.4388,-30.9252,0.2650,176,0,0,0.006541,0.016134,-0.264777,0.006320,0.023655,0.011708,-0.2445,-0.0902,0.4336
29006,11.0,-0.000016,0.005583,-0.264793,0.043737,-0.006869,-0.005003,-2.6853,-1.3902,0.0590,-0.00003307,0.00016294,0.00507954,-0.00480520,-0.01776005,-0.01036035,-0.0698,0.2784,-10.0263,-0.011743,0.009042,0.002305,33.4540,5.8385,37.4388,-30.8670,0.2650,178,0,0,0.006653,0.016136,-0.264790,0.005665,0.021556,0.007192,-0.2570,-0.1136,0.4505
29017,11.0,0.000008,0.005651,-0.264736,0.037341,-0.005534,-0.004976,-2.6017,-1.1843,0.0665,-0.00004659,0.00012416,0.00507816,-0.00405943,-0.01790396,-0.01162913,-0.0770,0.3245,-9.9391,0.033574,0.028026,0.011158,33.4540,5.8385,37.4388,-30.8670,0.2650,179,0,0,0.006634,0.016130,-0.264784,0.004159,0.020601,0.005159,-0.2647,-0.1067,0.4507
29028,11.0,0.000051,0.005743,-0.264838,0.033065,-0.003422,-0.005969,-2.5167,-1.0357,0.0782,-0.00005966,0.00009242,0.00507685,-0.00340492,-0.01818760,-0.01121453,-0.0039,0.3776,-9.8518,0.043220,0.012324,0.013149,33.4540,5.8385,37.4388,-30.8670,0.2650,181,0,0,0.006576,0.016199,-0.264736,0.002292,0.020862,0.004409,-0.2526,-0.0904,0.4550
29039,11.0,0.000123,0.005778,-0.264908,0.029294,-0.002713,-0.006731,-2.4774,-0.9297,0.0897,-0.00006721,0.00006490,0.00507575,-0.00297073,-0.01827619,-0.01124248,-0.0632,0.3603,-9.8807,0.017188,-0.002954,0.014310,33.4540,5.8385,37.4388,-30.8670,0.2650,180,0,0,0.006536,0.016392,-0.264890,0.000843,0.023154,0.002552,-0.2146,-0.0794,0.4700
29050,11.0,0.000188,0.005747,-0.264317,0.026279,-0.003342,0.000450,-2.4898,-0.8458,0.1006,-0.00006646,0.00004169,0.00507469,-0.00257262,-0.01803837,-0.01790852,-0.0416,0.3569,-9.8866,-0.012286,-0.003976,0.010531,33.4540,5.8385,37.4388,-30.8670,0.2640,179,0,0,0.006548,0.016446,-0.264864,0.000241,0.023507,0.002745,-0.2074,-0.0816,0.4775
29061,11.0,0.000220,0.005707,-0.264316,0.023363,-0.004511,-0.000085,-2.4926,-0.7524,0.1092,-0.00006972,0.00001359,0.00507363,-0.00227215,-0.01792550,-0.01792073,-0.0139,0.2893,-9.8711,-0.015458,0.007136,0.011605,34.1288,5.8533,36.9459,-30.8988,0.2640,180,0,0,0.006544,0.016412,-0.264332,-0.000530,0.022339,0.008139,-0.2288,-0.0803,0.4829
29073,12.0,0.000252,0.005692,-0.264366,0.020397,-0.005652,-0.000894,-2.4794,-0.6659,0.1202,-0.00007499,-0.00001241,0.00507261,-0.00189067,-0.01801800,-0.01747579,-0.0374,0.2460,-9.8432,-0.003323,0.013537,0.014937,34.1288,5.8533,36.9459,-30.8988,0.2640,177,0,0,0.006530,0.016389,-0.264292,-0.000737,0.021197,0.007957,-0.2413,-0.0769,0.4882
29084,11.0,0.000254,0.005682,-0.264019,0.017701,-0.006493,0.003386,-2.4537,-0.5898,0.1243,-0.00008759,-0.00003806,0.00507184,-0.00167617,-0.01772727,-0.02089225,-0.0322,0.2264,-9.8198,-0.002040,0.013775,0.010931,34.1288,5.8533,36.9459,-30.8988,0.2640,172,0,0,0.006482,0.016393,-0.264122,-0.001977,0.018314,0.009055,-0.2896,-0.0475,0.5321
29095,11.0,0.004851,0.010334,-0.264017,0.086444,0.065228,0.003194,-1.1641,-1.7708,-0.0139,-0.00060411,0.00044316,0.00509247,-0.00794308,-0.02446551,-0.02124620,-0.0446,0.2612,-9.8126,0.011276,0.017826,0.014859,34.1288,5.8533,36.9459,-30.8988,0.2650,178,1,1,0.006449,0.016401,-0.264679,-0.002473,0.017432,0.002743,-0.2937,-0.0397,0.5374
29106,11.0,0.004937,0.010457,-0.263982,0.075636,0.056725,0.003261,-1.3183,-1.5167,0.0058,-0.00053566,0.00033622,0.00508874,-0.00698642,-0.02365677,-0.02120862,-0.0579,0.2328,-9.8212,0.001887,0.026447,0.007195,34.1288,5.8533,36.9459,-30.8988,0.2650,176,0,0,0.011321,0.021439,-0.264647,0.052595,0.074100,0.003534,-0.2427,-0.0502,0.5698
29117,11.0,0.004979,0.010524,-0.263912,0.066359,0.048996,0.004651,-1.4654,-1.2960,0.0260,-0.00046970,0.00024129,0.00508516,-0.00587859,-0.02287601,-0.02146184,-0.0052,0.2639,-9.7320,-0.013945,0.035185,0.007509,34.1288,5.8533,36.9459,-30.8988,0.2640,175,0,0,0.011293,0.021565,-0.264617,0.040821,0.062310,0.004649,-0.2593,-0.0139,0.5700
29128,11.0,0.005037,0.015194,-0.263864,0.058200,0.110557,0.005242,-0.5064,-1.1153,-0.0190,-0.00097181,0.00015335,0.00508521,-0.00513597,-0.02853270,-0.02216054,-0.0372,0.2580,-9.7665,-0.020935,0.021747,0.006723,34.1288,5.8533,36.9459,-30.8988,0.2640,178,0,1,0.011207,0.026518,-0.264216,0.035201,0.113227,0.010028,-0.2194,0.0133,0.6045
29139,11.0,0.005141,0.015397,-0.263850,0.052315,0.096967,0.005197,-0.7340,-0.9935,0.0018,-0.00084255,0.00008371,0.00508256,-0.00440677,-0.02719622,-0.02167034,0.0004,0.1816,-9.7829,0.004528,-0.003671,0.011272,34.1288,5.8533,36.9459,-30.8988,0.2640,185,0,0,0.011138,0.031522,-0.264146,0.030117,0.159141,0.010951,-0.1843,0.0336,0.6368
29150,11.0,0.005259,0.015604,-0.264427,0.047067,0.085202,-0.002860,-0.9120,-0.8868,0.0082,-0.00072809,0.00001231,0.00508061,-0.00406361,-0.02630646,-0.01606516,-0.0178,0.1687,-9.8816,0.015387,-0.011991,0.006890,34.1288,5.8533,36.9459,-30.8988,0.2650,180,0,0,0.011208,0.031855,-0.263965,0.024251,0.130968,0.012392,-0.2130,0.0313,0.6273
29161,11.0,0.005335,0.015794,-0.264497,0.042354,0.074629,-0.003957,-1.0569,-0.7928,0.0101,-0.00062662,-0.00004906,0.00507884,-0.00347373,-0.02534360,-0.01573362,0.0035,0.1448,-9.8840,0.016645,-0.000369,0.000288,34.1309,5.4871,36.5217,-30.8988,0.2650,177,0,0,0.011260,0.032025,-0.264538,0.021941,0.118866,0.004767,-0.2202,0.0247,0.6226
29173,12.0,0.005435,0.016012,-0.264546,0.038379,0.065795,-0.004171,-1.1877,-0.7005,-0.0032,-0.00052907,-0.00011473,0.00507748,-0.00315180,-0.02452294,-0.01572837,0.0359,0.2284,-9.8394,0.009626,0.002212,-0.010631,34.1309,5.4871,36.5217,-30.8988,0.2650,177,0,0,0.011305,0.032320,-0.264488,0.017748,0.098046,0.004469,-0.2323,0.0241,0.6044
29183,10.0,0.005443,0.016037,-0.264247,0.034713,0.058375,0.000604,-1.3153,-0.6251,-0.0048,-0.00043612,-0.00016948,0.00507606,-0.00268485,-0.02363136,-0.01860550,0.0474,0.3354,-9.7407,-0.006745,0.004389,0.000459,34.1309,5.4871,36.5217,-30.8988,0.2640,180,0,0,0.011310,0.032436,-0.264441,0.017470,0.088542,0.005168,-0.3369,-0.0877,0.7043
29194,11.0,0.005495,0.016157,-0.264237,0.031743,0.052646,0.001324,-1.4095,-0.5583,0.0133,-0.00035429,-0.00022334,0.00507477,-0.00235858,-0.02304782,-0.01861090,0.0546,0.3535,-9.7558,0.010800,0.000126,0.035121,34.1309,5.4871,36.5217,-30.8988,0.2640,184,0,0,0.011321,0.032499,-0.264179,0.016146,0.081208,0.008791,-0.3535,-0.0869,0.6975
29205,11.0,0.005623,0.016280,-0.264271,0.029270,0.046080,0.000307,-1.4834,-0.5368,0.0291,-0.00028357,-0.00025842,0.00507386,-0.00208560,-0.02251051,-0.01821363,-0.0409,0.1931,-9.8663,0.013070,-0.031496,0.028894,34.1309,5.4871,36.5217,-30.8988,0.2640,177,0,0,0.011379,0.032684,-0.263976,0.014036,0.069262,0.011322,-0.3644,-0.0947,0.7229
29216,11.0,0.005774,0.016425,-0.264621,0.027503,0.040557,-0.005353,-1.5245,-0.5273,0.0380,-0.00023144,-0.00029163,0.00507320,-0.00199521,-0.02198740,-0.01535917,-0.0305,0.1723,-9.9702,0.026690,-0.041997,0.021931,34.1309,5.4871,36.5217,-30.8988,0.2650,181,0,0,0.011479,0.032778,-0.263921,0.013313,0.062963,0.010716,-0.3675,-0.1157,0.7343
29227,11.0,0.005833,0.016541,-0.264750,0.024485,0.035431,-0.008528,-1.5681,-0.4892,0.0380,-0.00017733,-0.00033246,0.00507211,-0.00170800,-0.02162007,-0.01489072,-0.0649,0.1828,-10.0486,0.018387,-0.006189,0.005038,34.1309,5.4871,36.5217,-30.8248,0.2650,185,0,0,0.011595,0.032890,-0.264525,0.012959,0.057479,0.002093,-0.3648,-0.1411,0.7423
29238,11.0,0.005786,0.016581,-0.264856,0.020510,0.030322,-0.010679,-1.6277,-0.4145,0.0231,-0.00012096,-0.00038784,0.00507065,-0.00137451,-0.02113360,-0.01490065,-0.0564,0.2110,-10.0165,-0.007983,0.034476,-0.016787,34.1309,5.4871,36.5217,-30.8248,0.2650,189,0,0,0.011635,0.033032,-0.264578,0.009757,0.047532,-0.001585,-0.3724,-0.1443,0.7373
29249,11.0,0.005656,0.016610,-0.264420,0.015478,0.026458,-0.004546,-1.6811,-0.3184,0.0032,-0.00006744,-0.00044865,0.00506878,-0.00099321,-0.02068011,-0.01940177,-0.1014,0.2797,-9.8590,-0.007998,0.065864,-0.027790,34.1309,5.4871,36.5217,-30.8248,0.2640,190,0,0,0.011562,0.033039,-0.264599,0.007329,0.042951,-0.002691,-0.3888,-0.1234,0.7225
29260,11.0,0.005560,0.016655,-0.264459,0.011711,0.023347,-0.002436,-1.7182,-0.2477,-0.0091,-0.00002327,-0.00049543,0.00506715,-0.00066687,-0.02038942,-0.01941278,-0.0776,0.2773,-9.6322,0.001050,0.048668,-0.018610,34.1309,5.8459,35.6274,-30.8248,0.2640,188,0,0,0.011303,0.033048,-0.264275,0.001403,0.036037,0.002641,-0.4173,-0.0553,0.6863
29271,11.0,0.005536,0.016681,-0.264544,0.009119,0.019837,-0.000557,-1.7560,-0.2142,-0.0230,0.00001903,-0.00052318,0.00506605,-0.00049603,-0.02014511,-0.01881473,-0.0980,0.2219,-9.5739,-0.005654,0.017695,-0.021982,34.1309,5.8459,35.6274,-30.8248,0.2640,190,0,0,0.011204,0.033062,-0.264310,-0.000669,0.033222,0.004410,-0.4280,-0.0302,0.6720
29283,12.0,0.005604,0.016708,-0.264168,0.008198,0.016376,0.006201,-1.7887,-0.2230,-0.0467,0.00005284,-0.00052829,0.00506546,-0.00041497,-0.01969826,-0.02168622,-0.0723,0.2058,-9.6237,-0.009478,-0.017899,-0.036902,34.1309,5.8459,35.6274,-30.8248,0.2640,185,0,0,0.011139,0.033057,-0.264250,0.001321,0.030944,0.007490,-0.3700,-0.3220,0.6372
29294,11.0,0.005706,0.016656,-0.264136,0.008660,0.013905,0.006702,-1.8405,-0.2480,-0.0699,0.00009873,-0.00052644,0.00506516,-0.00042479,-0.01943991,-0.02134178,-0.0078,0.3384,-9.7338,-0.029567,-0.036649,-0.039091,34.1309,5.8459,35.6274,-30.8776,0.2650,185,0,0,0.011284,0.033035,-0.264697,0.002196,0.025553,0.005592,-0.3999,-0.3579,0.5896
29305,11.0,0.005723,0.016564,-0.264061,0.007801,0.011657,0.006881,-1.9026,-0.2388,-0.0873,0.00014983,-0.00054250,0.00506428,-0.00034564,-0.01919780,-0.02133576,-0.0276,0.3857,-9.8069,-0.042912,-0.002472,-0.029761,34.1309,5.8459,35.6274,-30.8776,0.2650,181,0,0,0.011389,0.032965,-0.264634,0.003419,0.023583,0.007024,-0.4278,-0.3841,0.5625
29316,11.0,0.005677,0.016508,-0.264491,0.006467,0.009758,0.001614,-1.9454,-0.2071,-0.0917,0.00018806,-0.00057017,0.00506307,-0.00017989,-0.01909210,-0.01742747,-0.0060,0.3503,-9.7579,-0.028036,0.021370,-0.007973,34.1309,5.8459,35.6274,-30.8776,0.2650,182,0,0,0.011424,0.032783,-0.264542,0.003521,0.020249,0.008194,-0.4909,-0.3921,0.5266
29327,11.0,0.005672,0.016492,-0.264465,0.005536,0.008197,0.003161,-1.9688,-0.1933,-0.0926,0.00021327,-0.00058641,0.00506232,-0.00010049,-0.01893884,-0.01742489,-0.0302,0.3106,-9.6811,-0.012056,0.005387,-0.000486,34.1309,5.8459,35.6274,-30.8776,0.2630,176,0,0,0.011394,0.032730,-0.263553,0.003187,0.018622,0.019387,-0.5121,-0.3846,0.5203
29338,11.0,0.005736,0.016536,-0.264474,0.004979,0.006818,0.004335,-1.9669,-0.2075,-0.0901,0.00022217,-0.00058500,0.00506231,-0.00010542,-0.01890595,-0.01700539,-0.0909,0.2349,-9.6584,0.011621,-0.021851,0.007312,34.1309,5.8459,35.6274,-30.8776,0.2630,179,0,0,0.011400,0.032700,-0.263393,0.003004,0.017362,0.020928,-0.5273,-0.3858,0.5168
29349,11.0,0.005853,0.016583,-0.264652,0.005311,0.005603,0.002993,-1.9584,-0.2435,-0.0924,0.00022172,-0.00056893,0.00506269,-0.00011376,-0.01879085,-0.01524226,-0.0806,0.2252,-9.6958,0.013706,-0.043204,-0.001006,34.1309,5.8459,35.6274,-30.8776,0.2650,186,0,0,0.011466,0.032717,-0.263172,0.003052,0.016170,0.023247,-0.5302,-0.4012,0.5177
29360,11.0,0.006023,0.016657,-0.264660,0.006643,0.004903,0.002504,-1.9408,-0.2977,-0.0970,0.00021789,-0.00054372,0.00506355,-0.00022925,-0.01881785,-0.01492289,-0.0492,0.2334,-9.8214,0.024730,-0.064711,-0.002377,32.7728,6.2047,36.5217,-30.8776,0.2650,179,0,0,0.011696,0.037765,-0.263952,0.004301,0.070877,0.013747,-0.4302,-0.4549,0.5874
29371,11.0,0.006207,0.016758,-0.264636,0.008305,0.004907,0.001777,-1.9100,-0.3535,-0.0991,0.00020283,-0.00052026,0.00506447,-0.00038111,-0.01878876,-0.01491885,-0.0235,0.2555,-9.8874,0.036763,-0.069735,0.003025,32.7728,6.2047,36.5217,-30.8776,0.2650,179,0,0,0.011874,0.037881,-0.263811,0.005859,0.064923,0.014463,-0.4323,-0.4992,0.5764
29382,11.0,0.006361,0.012008,-0.264779,0.010216,-0.055244,-0.001256,-2.4587,-0.3989,-0.0501,0.00133728,-0.00050546,0.00505954,-0.00044276,-0.01402448,-0.01351531,0.0479,0.3058,-9.9311,0.021292,-0.062169,-0.000677,32.7728,6.2047,36.5217,-30.8776,0.2650,181,0,-1,0.012060,0.038013,-0.263730,0.007560,0.060055,0.013808,-0.4267,-0.5450,0.5695
29393,11.0,0.006439,0.011947,-0.264805,0.011189,-0.050016,-0.003531,-2.3882,-0.4084,-0.0576,0.00119583,-0.00052219,0.00505957,-0.00055016,-0.01439420,-0.01354562,0.0711,0.2569,-10.0284,0.006597,-0.027763,-0.000570,32.7728,6.2047,36.5217,-30.8776,0.2630,173,0,0,0.007554,0.023262,-0.263193,-0.046749,-0.110908,0.015604,-0.6277,-0.2602,0.1524
29404,11.0,0.001659,0.011863,-0.264907,-0.048397,-0.046279,-0.006170,-2.3411,0.1500,-0.0483,0.00107844,-0.00173988,0.00502268,0.00406415,-0.01484626,-0.01336603,0.0618,0.2018,-10.0039,-0.009046,0.004680,-0.008568,32.7728,6.2047,36.5217,-30.8776,0.2630,168,-1,0,0.002636,0.023005,-0.262908,-0.090703,-0.090023,0.012891,-0.5833,-0.2627,0.1925
29415,11.0,0.001500,0.011721,-0.265416,-0.043679,-0.042534,-0.012166,-2.3174,0.1300,-0.0724,0.00098027,-0.00164632,0.00502547,0.00372466,-0.01520866,-0.01023408,0.0398,0.3080,-9.8966,-0.029409,0.033123,-0.029814,32.7728,6.2047,36.5217,-30.8776,0.2660,166,0,0,-0.002422,0.022840,-0.262857,-0.136654,-0.081859,0.010907,-0.5688,-0.2339,0.2079
29426,11.0,0.001321,0.011575,-0.265586,-0.039447,-0.038611,-0.011862,-2.3035,0.1248,-0.0908,0.00089701,-0.00156924,0.00502781,0.00345161,-0.01551309,-0.00994905,0.0750,0.3741,-9.7396,-0.032496,0.042763,-0.020636,32.7728,6.2047,36.5217,-30.8776,0.2660,172,0,0,-0.002635,0.022668,-0.264724,-0.123740,-0.074030,-0.010789,-0.5793,-0.2205,0.1963
29437,11.0,0.001279,0.011460,-0.265704,-0.033852,-0.034635,-0.009665,-2.2851,0.0797,-0.0951,0.00081570,-0.00146941,0.00503115,0.00305269,-0.01579449,-0.00996406,0.1010,0.3875,-9.6115,-0.022191,-0.008816,0.004226,32.7728,6.2047,36.5217,-30.8776,0.2660,178,0,0,-0.003033,0.022324,-0.264965,-0.100903,-0.059535,-0.008495,-0.6080,-0.1917,0.1842
29448,11.0,0.001320,0.016200,-0.264730,-0.028567,0.027650,0.004006,-1.7535,0.0170,-0.0191,-0.00055482,-0.00135965,0.00502617,0.00266167,-0.02024808,-0.01795409,0.0387,0.3261,-9.7194,-0.005773,-0.034319,0.018074,34.1309,6.2047,36.5217,-30.8776,0.2640,175,0,1,-0.003123,0.027185,-0.265037,-0.090216,0.003779,-0.006094,-0.5046,-0.1873,0.2865
29459,11.0,0.001416,0.016242,-0.264683,-0.023345,0.024488,0.004498,-1.7795,-0.0588,-0.0162,-0.00048416,-0.00124916,0.00503091,0.00226040,-0.01999094,-0.01792900,0.0258,0.2822,-9.7789,0.000425,-0.056289,0.029163,34.1309,6.2047,36.5217,-30.8776,0.2640,181,0,0,-0.003160,0.032108,-0.264464,-0.080594,0.060589,0.002436,-0.4041,-0.1964,0.3864
29470,11.0,0.001502,0.016332,-0.264691,-0.019044,0.021382,0.003050,-1.7845,-0.1227,-0.0052,-0.00043581,-0.00115412,0.00503454,0.00195655,-0.01984864,-0.01753067,0.0046,0.1977,-9.8992,0.019534,-0.048625,0.033469,34.1309,6.2047,36.5217,-30.8776,0.2640,180,0,0,-0.003060,0.032217,-0.264450,-0.062390,0.050576,0.003424,-0.4364,-0.2709,0.3890
29481,11.0,-0.003221,0.016413,-0.264234,-0.073813,0.017667,0.005963,-1.7699,0.2947,0.0240,-0.00043985,-0.00242373,0.00499638,0.00613125,-0.01860408,-0.02056842,-0.0153,0.0891,-10.0290,0.017588,-0.047083,0.012901,34.1309,6.2047,36.5217,-30.8776,0.2640,180,-1,0,-0.003007,0.032299,-0.264417,-0.054534,0.046617,0.003080,-0.3758,-0.3248,0.3237
29492,11.0,-0.008075,0.016478,-0.264227,-0.123425,0.013469,0.002372,-1.7744,0.6689,-0.0144,-0.00040624,-0.00358456,0.00496870,0.00974647,-0.01850713,-0.02029695,-0.0029,0.0381,-10.1141,0.011053,-0.034181,-0.003937,34.1309,6.2047,36.5217,-30.8776,0.2650,180,-1,0,-0.007898,0.032358,-0.264392,-0.102986,0.041579,0.001917,-0.3604,-0.3364,0.3413
29503,11.0,-0.013129,0.016525,-0.264218,-0.169191,0.010545,-0.000647,-1.7670,1.0257,-0.0874,-0.00041286,-0.00463961,0.00494577,0.01353699,-0.01770368,-0.02026361,0.0116,0.1117,-10.1058,0.007468,0.015240,-0.035526,34.1309,6.2047,36.5217,-30.8776,0.2650,175,-1,0,-0.012989,0.032459,-0.264876,-0.132296,0.031597,-0.007501,-0.3567,-0.3613,0.3236
29515,12.0,-0.013683,0.016552,-0.263489,-0.152871,0.008409,0.005969,-1.7768,0.9294,-0.0916,-0.00038318,-0.00419720,0.00495507,0.01223013,-0.01747598,-0.02534867,0.0590,0.2068,-10.0087,-0.001023,0.060918,-0.031107,34.1309,6.2047,36.5217,-30.8776,0.2630,181,0,0,-0.018123,0.032481,-0.265021,-0.174825,0.027786,-0.010529,-0.3466,-0.3394,0.3121
29526,11.0,-0.014122,0.016552,-0.263421,-0.139841,0.006817,0.006294,-1.7871,0.8695,-0.0906,-0.00036036,-0.00380868,0.00496299,0.01133471,-0.01731011,-0.02536934,-0.0180,0.2376,-9.8040,-0.005950,0.091978,-0.023832,34.1309,6.2047,36.5217,-30.9146,0.2630,183,0,0,-0.018762,0.032519,-0.263931,-0.144435,0.022989,0.000455,-0.3726,-0.2834,0.2512
29537,11.0,-0.014493,0.011724,-0.263375,-0.127909,-0.052612,0.008492,-2.2318,0.8072,-0.1233,0.00113251,-0.00344783,0.00497361,0.01025939,-0.01286422,-0.02485390,-0.0409,0.2050,-9.5968,0.000837,0.069000,-0.022347,34.1309,6.2047,36.5217,-30.9146,0.2630,178,0,-1,-0.019121,0.032515,-0.263960,-0.132800,0.020851,0.000947,-0.3885,-0.2382,0.2255
29548,11.0,-0.009850,0.011611,-0.262994,-0.057543,-0.047970,0.014564,-2.1959,0.2739,-0.0655,0.00098087,-0.00157299,0.00501601,0.00475051,-0.01314528,-0.02689050,-0.0295,0.2683,-9.5633,-0.012808,0.010765,-0.027056,34.1309,5.8459,34.7332,-30.9146,0.2630,190,1,0,-0.014692,0.027533,-0.263949,-0.056193,-0.033846,0.005692,-0.5481,-0.2264,0.0492
29560,12.0,-0.009918,0.011490,-0.262833,-0.051139,-0.042688,0.017268,-2.1598,0.2031,-0.0780,0.00083822,-0.00137649,0.00502126,0.00415623,-0.01357913,-0.02672654,-0.0387,0.3422,-9.5725,-0.004462,-0.023645,-0.019191,34.1309,5.8459,34.7332,-30.9146,0.2650,184,0,0,-0.014744,0.027451,-0.264584,-0.050857,-0.030391,0.001129,-0.5550,-0.2294,0.0343
29571,11.0,-0.009890,0.011425,-0.262631,-0.044988,-0.038448,0.019366,-2.1270,0.1291,-0.0871,0.00070559,-0.00118524,0.00502665,0.00365402,-0.01390178,-0.02677120,-0.0440,0.2938,-9.6404,-0.004403,-0.035391,-0.012951,34.1309,5.8459,34.7332,-30.9146,0.2650,184,0,0,-0.014736,0.027387,-0.264558,-0.045525,-0.026613,0.004114,-0.5575,-0.2454,0.0231
29582,11.0,-0.009858,0.011373,-0.263767,-0.039587,-0.034868,0.005126,-2.0954,0.0623,-0.1002,0.00058005,-0.00101137,0.00503189,0.00312859,-0.01446181,-0.01798958,-0.0544,0.2658,-9.6848,-0.002167,-0.033948,-0.015224,34.1309,5.8459,34.7332,-30.9146,0.2650,189,0,0,-0.014684,0.027294,-0.264475,-0.031611,-0.020031,0.008283,-0.5132,-0.6609,0.0756
29593,11.0,-0.009833,0.011319,-0.263703,-0.034575,-0.030726,0.006592,-2.0699,0.0047,-0.1180,0.00047315,-0.00085991,0.00503696,0.00271236,-0.01477542,-0.01802602,-0.0265,0.3643,-9.6868,-0.002584,-0.029655,-0.017353,34.1309,5.8459,34.7332,-30.9146,0.2630,188,0,0,-0.014618,0.027253,-0.263548,-0.027312,-0.017681,0.019269,-0.5156,-0.6861,0.0653
29604,11.0,-0.009796,0.011280,-0.263665,-0.029669,-0.026544,0.007144,-2.0446,-0.0502,-0.1300,0.00037525,-0.00072178,0.00504209,0.00232394,-0.01505738,-0.01779263,0.0029,0.4009,-9.7248,0.001845,-0.032806,-0.003655,34.1309,5.8459,34.7332,-30.9146,0.2630,181,0,0,-0.014488,0.027186,-0.263124,-0.019325,-0.011804,0.022984,-0.5174,-0.7334,0.0470
29615,11.0,-0.009739,0.011193,-0.264270,-0.025315,-0.022892,-0.000932,-2.0399,-0.1055,-0.1467,0.00030872,-0.00059062,0.00504746,0.00197610,-0.01539273,-0.01345202,-0.0206,0.4565,-9.8246,-0.017955,-0.037164,-0.006338,34.1309,5.8459,34.7332,-30.9146,0.2650,189,0,0,-0.014412,0.027149,-0.262939,-0.015628,-0.009027,0.023798,-0.5207,-0.7582,0.0423
29626,11.0,-0.009720,0.011139,-0.264316,-0.021943,-0.020454,-0.002309,-2.0298,-0.1425,-0.1576,0.00024126,-0.00048859,0.00505184,0.00171278,-0.01557344,-0.01327284,-0.0279,0.3492,-9.9083,-0.009107,-0.020621,0.001789,34.1309,5.8459,34.7332,-30.9146,0.2650,181,0,0,-0.014326,0.027079,-0.264058,-0.012299,-0.006544,0.009450,-0.5347,-0.7848,0.0348
29637,11.0,-0.009756,0.011120,-0.264349,-0.019679,-0.017975,-0.003582,-2.0112,-0.1573,-0.1675,0.00016958,-0.00041682,0.00505505,0.00154355,-0.01574943,-0.01329042,-0.0364,0.3425,-9.9323,0.003233,0.002852,0.000889,34.1309,5.8459,34.7332,-30.9146,0.2650,183,0,0,-0.014232,0.026998,-0.263911,-0.007674,-0.003704,0.008188,-0.5506,-0.8155,0.0294
29649,12.0,-0.009831,0.011151,-0.263556,-0.017801,-0.014146,0.006079,-1.9723,-0.1610,-0.1681,0.00008571,-0.00036256,0.00505781,0.00140046,-0.01578702,-0.01854069,-0.0258,0.4134,-9.8223,0.029200,0.011795,0.015154,33.7956,5.4723,35.6728,-30.9146,0.2630,186,0,0,-0.014235,0.026991,-0.263831,-0.006287,-0.002168,0.007748,-0.5497,-0.8174,0.0280
29660,11.0,-0.009827,0.011263,-0.263483,-0.015070,-0.010134,0.007261,-1.9195,-0.1824,-0.1622,-0.00000610,-0.00029342,0.00506136,0.00121418,-0.01604689,-0.01856165,0.0132,0.4057,-9.7126,0.051863,-0.010891,0.029300,33.7956,5.4723,35.6728,-30.9146,0.2630,184,0,0,-0.014247,0.027111,-0.263169,-0.003621,0.003073,0.014224,-0.5141,-0.8189,0.0449
29671,11.0,-0.009688,0.011413,-0.263443,-0.010472,-0.006904,0.006811,-1.8590,-0.2446,-0.1521,-0.00010065,-0.00018576,0.00506637,0.00096868,-0.01627450,-0.01832620,0.0728,0.3309,-9.8199,0.063712,-0.062996,0.038089,33.7956,5.4723,35.6728,-30.9146,0.2630,181,0,0,-0.014185,0.027229,-0.263059,-0.001329,0.005862,0.015349,-0.4836,-0.8360,0.0621
29682,11.0,-0.009519,0.011505,-0.264194,-0.006095,-0.005551,-0.005059,-1.8209,-0.3100,-0.1552,-0.00016770,-0.00008908,0.00507098,0.00062861,-0.01653410,-0.01332899,0.0638,0.2506,-10.0402,0.037760,-0.072335,0.015991,33.7956,5.4723,35.6728,-30.9146,0.2650,180,0,0,-0.014030,0.027373,-0.262903,0.001826,0.007261,0.015967,-0.5200,-0.8512,0.1973
29693,11.0,-0.009543,0.011502,-0.264301,-0.004210,-0.005261,-0.009206,-1.8157,-0.3106,-0.1647,-0.00019020,-0.00007589,0.00507145,0.00060177,-0.01658823,-0.01314083,0.0798,0.2694,-10.1636,0.000587,0.003696,-0.008938,33.7956,5.4723,35.6728,-30.9146,0.2650,180,0,0,-0.013706,0.027517,-0.264111,0.007907,0.007993,-0.002492,-0.4920,-0.9321,0.2068
29704,11.0,-0.009792,0.011396,-0.264413,-0.005251,-0.005724,-0.011190,-1.8437,-0.2355,-0.1833,-0.00017171,-0.00016098,0.00506835,0.00066938,-0.01654681,-0.01313726,0.0760,0.3098,-9.9987,-0.038886,0.092122,-0.028866,33.7956,5.4723,35.6728,-30.9146,0.2650,180,0,0,-0.013723,0.027499,-0.264150,0.008816,0.007471,-0.005269,-0.5001,-0.9281,0.1967
29715,11.0,-0.010172,0.011265,-0.263636,-0.008145,-0.005137,0.000864,-1.8783,-0.1205,-0.1951,-0.00014273,-0.00028610,0.00506295,0.00091672,-0.01627338,-0.01853519,0.0418,0.4273,-9.6667,-0.046458,0.143785,-0.027195,33.7956,5.4723,35.6728,-30.9146,0.2630,179,0,0,-0.013905,0.027406,-0.264261,0.007719,0.006464,-0.007360,-0.5270,-0.8837,0.1757
29726,11.0,-0.010422,0.011192,-0.263592,-0.009555,-0.003169,0.007141,-1.8945,-0.0499,-0.1938,-0.00013154,-0.00034894,0.00505992,0.00104663,-0.01625002,-0.01853354,0.0245,0.4956,-9.2461,-0.022447,0.092612,-0.001914,33.7956,5.4723,35.6728,-30.9146,0.2630,176,0,0,-0.014507,0.027165,-0.263463,0.002445,0.006783,0.006858,-0.5918,-0.7360,0.1352
29737,11.0,-0.010293,0.011182,-0.263517,-0.006546,-0.000276,0.013277,-1.8922,-0.1018,-0.1912,-0.00013543,-0.00025888,0.00506482,0.00085277,-0.01626873,-0.01828927,0.0212,0.5411,-9.2139,0.002311,-0.056262,0.029700,33.7956,5.4723,35.6728,-30.9146,0.2630,174,0,0,-0.014688,0.027100,-0.263403,0.001049,0.008148,0.012689,-0.6098,-0.6923,0.1306
29748,11.0,-0.005021,0.011230,-0.264173,0.055775,0.002517,0.007977,-1.8693,-0.5828,-0.5306,-0.00015420,0.00182280,0.00518641,-0.00365693,-0.01652407,-0.01336049,0.0530,0.5119,-9.4209,0.028029,-0.145358,0.048639,34.4726,6.1973,36.5445,-30.8565,0.2650,174,1,0,-0.014631,0.027073,-0.263243,0.002280,0.010078,0.019384,-0.6194,-0.7072,0.1372
29759,11.0,-0.004408,0.011333,-0.264143,0.058228,0.004810,0.005463,-1.8381,-0.7150,-0.4757,-0.00018057,0.00181662,0.00518580,-0.00364610,-0.01659225,-0.01307669,0.1323,0.4501,-9.9924,0.042791,-0.212342,0.081060,34.4726,6.1973,36.5445,-30.8565,0.2650,180,0,0,-0.008816,0.027206,-0.264091,0.062733,0.013928,0.014046,-0.6270,-0.9198,0.1582
29770,11.0,-0.003945,0.011421,-0.264117,0.058925,0.004982,-0.000887,-1.8156,-0.7970,-0.4105,-0.00019529,0.00173794,0.00518123,-0.00350388,-0.01661962,-0.01308041,0.1339,0.2955,-10.3980,0.032550,-0.153384,0.081927,34.4726,6.1973,36.5445,-30.8565,0.2650,178,0,0,-0.008240,0.027302,-0.263955,0.064714,0.015477,0.013174,-0.6086,-1.0454,0.2008
29781,11.0,-0.003845,0.016269,-0.264571,0.054561,0.057943,-0.013482,-1.4818,-0.7529,-0.2172,-0.00218403,0.00149716,0.00514673,-0.00317561,-0.01997380,-0.01093302,0.0446,0.0905,-10.5470,-0.027837,0.001473,0.045096,34.4726,6.1973,36.5445,-30.8565,0.2650,183,0,1,-0.012416,0.027393,-0.263877,0.008445,0.014319,0.001437,-0.5399,-1.0738,0.2272
29793,12.0,-0.004077,0.016241,-0.264762,0.046130,0.048378,-0.018275,-1.5780,-0.5951,-0.2052,-0.00188107,0.00112048,0.00513465,-0.00261355,-0.01952131,-0.01092742,0.0243,0.1353,-10.2195,-0.064830,0.134846,0.012188,34.4726,6.1973,36.5445,-30.8565,0.2630,182,0,0,-0.012450,0.032266,-0.263324,0.008681,0.067075,0.000809,-0.3973,-1.0424,0.4124
29804,11.0,-0.009342,0.025990,-0.264999,-0.019505,0.153573,-0.018362,-0.9415,-0.0615,0.1518,-0.00578470,-0.00134563,0.00500837,0.00095539,-0.02533896,-0.01112600,-0.0182,0.1560,-9.7802,-0.056722,0.175638,0.005174,34.4726,6.1973,36.5445,-30.9146,0.2630,175,-1,2,-0.018077,0.041921,-0.263379,-0.053021,0.162411,-0.004936,-0.1418,-0.8178,0.7566
29815,11.0,-0.009660,0.026116,-0.263951,-0.021603,0.136873,0.001411,-1.0665,0.0171,0.1320,-0.00511939,-0.00137857,0.00501094,0.00108441,-0.02396799,-0.01809325,-0.0989,0.2481,-9.3132,-0.026562,0.114620,0.012618,34.4726,6.1973,36.5445,-30.9146,0.2630,184,0,0,-0.023596,0.051769,-0.263198,-0.108576,0.257140,-0.000311,0.1480,-0.6554,1.0821
29826,11.0,-0.004706,0.031041,-0.263927,0.036797,0.177258,0.007564,-0.7909,-0.3242,-1.2864,-0.00672252,0.00081505,0.00534693,-0.00231558,-0.02420439,-0.01780382,-0.1080,0.2343,-9.2373,-0.007421,0.017132,0.024240,34.4726,6.1973,36.5445,-30.9146,0.2630,183,1,1,-0.023968,0.051968,-0.263175,-0.101182,0.231853,0.004974,0.0465,-0.6075,1.0042
29837,11.0,0.000652,0.036070,-0.263822,0.088934,0.213082,0.011529,-0.6310,-0.4153,-1.1157,-0.00778501,0.00157792,0.00534020,-0.02830081,-0.03085152,-0.01785370,-0.1483,0.2302,-9.4660,0.004236,-0.098576,0.034488,34.4726,6.1973,36.5445,-30.9146,0.2630,178,1,1,-0.014393,0.062502,-0.262994,0.018181,0.297427,0.016309,0.1646,-0.6268,1.1521
29848,11.0,0.006029,0.036266,-0.262772,0.136732,0.189449,0.023039,-0.8071,-0.5739,-1.3010,-0.00670299,0.00250009,0.00540323,-0.04790051,-0.03180278,-0.02300885,-0.0889,0.2041,-9.7530,0.005484,-0.138539,0.033308,34.1330,6.1973,35.2029,-30.9146,0.2620,181,1,0,-0.009193,0.062934,-0.262325,0.073117,0.269957,0.025594,0.0496,-0.7249,1.0514
29859,11.0,0.006510,0.036446,-0.262536,0.126769,0.168568,0.019916,-0.9329,-0.6607,-1.4049,-0.00593120,0.00238180,0.00542182,-0.04167254,-0.02929031,-0.02301021,-0.0680,0.1792,-10.1144,-0.022720,-0.126367,0.028514,34.1330,6.1973,35.2029,-30.9146,0.2620,184,0,0,-0.003861,0.063327,-0.262094,0.124261,0.244842,0.026647,-0.0563,-0.8395,0.9593
29870,11.0,0.006841,0.041437,-0.262388,0.115755,0.203544,0.013675,-0.7366,-0.6344,-1.1716,-0.00733178,0.00202578,0.00536962,-0.03876064,-0.03126249,-0.02277869,-0.0819,0.0540,-10.3573,-0.039606,-0.022777,0.009771,34.1330,6.1973,35.2029,-30.9146,0.2620,184,0,1,-0.003147,0.068629,-0.261655,0.107170,0.253627,0.020545,-0.0481,-0.9626,1.0267
29881,11.0,0.001937,0.046631,-0.262645,0.049598,0.238386,0.005195,-0.4939,-0.4817,-0.9016,-0.00884846,0.00058742,0.00527898,-0.01147926,-0.02938499,-0.02067610,-0.0772,0.1503,-10.1925,-0.021485,0.084093,-0.001312,34.1330,6.1973,35.2029,-30.9146,0.2630,187,-1,1,-0.003093,0.073718,-0.261472,0.097534,0.283442,0.015756,0.0964,-1.0350,1.0084
29892,11.0,-0.003123,0.051874,-0.262601,-0.011142,0.270631,0.003755,-0.2711,-0.3243,-0.6625,-0.01020229,-0.00075467,0.00519678,0.01322050,-0.02754402,-0.02067474,-0.0974,0.2317,-9.9537,-0.009884,0.106794,0.000107,34.1330,6.1973,35.2029,-31.0044,0.2630,187,-1,1,-0.008166,0.078794,-0.262386,0.031549,0.310273,0.000659,0.2041,-0.9643,1.1376
29903,11.0,-0.003302,0.057157,-0.262546,-0.012661,0.299655,0.006295,-0.1050,-0.2489,-0.4990,-0.01121176,-0.00086180,0.00516611,0.01195338,-0.02966237,-0.02062678,-0.1103,0.2881,-9.5990,0.018439,0.088008,0.023486,34.1330,6.1973,35.2029,-31.0044,0.2630,191,0,1,-0.013777,0.089198,-0.262399,-0.030661,0.359809,-0.000205,0.3833,-0.8073,1.3325
29914,11.0,-0.003381,0.057605,-0.262210,-0.012746,0.269927,0.012484,-0.2711,-0.2573,-0.6723,-0.00992783,-0.00072640,0.00520436,0.01355709,-0.02715470,-0.02207747,-0.1297,0.2445,-9.5286,0.021584,0.024643,0.033015,34.1330,6.1973,35.2029,-31.0044,0.2620,191,0,0,-0.014120,0.094545,-0.262397,-0.031570,0.382509,0.002191,0.4595,-0.7500,1.4124
29925,11.0,-0.003280,0.057947,-0.262060,-0.011661,0.241968,0.014784,-0.4417,-0.3103,-0.8383,-0.00872335,-0.00055407,0.00524073,0.01416919,-0.02507287,-0.02217579,-0.2040,0.2019,-9.6190,-0.004927,-0.044173,0.022524,34.1330,6.1973,35.2029,-31.0044,0.2620,188,0,0,-0.014215,0.095384,-0.262029,-0.026981,0.313726,0.010867,0.2368,-0.7810,1.2045
29936,11.0,-0.003075,0.063108,-0.261899,-0.005499,0.273064,0.015529,-0.1638,-0.6491,-0.6910,-0.01076856,0.00209740,0.00548212,0.02953345,-0.02035637,-0.02182146,-0.1180,0.1911,-9.7558,-0.001228,-0.067674,0.027858,34.1330,6.1973,35.2029,-31.0044,0.2620,193,0,1,-0.014115,0.095703,-0.261917,-0.023660,0.283386,0.013028,0.1277,-0.8293,1.1096
29947,11.0,-0.002818,0.068293,-0.261870,-0.003872,0.298211,0.012139,-0.0356,-0.6785,-0.5446,-0.01173171,0.00205240,0.00545053,0.02630493,-0.02275974,-0.02101004,-0.2325,0.0527,-9.9992,-0.016561,-0.073177,0.021120,33.4497,6.2121,36.4988,-31.0044,0.2620,189,0,1,-0.014063,0.100919,-0.261780,-0.021027,0.311866,0.014165,0.2145,-0.8585,1.2120
29958,11.0,0.002198,0.068597,-0.261763,0.051020,0.265167,0.008245,-0.2783,-0.7776,-0.7961,-0.01016428,0.00331771,0.00554414,0.00352266,-0.02401568,-0.02107509,-0.0723,0.1038,-10.1762,-0.021584,-0.047138,0.004354,33.4497,6.2121,36.4988,-31.0044,0.2620,185,1,0,-0.008933,0.106582,-0.261740,0.038921,0.303168,0.009043,0.1300,-0.9724,1.1583
29969,11.0,0.002332,0.068902,-0.261699,0.047394,0.236231,0.003480,-0.4447,-0.8198,-0.9703,-0.00897025,0.00335843,0.00558203,0.00765339,-0.02139919,-0.02122989,-0.0699,0.0897,-10.2619,-0.019827,-0.028156,-0.009978,33.4497,6.2121,36.4988,-30.9516,0.2620,182,0,0,-0.008769,0.106848,-0.261666,0.037253,0.272290,0.005824,0.0131,-1.0188,1.0549
29980,11.0,0.002270,0.064290,-0.261310,0.042899,0.155386,0.002628,-0.9119,-0.8853,-1.4499,-0.00560682,0.00360356,0.00569246,0.01606720,-0.01497348,-0.02370068,-0.0455,0.1513,-10.3081,-0.035232,0.009521,-0.024244,33.4497,6.2121,36.4988,-30.9516,0.2610,178,0,-1,-0.008633,0.107081,-0.261662,0.035493,0.244267,0.001560,-0.0943,-1.0577,0.9561
29991,11.0,0.007024,0.064313,-0.261303,0.090845,0.137629,-0.001121,-1.0736,-0.9002,-1.6188,-0.00463575,0.00472340,0.00576130,-0.00361995,-0.01706123,-0.02371022,0.0225,0.3304,-10.1706,-0.026058,0.067006,-0.011838,33.4497,6.2121,36.4988,-30.9516,0.2610,175,1,0,-0.008521,0.102450,-0.261259,0.029047,0.146229,-0.002420,-0.4452,-0.8511,0.4470
30002,11.0,0.006897,0.064471,-0.261352,0.080856,0.123321,-0.003363,-1.1536,-0.8502,-1.6929,-0.00402382,0.00451394,0.00577215,0.00299107,-0.01510716,-0.02366771,0.0269,0.2704,-10.0054,-0.011324,0.091520,0.009190,33.4497,6.2121,36.4988,-30.9516,0.2610,176,0,0,-0.003729,0.102569,-0.261300,0.080082,0.131904,-0.005562,-0.5490,-0.8444,0.3447
30014,12.0,0.011408,0.064649,-0.261132,0.121067,0.109706,-0.000089,-1.2608,-0.8539,-1.8140,-0.00325870,0.00548219,0.00582978,-0.01328208,-0.01704184,-0.02499800,0.0321,0.3250,-9.8082,0.011053,0.065722,0.009930,33.4497,6.2121,36.4988,-30.9516,0.2610,175,1,0,-0.003980,0.102764,-0.261172,0.063626,0.107024,-0.005175,-0.6454,-0.7569,0.2614
30025,11.0,0.011464,0.064815,-0.261148,0.109607,0.100023,0.000709,-1.3038,-0.8367,-1.8605,-0.00279310,0.00520106,0.00583317,-0.00622637,-0.01517530,-0.02497102,0.0424,0.3946,-9.7341,0.014404,0.031891,0.015571,33.4497,6.2121,36.4988,-30.9516,0.2610,177,0,0,0.000844,0.102910,-0.261222,0.111144,0.097129,-0.004727,-0.7125,-0.7463,0.1889
30036,11.0,0.011725,0.069745,-0.261138,0.101763,0.145577,0.001031,-1.0679,-0.7841,-1.6109,-0.00468802,0.00474171,0.00576033,-0.00434536,-0.01730310,-0.02483961,0.1053,0.4193,-9.8043,-0.022679,0.009684,0.007183,33.4497,6.2121,36.4988,-30.9516,0.2610,174,0,1,0.000917,0.108004,-0.261321,0.091796,0.137379,-0.002610,-0.5597,-0.6866,0.3493
30047,11.0,0.011802,0.069834,-0.260478,0.085015,0.127737,0.007697,-1.3709,-0.1234,-1.9164,-0.00257946,-0.00532148,0.00662234,-0.02259033,-0.02777896,-0.02863284,0.1047,0.2858,-9.9076,-0.043749,0.022193,0.009551,33.4540,6.1973,37.4388,-31.0044,0.2600,169,0,0,0.000995,0.108068,-0.261346,0.084872,0.124517,-0.002224,-0.6256,-0.6908,0.3018
30058,11.0,0.011732,0.069847,-0.260402,0.076115,0.111655,0.006167,-1.4828,-0.0949,-2.0038,-0.00195359,-0.00548633,0.00664599,-0.01657778,-0.02573490,-0.02870465,0.1226,0.1705,-9.9753,-0.060116,0.053419,-0.012915,33.4540,6.1973,37.4388,-31.0044,0.2600,176,0,0,0.001040,0.108088,-0.260462,0.078182,0.111503,0.007109,-0.6974,-0.6879,0.2579
30069,11.0,0.011721,0.074753,-0.260337,0.067868,0.154585,0.006573,-1.2606,0.0187,-1.7789,-0.00378232,-0.00592339,0.00653885,-0.01509031,-0.02761281,-0.02856174,0.0833,0.3526,-9.7896,-0.031138,0.098677,-0.012980,33.4540,6.1973,37.4388,-31.0044,0.2600,169,0,1,0.000902,0.112906,-0.260343,0.063969,0.142296,0.005692,-0.6368,-0.5970,0.3668
30080,11.0,0.011436,0.074965,-0.260623,0.057578,0.142193,0.006103,-1.3365,0.0974,-1.8524,-0.00307801,-0.00609566,0.00656529,-0.00887853,-0.02557722,-0.02669616,0.0310,0.5989,-9.4665,0.009749,0.133166,0.022799,33.4540,6.1973,37.4388,-31.0044,0.2610,175,0,0,0.000736,0.112983,-0.260281,0.053656,0.129284,0.007122,-0.6769,-0.2835,0.2096
30091,11.0,0.011231,0.075192,-0.260527,0.049158,0.131752,0.012414,-1.3955,0.1551,-1.8999,-0.00244240,-0.00623250,0.00658944,-0.00378900,-0.02372212,-0.02671047,0.0309,0.6303,-9.2424,0.023468,0.098260,0.049156,33.4540,6.1973,37.4388,-31.0044,0.2610,175,0,0,0.000483,0.113110,-0.260670,0.045719,0.119560,0.005730,-0.7200,-0.2145,0.1708
30102,11.0,0.011380,0.075341,-0.260365,0.043957,0.120755,0.017079,-1.4706,0.1224,-1.9451,-0.00180835,-0.00625693,0.00661807,-0.00097618,-0.02227387,-0.02674158,-0.1013,0.5507,-9.3997,0.000525,-0.040862,0.051719,33.4540,6.1973,37.4388,-30.9727,0.2610,171,0,0,0.005124,0.113418,-0.260447,0.087966,0.103885,0.017289,-0.8191,-0.1584,0.0962
30113,11.0,0.011828,0.075330,-0.259499,0.044044,0.108227,0.024394,-1.5857,0.0081,-2.0013,-0.00114534,-0.00618633,0.00665239,0.00011447,-0.02105442,-0.03018783,0.0423,0.4776,-9.8838,-0.054306,-0.165146,0.038917,33.4540,6.1973,37.4388,-30.9727,0.2590,178,0,0,0.005341,0.113496,-0.259566,0.080172,0.095825,0.029260,-0.8593,-0.1936,0.0848
30124,11.0,0.012265,0.075264,-0.259266,0.044223,0.095712,0.017951,-1.7079,-0.1036,-2.0506,-0.00051094,-0.00612530,0.00668494,0.00125881,-0.02008560,-0.03021271,0.0477,0.4276,-10.4155,-0.071178,-0.162154,0.042952,33.4540,6.1973,37.4388,-30.9727,0.2590,172,0,0,0.006251,0.113392,-0.258982,0.074294,0.077906,0.027286,-1.0068,-0.3911,0.0458
30135,11.0,0.007530,0.075346,-0.259145,-0.011201,0.086046,0.007567,-1.7617,-0.0865,-2.0299,-0.00020617,-0.00756339,0.00663202,0.02724698,-0.01430622,-0.03009724,0.0225,0.3696,-10.7558,-0.077069,-0.035714,0.034625,34.1309,5.4871,36.0745,-30.9727,0.2590,174,-1,0,0.006654,0.113284,-0.258767,0.071550,0.068937,0.020190,-1.0887,-0.4781,0.0275
30147,12.0,0.007210,0.075392,-0.259532,-0.012165,0.075380,-0.007016,-1.8634,-0.0193,-2.0582,0.00030579,-0.00756012,0.00665616,0.02892129,-0.01365475,-0.02805545,0.0906,0.3588,-10.6426,-0.057556,0.103390,0.054470,34.1309,5.4871,36.0745,-30.9727,0.2600,174,0,0,0.001955,0.113157,-0.258608,0.013059,0.060634,0.011512,-1.1248,-0.4859,0.0578
30159,12.0,0.006714,0.080019,-0.259643,-0.013637,0.116198,-0.009470,-1.7296,-0.0245,-1.6793,0.00009311,-0.00337697,0.00399004,0.03121160,-0.01731116,-0.02799064,-0.0053,0.3185,-10.0253,-0.020038,0.237015,0.064146,34.1309,5.4871,36.0745,-30.9727,0.2600,168,0,1,0.001408,0.117893,-0.259527,0.006054,0.102326,-0.011803,-1.0163,-0.3146,0.2802
30170,11.0,0.006068,0.080206,-0.259729,-0.019385,0.104723,-0.006128,-1.7805,0.1222,-1.6992,0.00061524,-0.00343672,0.00404011,0.03437853,-0.01616015,-0.02799355,-0.0313,0.3397,-9.5266,0.018740,0.242003,0.075869,34.1309,5.4871,36.0745,-30.9727,0.2590,165,0,0,0.000881,0.117935,-0.259656,-0.000126,0.091483,-0.013863,-1.0723,-0.1889,0.2690
30181,11.0,0.005702,0.080532,-0.259284,-0.022025,0.094173,0.006491,-1.7797,0.2028,-1.6893,0.00100614,-0.00342674,0.00408033,0.03564020,-0.01532311,-0.03028345,-0.0477,0.1387,-9.1892,0.076635,0.134622,0.096321,34.1309,5.4871,36.0745,-30.9727,0.2590,175,0,0,0.009553,0.123151,-0.259374,0.096130,0.130445,-0.001449,-0.9589,-0.0915,0.4306
30193,12.0,0.010527,0.089731,-0.259161,0.031278,0.183102,0.013481,-1.3175,0.2394,-1.2396,-0.00276075,-0.00253580,0.00374630,0.00559589,-0.02615860,-0.03037015,0.0604,0.1963,-9.2579,0.044453,-0.025167,0.061855,34.1309,5.4871,36.0745,-30.9727,0.2590,177,1,2,0.009385,0.123453,-0.259374,0.083682,0.117949,0.005039,-0.9538,-0.0290,0.4431
30204,11.0,0.015697,0.089859,-0.259012,0.083245,0.162218,0.017293,-1.4660,0.1334,-1.3632,-0.00167312,-0.00111262,0.00393288,-0.01621311,-0.02913756,-0.03036131,0.0815,0.2550,-9.4657,0.013967,-0.080622,0.057381,34.1309,5.4871,36.0745,-30.9727,0.2590,180,1,0,0.019419,0.133845,-0.259147,0.170940,0.197352,0.016651,-0.6538,-0.0433,0.7622
30215,11.0,0.015931,0.089948,-0.259977,0.077443,0.143649,0.004738,-1.5798,0.0826,-1.4163,-0.00085635,-0.00120856,0.00401109,-0.01171776,-0.02745926,-0.02483388,0.1305,0.2511,-9.7578,-0.031408,-0.062477,0.060390,34.1309,5.4871,36.0745,-30.9727,0.2610,187,0,0,0.024687,0.134124,-0.260257,0.211321,0.178346,0.006002,-0.7607,-0.1165,0.6794
30226,11.0,0.016089,0.089999,-0.259942,0.070712,0.126110,0.004281,-1.6888,0.0518,-1.4581,-0.00012439,-0.00131918,0.00407978,-0.00733689,-0.02569844,-0.02474692,0.0520,0.1919,-9.8577,-0.040876,-0.034386,0.061509,34.1309,5.4871,36.0745,-30.9727,0.2610,187,0,0,0.025048,0.134233,-0.260191,0.193929,0.159779,0.007238,-0.8403,-0.1596,0.6490
30237,11.0,0.021243,0.094837,-0.259902,0.116874,0.162433,0.002854,-1.5307,0.0453,-1.2658,-0.00177053,-0.00026237,0.00396514,-0.03074411,-0.03123548,-0.02481778,0.0010,0.0858,-9.9646,-0.029123,-0.017933,0.053119,34.1309,5.4871,36.0745,-30.9727,0.2590,184,1,1,0.030443,0.139318,-0.260068,0.214065,0.182052,0.006681,-0.8064,-0.1900,0.7949
30248,11.0,0.021504,0.099884,-0.259357,0.105491,0.197837,0.007575,-1.3319,0.0824,-1.0433,-0.00342930,-0.00074168,0.00377351,-0.02815054,-0.03273352,-0.02724885,-0.0376,0.1325,-9.9522,-0.006841,-0.011440,0.054689,33.7914,5.1283,37.4159,-30.9727,0.2590,189,0,1,0.030633,0.144311,-0.259384,0.192957,0.217147,0.012436,-0.6580,-0.1669,0.9918
30259,11.0,0.021690,0.100184,-0.259286,0.095172,0.176498,0.005351,-1.4117,0.0541,-1.1071,-0.00253346,-0.00093081,0.00385439,-0.02226924,-0.03030467,-0.02722061,-0.0241,0.1490,-10.0388,0.027088,-0.029832,0.045913,33.7914,5.1283,37.4159,-30.9727,0.2590,185,0,0,0.030775,0.149383,-0.259280,0.173314,0.249678,0.011360,-0.5138,-0.1446,1.1741
30270,11.0,0.021844,0.100445,-0.259291,0.081824,0.154275,0.000830,-1.6408,0.2764,-1.0633,0.00186666,-0.00681551,0.00092990,-0.01544635,-0.02755174,-0.02701182,-0.0273,0.0909,-10.2059,0.023801,-0.026502,0.032603,33.7914,5.1283,37.4159,-30.9146,0.2590,191,0,0,0.036125,0.150094,-0.259137,0.196070,0.202304,0.007158,-0.6900,-0.2202,1.0114
30281,11.0,0.021921,0.100630,-0.259627,0.072522,0.136255,-0.007884,-1.7205,0.2694,-1.1354,0.00256271,-0.00694824,0.00104226,-0.01052320,-0.02586549,-0.02551165,-0.0306,0.1455,-10.2938,0.003279,-0.001821,0.007742,33.7914,5.1283,37.4159,-30.9146,0.2600,186,0,0,0.036397,0.150348,-0.259617,0.176256,0.181020,-0.002159,-0.7685,-0.0873,1.0105
30292,11.0,0.021749,0.100744,-0.259762,0.061303,0.119745,-0.011546,-1.8055,0.3234,-1.2048,0.00319812,-0.00713042,0.00114089,-0.00501227,-0.02414006,-0.02533382,-0.0613,0.1642,-10.1344,-0.017730,0.091040,0.001096,33.7914,5.1283,37.4159,-30.9146,0.2600,186,0,0,0.036679,0.150709,-0.259784,0.142911,0.144550,-0.010696,-0.8878,-0.0868,0.8912
30303,11.0,0.021446,0.100767,-0.259891,0.049902,0.104693,-0.011835,-1.9019,0.4077,-1.2761,0.00378440,-0.00732240,0.00122980,0.00043670,-0.02233416,-0.02529751,-0.0560,0.2137,-9.8606,-0.045950,0.137211,-0.011346,33.7914,5.1283,37.4159,-30.9146,0.2600,184,0,0,0.036601,0.150801,-0.259902,0.126285,0.128513,-0.013010,-0.9538,-0.0372,0.8335
30314,11.0,0.026014,0.100685,-0.259394,0.090842,0.089186,-0.001432,-2.0361,0.4533,-1.3901,0.00450348,-0.00616072,0.00142275,-0.01757557,-0.02460871,-0.02821340,-0.1167,0.1530,-9.5357,-0.040998,0.137197,-0.011127,33.7914,5.1283,37.4159,-30.9146,0.2590,172,1,0,0.036424,0.150822,-0.259418,0.110271,0.113679,-0.006409,-1.0303,0.0330,0.7724
30326,12.0,0.025955,0.100863,-0.259373,0.076989,0.078031,0.004906,-2.0821,0.5191,-1.4368,0.00489673,-0.00643118,0.00147344,-0.01164296,-0.02300784,-0.02816378,-0.0916,0.1843,-9.3101,-0.002752,0.090324,-0.009588,33.7914,5.1283,37.4159,-30.9146,0.2590,171,0,0,0.040963,0.150931,-0.259484,0.129754,0.088055,0.000635,-1.1875,0.1575,0.6339
30337,11.0,0.026045,0.100960,-0.259327,0.067985,0.069974,0.010607,-2.1157,0.5158,-1.4758,0.00524260,-0.00660363,0.00152155,-0.00762590,-0.02177995,-0.02792639,-0.0261,0.3440,-9.2683,0.010208,-0.008508,-0.007941,33.7893,6.2121,36.4988,-30.9146,0.2590,167,0,0,0.040910,0.151011,-0.259502,0.114037,0.078096,0.005688,-1.2171,0.2022,0.5972
30348,11.0,0.026222,0.100988,-0.259528,0.060972,0.063051,0.011868,-2.1624,0.4880,-1.5062,0.00558547,-0.00672701,0.00157168,-0.00451145,-0.02070364,-0.02631314,-0.0230,0.4422,-9.3466,-0.010499,-0.046138,0.004428,33.7893,6.2121,36.4988,-30.9146,0.2600,167,0,0,0.041000,0.151110,-0.259415,0.101799,0.070443,0.011648,-1.2358,0.2075,0.5651
30360,12.0,0.026515,0.100999,-0.259409,0.056471,0.055978,0.013037,-2.2291,0.4376,-1.5298,0.00593709,-0.00681678,0.00162535,-0.00198033,-0.01971333,-0.02612430,0.0838,0.4482,-9.6956,-0.035524,-0.074694,0.014783,33.7893,6.2121,36.4988,-30.9146,0.2600,169,0,0,0.041429,0.151155,-0.259585,0.084479,0.058333,0.016442,-1.3053,0.1465,0.5145
30371,11.0,0.026784,0.100886,-0.259274,0.053222,0.048728,0.011484,-2.3072,0.3800,-1.5508,0.00628602,-0.00688525,0.00168004,0.00015153,-0.01884515,-0.02608906,0.1139,0.4468,-9.9662,-0.056890,-0.091681,0.019791,33.7893,6.2121,36.4988,-30.9146,0.2590,169,0,0,0.041685,0.151117,-0.259411,0.078468,0.052631,0.018350,-1.3528,0.1017,0.4948
30383,12.0,0.026906,0.100855,-0.258973,0.049428,0.045050,0.009122,-2.0729,0.2934,-1.6990,0.00090413,-0.00486056,0.00767299,-0.00035175,-0.01508977,-0.02678190,0.0818,0.2886,-10.2101,-0.049844,-0.012381,0.010992,33.7893,6.2121,36.4988,-30.9146,0.2590,164,0,0,0.042194,0.150939,-0.258900,0.068890,0.040226,0.016972,-1.4694,0.0077,0.4540
30394,11.0,0.026786,0.100742,-0.258889,0.044038,0.040964,0.006168,-2.1385,0.3300,-1.7106,0.00117246,-0.00499987,0.00773334,0.00313271,-0.01411836,-0.02673419,0.1975,0.6049,-10.0887,-0.056801,0.054677,0.034284,33.7893,6.2121,36.4988,-30.9146,0.2590,166,0,0,0.042304,0.150842,-0.258786,0.063616,0.035505,0.013199,-1.3792,-0.0412,0.2929
30405,11.0,0.026765,0.105606,-0.258878,0.038988,0.091029,0.003082,-1.9148,0.4301,-1.4840,-0.00089282,-0.00532699,0.00714723,0.00245015,-0.01675666,-0.02666415,0.1251,0.4739,-10.0613,-0.042612,0.075726,-0.006100,33.7893,6.2121,36.4988,-30.9146,0.2600,161,0,1,0.042139,0.155524,-0.259369,0.051185,0.084320,-0.000434,-1.2328,0.0621,0.5191
30416,11.0,0.026683,0.110430,-0.259388,0.034230,0.135628,-0.002287,-1.7441,0.5317,-1.2813,-0.00268386,-0.00562893,0.00663681,0.00219619,-0.01906125,-0.02435553,0.1669,0.5286,-9.7363,-0.075580,0.088421,0.007284,33.7893,6.2121,36.4988,-30.9516,0.2600,164,0,1,0.041982,0.160333,-0.259397,0.044696,0.131006,-0.001243,-1.0673,0.1394,0.7274
30427,11.0,0.026618,0.115436,-0.259426,0.029332,0.176500,-0.001062,-1.5558,0.6217,-1.0752,-0.00433654,-0.00589868,0.00616675,0.00181525,-0.02110457,-0.02434804,0.0975,0.4636,-9.6918,-0.022325,0.075458,0.039160,33.7893,6.2121,36.4988,-30.9516,0.2600,158,0,1,0.041766,0.165161,-0.259405,0.038255,0.173419,-0.000206,-0.9305,0.2209,0.9140
30438,11.0,0.026673,0.120619,-0.259430,0.025836,0.211164,0.000337,-1.3441,0.6742,-0.8684,-0.00588731,-0.00611073,0.00572952,0.00075151,-0.02285359,-0.02441971,0.0743,0.1193,-9.7083,0.032354,0.021819,0.057597,33.7914,4.7695,36.5217,-30.9516,0.2590,159,0,1,0.041340,0.175214,-0.259156,0.026134,0.247440,0.005795,-0.6291,0.3573,1.2873
30449,11.0,0.026812,0.125784,-0.259163,0.023474,0.240859,0.002705,-1.1734,0.6946,-0.7130,-0.00723065,-0.00627146,0.00535409,-0.00053083,-0.02471116,-0.02564555,0.0639,0.0384,-9.9023,0.009944,-0.018455,0.016940,33.7914,4.7695,36.5217,-30.9516,0.2590,161,0,1,0.041211,0.180412,-0.259091,0.021495,0.277612,0.007219,-0.4697,0.3922,1.4619
30460,11.0,0.026841,0.126107,-0.259142,0.021339,0.214746,0.001093,-1.2863,0.6734,-0.8370,-0.00614921,-0.00623628,0.00564826,0.00205493,-0.02279292,-0.02558235,0.1305,0.1406,-9.9798,0.014653,-0.008794,-0.007849,33.7914,4.7695,36.5217,-30.9516,0.2590,169,0,0,0.041192,0.185964,-0.258979,0.017051,0.272668,0.006299,-0.4568,0.3750,1.4711
30471,11.0,0.026732,0.126315,-0.259171,0.018241,0.190855,-0.001701,-1.4131,0.6867,-0.9633,-0.00513738,-0.00624027,0.00592094,0.00507715,-0.02107914,-0.02540645,0.1557,0.1975,-10.0561,-0.019095,0.043002,-0.023166,33.7914,4.7695,36.5217,-30.9516,0.2600,168,0,0,0.041205,0.186272,-0.258968,0.016078,0.244791,0.004256,-0.5713,0.3558,1.3388
30482,11.0,0.026520,0.126458,-0.259579,0.014060,0.168959,-0.007312,-1.5387,0.7269,-1.0888,-0.00422127,-0.00627310,0.00616537,0.00823522,-0.01946378,-0.02370715,0.1280,0.2000,-9.9382,-0.035314,0.082087,-0.039075,33.7914,4.7695,36.5217,-30.9516,0.2600,165,0,0,0.041122,0.186490,-0.259609,0.015024,0.218523,-0.004745,-0.7569,0.2987,1.2510
30493,11.0,0.031170,0.126445,-0.259662,0.065063,0.145917,-0.005785,-1.9668,0.5612,-1.1584,0.00076444,-0.00107351,0.00129713,-0.01251152,-0.02706828,-0.02404172,0.1673,0.3988,-9.6712,-0.050947,0.101322,-0.032047,33.7914,4.7695,36.5217,-30.9833,0.2600,172,1,0,0.040744,0.186723,-0.259737,0.009511,0.174004,-0.005727,-0.9939,0.3654,1.0038
30504,11.0,0.031135,0.131327,-0.259706,0.057409,0.184300,-0.002259,-1.8196,0.6483,-0.9999,-0.00070293,-0.00138347,0.00070834,-0.01137802,-0.02889380,-0.02405895,0.1330,0.5027,-9.5011,-0.053292,0.078638,-0.018233,33.7914,4.7695,36.5217,-30.9833,0.2590,176,0,1,0.045421,0.186860,-0.259784,0.060388,0.156472,-0.003667,-1.1488,0.3889,0.8495
30515,11.0,0.036129,0.136141,-0.259252,0.104176,0.216817,0.005755,-1.7484,0.6490,-0.9062,-0.00178309,-0.00048044,0.00039737,-0.03217631,-0.03426456,-0.02634154,0.1646,0.4764,-9.5858,-0.064725,0.011120,-0.009171,33.7914,4.7695,36.5217,-30.9833,0.2590,175,1,1,0.045231,0.191750,-0.259296,0.051850,0.196374,0.005123,-1.0049,0.4653,1.0158
30526,11.0,0.036474,0.141065,-0.259187,0.095542,0.246147,0.005979,-1.6483,0.6414,-0.7765,-0.00293542,-0.00077318,-0.00007021,-0.03037369,-0.03551054,-0.02634406,0.0846,0.3795,-9.8087,-0.069172,-0.060144,-0.009486,33.7914,4.7695,36.5217,-30.9833,0.2590,172,0,1,0.050098,0.201686,-0.259140,0.088957,0.264293,0.009942,-0.8299,0.4965,1.2562
30537,11.0,0.036714,0.141316,-0.259150,0.086907,0.220333,0.003378,-1.7809,0.5916,-0.8852,-0.00185978,-0.00086730,0.00032567,-0.02521456,-0.03314059,-0.02618532,0.0572,0.3793,-10.0463,-0.013433,-0.053635,0.011433,33.7935,5.1209,36.5445,-30.9833,0.2590,182,0,0,0.050231,0.206674,-0.259059,0.080362,0.292440,0.009994,-0.7414,0.4832,1.3808
30548,11.0,0.036956,0.146463,-0.259529,0.079769,0.250943,-0.004505,-1.6195,0.6066,-0.7267,-0.00311286,-0.00115197,-0.00017880,-0.02397866,-0.03444781,-0.02451036,0.1450,0.3171,-10.1254,0.009034,-0.028276,0.021112,33.7935,5.1209,36.5445,-30.9833,0.2600,180,0,1,0.050456,0.206918,-0.258966,0.074004,0.263334,0.008649,-0.8855,0.4278,1.2506
30559,11.0,0.032137,0.146933,-0.259610,0.020329,0.226709,-0.008127,-1.6647,0.6385,-0.7683,-0.00226983,-0.00246741,-0.00000331,0.00215854,-0.02846466,-0.02408767,0.1722,0.3183,-10.1431,0.045063,0.004875,0.033351,33.7935,5.1209,36.5445,-30.9833,0.2600,174,-1,0,0.045712,0.212335,-0.259626,0.007731,0.263930,-0.003890,-0.8112,0.4214,1.3294
30570,11.0,0.032060,0.147321,-0.259717,0.017596,0.203255,-0.011257,-1.7487,0.6458,-0.8521,-0.00131730,-0.00245845,0.00035769,0.00491612,-0.02695455,-0.02404017,0.1420,0.2548,-10.1127,0.044469,0.035831,0.034344,33.7935,5.1209,36.5445,-31.0996,0.2600,181,0,0,0.045711,0.212710,-0.259679,0.007645,0.238816,-0.006737,-0.9016,0.4030,1.2257
30581,11.0,0.031914,0.147663,-0.259842,0.014456,0.181988,-0.013248,-1.8264,0.6716,-0.9277,-0.00045928,-0.00246937,0.00068071,0.00769704,-0.02557254,-0.02403652,0.1482,0.2536,-10.0202,0.037029,0.061628,0.030682,33.7935,5.1209,36.5445,-31.0996,0.2600,189,0,0,0.045660,0.213060,-0.259852,0.006798,0.215749,-0.010367,-0.9805,0.3990,1.1355
30592,11.0,0.031713,0.147912,-0.259989,0.010972,0.162278,-0.013302,-1.9129,0.7112,-1.0096,0.00033199,-0.00249296,0.00097679,0.01044297,-0.02420420,-0.02398842,0.1420,0.2616,-9.8335,0.010485,0.081328,0.008085,33.7935,5.1209,36.5445,-31.0996,0.2600,185,0,0,0.045363,0.213627,-0.260068,0.004562,0.174577,-0.013085,-1.1277,0.3684,0.9555
30603,11.0,0.036272,0.143142,-0.260092,0.061193,0.089245,-0.009926,-2.3546,0.5130,-1.3737,0.00367585,0.00236735,0.00149928,-0.00779170,-0.02633364,-0.02432988,0.1051,0.3439,-9.5469,-0.011977,0.095642,0.005179,33.7935,5.1209,36.5445,-31.0996,0.2600,182,1,-1,0.049944,0.209164,-0.260320,0.055042,0.084820,-0.010857,-1.5755,0.3753,0.4840
30615,12.0,0.040692,0.138655,-0.259952,0.101130,0.026523,-0.002130,-2.7001,0.4564,-1.6889,0.00619194,0.00335323,0.00283989,-0.01957398,-0.02520052,-0.02535952,0.1086,0.2801,-9.3993,-0.030295,0.040733,-0.003355,33.7935,5.1209,36.5445,-31.0996,0.2600,178,1,-1,0.054735,0.204363,-0.260036,0.102071,0.019664,-0.003258,-1.9207,0.3535,0.1305
30626,11.0,0.040888,0.138560,-0.259957,0.092231,0.021175,0.001450,-2.7436,0.4358,-1.7078,0.00632250,0.00317248,0.00288019,-0.01547891,-0.02427605,-0.02529052,0.1355,0.3127,-9.5023,-0.042880,-0.033980,-0.011702,33.7935,5.1209,36.5445,-31.0203,0.2600,178,0,0,0.059647,0.199432,-0.260047,0.145397,-0.040429,0.001285,-2.2426,0.3106,-0.1931
30637,11.0,0.041175,0.138545,-0.259936,0.084508,0.017533,0.002424,-2.7587,0.3930,-1.7136,0.00639728,0.00302555,0.00289744,-0.01230741,-0.02351045,-0.02523876,0.0591,0.3477,-9.7398,-0.008208,-0.070062,-0.002166,32.7728,4.7695,37.4159,-31.0203,0.2600,182,0,0,0.060101,0.199157,-0.259951,0.121104,-0.037254,0.007817,-2.2431,0.2803,-0.1661
30648,11.0,0.041405,0.138559,-0.259794,0.077670,0.014416,0.003128,-2.7636,0.3625,-1.7185,0.00644717,0.00287961,0.00290300,-0.00926990,-0.02286870,-0.02567450,0.1146,0.3369,-9.8902,0.004018,-0.051573,-0.003652,32.7728,4.7695,37.4159,-31.0203,0.2600,183,0,0,0.060390,0.199090,-0.259827,0.111036,-0.034892,0.009281,-2.2263,0.2459,-0.1467
30659,11.0,0.041561,0.138574,-0.259767,0.071397,0.012493,0.001705,-2.7654,0.3480,-1.7254,0.00648358,0.00272981,0.00290136,-0.00626502,-0.02223524,-0.02562907,0.1635,0.4222,-9.9542,0.006052,-0.026795,-0.008406,32.7728,4.7695,37.4159,-31.0203,0.2600,176,0,0,0.060634,0.199053,-0.259737,0.101999,-0.032606,0.009056,-2.2033,0.2195,-0.1288
