timestamp_ms,dt_ms,pos_x,pos_y,pos_z,vel_x,vel_y,vel_z,roll_deg,pitch_deg,yaw_deg,gyro_bias_x,gyro_bias_y,gyro_bias_z,accel_bias_x,accel_bias_y,accel_bias_z,raw_accel_x,raw_accel_y,raw_accel_z,raw_gyro_x,raw_gyro_y,raw_gyro_z,raw_baro_alt,raw_tof,raw_flow_squal,raw_flow_dx,raw_flow_dy,dev_pos_x,dev_pos_y,dev_pos_z,dev_vel_x,dev_vel_y,dev_vel_z,dev_roll_deg,dev_pitch_deg,dev_yaw_deg
12285,10.0,-0.000015,-0.000009,-0.031011,-0.002446,-0.000014,0.000676,-0.0017,-0.0018,-0.0002,0.00000000,0.00000000,-0.00173820,0.00011441,-0.00012805,0.00000000,-0.1956,0.1726,-9.7347,-0.002229,-0.003305,-0.002109,27.0833,0.0310,69,0,1,-0.000060,0.000037,-0.029960,-0.001991,0.001865,0.005225,-0.8482,-1.0182,-0.0591
12296,11.0,-0.000050,-0.000001,-0.030999,-0.002928,0.000420,0.001457,-0.4746,-0.5345,0.0034,0.00000172,0.00000194,-0.00173820,0.00010857,-0.00012293,0.00000000,-0.1855,0.1646,-9.7329,-0.002520,-0.002155,0.000389,27.0833,0.0300,69,0,1,-0.000083,0.000036,-0.029905,-0.002221,0.001962,0.005759,-0.8489,-1.0191,-0.0586
12307,11.0,-0.000047,-0.000006,-0.031314,-0.002594,0.000760,-0.012471,-0.4810,-0.5503,0.0030,0.00000173,0.00000197,-0.00173820,0.00006487,-0.00010814,0.00000949,-0.1834,0.1531,-9.7322,-0.003293,-0.005134,-0.002202,27.0833,0.0300,72,0,0,-0.000085,0.000037,-0.029886,-0.002239,0.001868,0.005835,-0.8635,-1.0293,-0.0582
12318,11.0,-0.000033,0.000000,-0.030017,-0.001557,0.000772,0.031230,-0.6391,-0.7623,0.0040,0.00000347,0.00000419,-0.00173820,-0.00001408,-0.00009598,-0.00002571,-0.1961,0.1629,-9.7134,-0.002897,-0.003293,-0.002423,27.0833,0.0300,68,0,-1,-0.000064,0.000036,-0.029769,-0.001954,0.001946,0.007101,-0.8686,-1.0383,-0.0588
12329,11.0,-0.000006,-0.000003,-0.029690,-0.001217,0.001016,0.031507,-0.6483,-0.7854,0.0034,0.00000350,0.00000430,-0.00173819,-0.00011434,-0.00006439,-0.00001707,-0.1979,0.1620,-9.7306,-0.004943,-0.006245,-0.002244,27.0833,0.0310,63,0,-1,-0.000042,0.000037,-0.030483,-0.001766,0.001860,-0.001037,-0.8741,-1.0465,-0.0598
12340,11.0,-0.000037,-0.000022,-0.029338,-0.001612,0.000469,0.032502,-0.7409,-0.8568,0.0041,0.00000535,0.00000602,-0.00173820,-0.00007233,0.00001415,-0.00001671,-0.1878,0.1658,-9.7157,-0.004359,-0.000574,-0.003915,27.0833,0.0310,66,1,1,-0.000018,0.000036,-0.030499,-0.001762,0.001902,-0.000563,-0.8755,-1.0487,-0.0599
12351,11.0,-0.000037,-0.000024,-0.030663,-0.001595,0.000673,0.002403,-0.7479,-0.8689,0.0050,0.00000539,0.00000610,-0.00173820,-0.00012055,0.00003361,0.00094043,-0.1781,0.1609,-9.7216,-0.003019,-0.003909,-0.000290,27.0833,0.0310,71,0,0,-0.000043,0.000013,-0.030512,-0.001758,0.001779,0.000444,-0.8841,-1.0493,-0.0606
12362,11.0,-0.000042,0.000004,-0.030633,-0.001417,0.001079,0.003044,-0.7899,-0.9153,0.0040,0.00000714,0.00000772,-0.00173819,-0.00015666,-0.00004214,0.00094009,-0.1844,0.1701,-9.7473,-0.003772,-0.001884,-0.002457,27.0833,0.0300,72,-1,0,-0.000067,0.000013,-0.030504,-0.001806,0.001713,0.001062,-0.8851,-1.0514,-0.0598
12373,11.0,-0.000042,0.000026,-0.030615,-0.001453,0.001644,0.003533,-0.7879,-0.9247,0.0020,0.00000708,0.00000785,-0.00173818,-0.00021938,-0.00007155,0.00097243,-0.1856,0.1733,-9.7341,-0.002130,-0.003297,-0.003594,27.0833,0.0300,72,-1,0,-0.000067,0.000036,-0.030162,-0.001798,0.001901,0.005084,-0.8853,-1.0512,-0.0604
12384,11.0,-0.000046,-0.000018,-0.030162,-0.001309,0.000664,0.009868,-0.8258,-0.9551,0.0056,0.00000832,0.00000946,-0.00173821,-0.00026377,0.00017891,0.00020827,-0.1859,0.1493,-9.7484,-0.002028,-0.001856,-0.000348,27.0833,0.0300,68,2,0,-0.000044,0.000060,-0.030061,-0.001732,0.001847,0.005861,-0.8906,-1.0499,0.0611
12395,11.0,-0.000047,-0.000018,-0.030038,-0.001405,0.000778,0.010706,-0.8314,-0.9635,0.0062,0.00000843,0.00000964,-0.00173821,-0.00033329,0.00022058,0.00017620,-0.1957,0.1654,-9.7446,-0.002647,-0.002751,-0.000563,27.0252,0.0310,72,0,0,-0.000045,0.000015,-0.029984,-0.001679,0.001595,0.006466,-0.8921,-1.0514,0.0618
12406,11.0,-0.000050,-0.000016,-0.029916,-0.001249,0.000729,0.011417,-0.8525,-0.9818,0.0066,0.00000989,0.00001090,-0.00173820,-0.00037500,0.00023113,0.00017698,-0.1818,0.1636,-9.7419,-0.004617,-0.001629,-0.001065,27.0252,0.0310,71,0,0,-0.000045,0.000014,-0.030582,-0.001819,0.001660,-0.000380,-0.8926,-1.0517,0.0620
12417,11.0,-0.000051,-0.000016,-0.030536,-0.001233,0.000737,0.003112,-0.8595,-0.9908,0.0064,0.00001003,0.00001111,-0.00173820,-0.00039628,0.00023689,0.00312415,-0.1874,0.1604,-9.7357,-0.003901,-0.004066,-0.002109,27.0252,0.0310,71,0,0,-0.000045,0.000014,-0.030567,-0.001764,0.001719,0.000805,-0.8988,-1.0533,0.0603
12428,11.0,-0.000055,0.000008,-0.030500,-0.001174,0.001006,0.003603,-0.8584,-1.0156,0.0071,0.00001024,0.00001384,-0.00173818,-0.00039944,0.00015191,0.00312298,-0.2027,0.1530,-9.7589,-0.001344,-0.000996,0.000222,27.0252,0.0300,68,-1,0,-0.000046,0.000014,-0.030557,-0.001722,0.001673,0.001301,-0.9015,-1.0567,0.0601
12439,11.0,-0.000056,-0.000014,-0.030443,-0.001172,0.000618,0.004517,-0.8726,-1.0221,0.0072,0.00001095,0.00001412,-0.00173820,-0.00046600,0.00032209,0.00304831,-0.1917,0.1597,-9.7350,-0.003167,-0.002791,-0.003730,27.0252,0.0300,76,1,0,-0.000046,0.000015,-0.030142,-0.001832,0.001598,0.005952,-0.9049,-1.0570,0.0612
12450,11.0,-0.000083,-0.000013,-0.030740,-0.001436,0.000546,0.001229,-0.8785,-1.0282,0.0100,0.00001146,0.00001538,-0.00173823,-0.00033297,0.00031390,0.00526484,-0.1923,0.1539,-9.7303,-0.001956,-0.001269,0.000821,27.0622,0.0310,67,0,1,-0.000069,0.000014,-0.030081,-0.001981,0.001623,0.006437,-0.9054,-1.0566,0.0609
12461,11.0,-0.000084,-0.000060,-0.030724,-0.001477,-0.000147,0.002012,-0.8973,-1.0354,0.0143,0.00001288,0.00001582,-0.00173828,-0.00041627,0.00058729,0.00528431,-0.2018,0.1620,-9.7280,-0.001737,-0.003017,0.001263,27.0622,0.0310,71,2,0,-0.000094,0.000014,-0.030552,-0.002026,0.001566,0.000747,-0.9052,-1.0590,0.0613
12472,11.0,-0.000088,-0.000061,-0.030699,-0.001367,-0.000144,0.002607,-0.8968,-1.0511,0.0133,0.00001271,0.00001818,-0.00173827,-0.00044184,0.00058863,0.00528468,-0.1976,0.1521,-9.7474,-0.000526,-0.004100,-0.003417,27.0622,0.0310,71,0,0,-0.000095,-0.000034,-0.030529,-0.002101,0.001351,0.001668,-0.9058,-1.0642,0.0633
12483,11.0,-0.000089,-0.000015,-0.030850,-0.001368,0.000458,0.001079,-0.8828,-1.0551,0.0097,0.00001109,0.00001867,-0.00173817,-0.00049265,0.00031116,0.00681972,-0.2005,0.1398,-9.7445,-0.001054,0.001090,-0.001885,27.0622,0.0310,75,-2,0,-0.000096,-0.000035,-0.030511,-0.002059,0.001316,0.002035,-0.9026,-1.0672,-0.0659
12494,11.0,-0.000093,0.000033,-0.030834,-0.001350,0.001154,0.001872,-0.8776,-1.0724,0.0059,0.00001100,0.00002283,-0.00173809,-0.00047094,0.00006082,0.00681551,-0.2141,0.1631,-9.7274,-0.002875,-0.001007,-0.004053,27.0622,0.0310,75,-2,0,-0.000097,0.000013,-0.030488,-0.002023,0.001416,0.002450,-0.8976,-1.0693,-0.0669
12505,11.0,-0.000070,0.000034,-0.030813,-0.001177,0.001010,0.002363,-0.8827,-1.0852,0.0059,0.00001147,0.00002441,-0.00173805,-0.00067709,0.00012191,0.00684286,-0.2218,0.1526,-9.7522,-0.002994,-0.003087,-0.000211,27.0622,0.0310,73,0,-1,-0.000121,0.000060,-0.030810,-0.002268,0.001520,-0.000499,-0.8948,-1.0743,-0.0664
12516,11.0,-0.000073,0.000035,-0.030898,-0.001087,0.000866,0.001813,-0.8869,-1.0940,0.0083,0.00001171,0.00002638,-0.00173806,-0.00067956,0.00016271,0.00796050,-0.1983,0.1501,-9.7250,-0.003132,-0.002630,0.000977,27.0622,0.0310,73,0,0,-0.000097,0.000060,-0.030816,-0.002332,0.001449,-0.000135,-0.8957,-1.0751,-0.0663
12527,11.0,-0.000052,0.000035,-0.030876,-0.000530,0.000751,0.002453,-0.8917,-1.1051,0.0081,0.00001215,0.00002792,-0.00173803,-0.00084789,0.00021106,0.00798238,-0.1802,0.1533,-9.7390,-0.003882,-0.004724,-0.000804,27.0622,0.0310,70,0,-1,-0.000074,0.000060,-0.030921,-0.002298,0.001326,-0.000554,-0.8967,-1.0782,-0.0645
12538,11.0,-0.000053,0.000037,-0.030845,-0.000602,0.000733,0.003181,-0.8991,-1.1139,0.0084,0.00001424,0.00003145,-0.00173804,-0.00079588,0.00020679,0.00798111,-0.2136,0.1659,-9.7321,-0.002771,-0.000172,-0.002208,26.9697,0.0310,67,0,0,-0.000050,0.000059,-0.030898,-0.002151,0.001275,0.000203,-0.8963,-1.0799,-0.0646
12549,11.0,-0.000054,0.000037,-0.030890,-0.000611,0.000775,0.002664,-0.9043,-1.1163,0.0094,0.00001472,0.00003183,-0.00173805,-0.00081562,0.00023883,0.00881822,-0.2008,0.1689,-9.7563,-0.005055,-0.001261,-0.000516,26.9697,0.0310,67,0,0,-0.000050,0.000059,-0.030893,-0.002293,0.001325,0.000660,-0.8964,-1.0794,-0.0649
12561,12.0,-0.000056,0.000038,-0.030854,-0.000649,0.000771,0.003303,-0.9108,-1.1253,0.0102,0.00001750,0.00003455,-0.00173805,-0.00079063,0.00022875,0.00881732,-0.2079,0.1704,-9.7442,-0.000490,-0.004718,-0.001004,26.9697,0.0310,68,0,0,-0.000051,0.000058,-0.030927,-0.002225,0.001485,0.000512,-0.9007,-1.0814,-0.0655
12572,11.0,-0.000056,0.000039,-0.030781,-0.000624,0.000610,0.004348,-0.9131,-1.1274,0.0095,0.00001793,0.00003499,-0.00173806,-0.00083165,0.00026867,0.00846330,-0.1989,0.1496,-9.7407,-0.001472,-0.000972,-0.003033,26.9697,0.0310,73,0,0,-0.000052,0.000058,-0.030920,-0.002207,0.001488,0.000885,-0.9033,-1.0856,-0.0656
12583,11.0,-0.000057,0.000040,-0.030875,-0.000664,0.000544,0.003169,-0.9171,-1.1348,0.0101,0.00001872,0.00003841,-0.00173808,-0.00076456,0.00026895,0.00994444,-0.2123,0.1590,-9.7472,-0.003406,-0.002246,-0.002012,26.9697,0.0310,66,0,0,-0.000051,0.000058,-0.030876,-0.002323,0.001413,0.001654,-0.9034,-1.0853,-0.0667
12594,11.0,-0.000059,0.000039,-0.030828,-0.000495,0.000671,0.003994,-0.9199,-1.1372,0.0123,0.00001928,0.00003880,-0.00173809,-0.00079320,0.00030871,0.00985098,-0.1854,0.1778,-9.7319,-0.001954,-0.002098,0.001342,27.0252,0.0320,73,0,0,-0.000052,0.000057,-0.030817,-0.002317,0.001580,0.002450,-0.9043,-1.0881,-0.0015
12606,12.0,-0.000060,0.000088,-0.030774,-0.000353,0.001092,0.004888,-0.9077,-1.1379,0.0098,0.00001256,0.00003714,-0.00173796,-0.00086053,0.00018849,0.00985068,-0.1834,0.1360,-9.7230,-0.000079,-0.003729,-0.002463,27.0252,0.0320,68,-2,0,-0.000053,0.000107,-0.031627,-0.002267,0.001731,-0.004979,-0.9064,-1.0881,-0.0007
12617,11.0,-0.000060,0.000066,-0.031425,-0.000432,0.000454,-0.003110,-0.9145,-1.1401,0.0122,0.00001528,0.00003759,-0.00173805,-0.00074726,0.00023640,0.01681939,-0.2087,0.1390,-9.7628,-0.001510,-0.001730,-0.000466,27.0252,0.0320,66,1,0,-0.000054,0.000156,-0.031662,-0.002213,0.001803,-0.004457,-0.9031,-1.0890,-0.0014
12628,11.0,-0.000060,0.000066,-0.031456,-0.000541,0.000482,-0.002568,-0.9190,-1.1462,0.0129,0.00001781,0.00004223,-0.00173807,-0.00067474,0.00021167,0.01681736,-0.2188,0.1685,-9.7401,-0.001900,-0.000700,-0.001474,27.0252,0.0310,69,0,0,-0.000054,0.000131,-0.031705,-0.002314,0.001608,-0.004279,-0.9032,-1.0890,-0.0004
12639,11.0,-0.000060,0.000042,-0.031470,-0.000576,0.000223,-0.002020,-0.9269,-1.1489,0.0129,0.00002050,0.00004282,-0.00173815,-0.00070804,0.00035294,0.01670022,-0.2075,0.1706,-9.7531,-0.004988,-0.002520,-0.003936,27.0252,0.0310,65,1,0,-0.000055,0.000107,-0.031262,-0.002348,0.001513,0.001485,-0.9042,-1.0933,-0.0001
12650,11.0,-0.000061,0.000042,-0.031212,-0.000430,0.000353,0.001887,-0.9342,-1.1498,0.0108,0.00002511,0.00004122,-0.00173811,-0.00083132,0.00031872,0.01406057,-0.1862,0.1815,-9.7335,-0.003968,-0.003389,-0.002701,27.0252,0.0310,70,0,0,-0.000055,0.000107,-0.031245,-0.002300,0.001555,0.001724,-0.9092,-1.0941,-0.0011
12662,12.0,-0.000087,0.000043,-0.031176,-0.000602,0.000098,0.002562,-0.9372,-1.1490,0.0120,0.00002532,0.00003912,-0.00173818,-0.00073783,0.00032935,0.01396900,-0.1875,0.1405,-9.7464,-0.003827,-0.003338,-0.001478,27.0252,0.0320,74,0,1,-0.000056,0.000106,-0.031638,-0.002235,0.001765,-0.002529,-0.9100,-1.0946,-0.0014
12673,11.0,-0.000087,0.000042,-0.031145,-0.000503,0.000060,0.003098,-0.9380,-1.1502,0.0118,0.00002474,0.00003899,-0.00173817,-0.00077927,0.00035050,0.01397014,-0.1933,0.1571,-9.7442,-0.001980,-0.001604,-0.001751,27.0252,0.0320,69,0,0,-0.000082,0.000105,-0.031672,-0.002252,0.001503,-0.001722,-0.9091,-1.0979,0.0011
12684,11.0,-0.000089,0.000042,-0.031593,-0.000288,0.000098,-0.002066,-0.9391,-1.1520,0.0132,0.00002494,0.00003938,-0.00173816,-0.00070455,0.00028659,0.01839470,-0.1811,0.1655,-9.7417,-0.001216,-0.002035,0.000559,27.0252,0.0320,73,0,0,-0.000082,0.000105,-0.031687,-0.002220,0.001417,-0.001404,-0.9094,-1.0974,0.0494
12695,11.0,-0.000089,0.000041,-0.031613,-0.000184,0.000096,-0.001475,-0.9407,-1.1520,0.0138,0.00002536,0.00003760,-0.00173815,-0.00075831,0.00028849,0.01839581,-0.1878,0.1621,-9.7347,-0.001855,-0.002002,-0.000162,27.0252,0.0300,73,0,0,-0.000082,0.000105,-0.031699,-0.002150,0.001378,-0.001034,-0.9090,-1.0981,0.0502
12706,11.0,-0.000090,0.000042,-0.031613,-0.000073,-0.000132,-0.000556,-0.9413,-1.1536,0.0147,0.00002526,0.00003770,-0.00173814,-0.00076428,0.00028684,0.01828544,-0.1876,0.1385,-9.7186,-0.001149,-0.002418,-0.000236,27.0252,0.0300,65,0,0,-0.000083,0.000128,-0.030484,-0.002039,0.001389,0.011958,-0.9087,-1.0980,0.0500
12717,11.0,-0.000090,0.000041,-0.030715,-0.000073,-0.000000,0.010768,-0.9446,-1.1556,0.0135,0.00002858,0.00003785,-0.00173811,-0.00092531,0.00034860,0.01037112,-0.1981,0.1762,-9.7248,-0.001446,-0.002925,-0.002428,27.0252,0.0300,66,0,0,-0.000084,0.000127,-0.030350,-0.001994,0.001296,0.012692,-0.9063,-1.0987,0.0505
12728,11.0,-0.000090,0.000040,-0.030595,-0.000056,0.000072,0.011378,-0.9462,-1.1571,0.0134,0.00002876,0.00003795,-0.00173811,-0.00092826,0.00035432,0.01038793,-0.1970,0.1693,-9.7387,-0.002338,-0.002239,-0.001972,27.0622,0.0310,74,0,0,-0.000084,0.000126,-0.030639,-0.002040,0.001334,0.007770,-0.9063,-1.1007,0.0519
12739,11.0,-0.000089,0.000039,-0.030466,0.000007,0.000037,0.012164,-0.9482,-1.1584,0.0133,0.00002819,0.00003614,-0.00173811,-0.00096690,0.00037627,0.01038907,-0.1905,0.1590,-9.7250,-0.003583,-0.003728,-0.001775,27.0622,0.0310,75,0,0,-0.000084,0.000126,-0.030561,-0.002064,0.001384,0.008207,-0.9064,-1.1006,0.0520
12750,11.0,-0.000089,0.000014,-0.030695,0.000002,-0.000305,0.008334,-0.9528,-1.1615,0.0143,0.00003162,0.00003616,-0.00173822,-0.00090574,0.00042756,0.01350367,-0.1990,0.1596,-9.7516,-0.002921,-0.004888,-0.002001,27.0622,0.0310,74,1,0,-0.000085,0.000125,-0.030477,-0.002032,0.001393,0.008695,-0.9086,-1.1019,0.0516
12761,11.0,-0.000089,0.000013,-0.030597,-0.000074,-0.000265,0.009401,-0.9546,-1.1653,0.0159,0.00003138,0.00003824,-0.00173823,-0.00087139,0.00041989,0.01350284,-0.2073,0.1635,-9.6960,-0.003073,-0.004062,0.000365,27.0622,0.0300,69,0,0,-0.000085,0.000100,-0.030114,-0.002136,0.001349,0.011443,-0.9105,-1.1070,0.0500
12772,11.0,-0.000088,-0.000011,-0.030493,-0.000129,-0.000458,0.009997,-0.9596,-1.1669,0.0176,0.00003457,0.00003849,-0.00173833,-0.00087809,0.00050688,0.01352544,-0.2062,0.1702,-9.7359,-0.004237,-0.002290,-0.000647,27.0622,0.0300,67,1,0,-0.000085,0.000075,-0.029996,-0.002289,0.001328,0.012152,-0.9109,-1.1088,0.0516
12783,11.0,-0.000089,-0.000012,-0.030165,-0.000095,-0.000490,0.013236,-0.9574,-1.1670,0.0186,0.00003099,0.00003788,-0.00173832,-0.00093236,0.00056933,0.01175234,-0.1968,0.1530,-9.7294,0.000339,-0.000676,-0.000474,27.0622,0.0300,70,0,0,-0.000085,0.000052,-0.029746,-0.002358,0.001278,0.012995,-0.9115,-1.1095,-0.0091
12794,11.0,-0.000017,0.000009,-0.030017,0.000813,0.000036,0.013917,-0.9584,-1.1768,0.0139,0.00002703,0.00004919,-0.00173787,-0.00121600,0.00047071,0.01177333,-0.1986,0.1826,-9.7304,-0.005439,-0.004195,-0.003222,27.0622,0.0310,64,-1,-3,-0.000086,0.000052,-0.030443,-0.002324,0.001243,0.004196,-0.9118,-1.1101,-0.0092
12805,11.0,-0.000016,0.000032,-0.029860,0.000772,0.000334,0.014554,-0.9590,-1.1768,0.0120,0.00002371,0.00004618,-0.00173778,-0.00121595,0.00037737,0.01177182,-0.1952,0.1655,-9.7370,-0.004199,-0.002450,-0.003193,27.0622,0.0310,72,-1,0,-0.000014,0.000074,-0.030399,-0.002099,0.001506,0.004613,-0.9130,-1.1122,-0.0106
12816,11.0,-0.000015,0.000056,-0.030402,0.000696,0.000493,0.006720,-0.9568,-1.1769,0.0116,0.00002019,0.00004492,-0.00173770,-0.00107214,0.00020091,0.01744043,-0.2001,0.1544,-9.7507,0.000396,-0.001131,-0.001305,27.0252,0.0310,69,-1,0,-0.000014,0.000122,-0.030285,-0.002146,0.001490,0.005538,-0.9146,-1.1145,-0.0122
12827,11.0,-0.000060,0.000056,-0.030324,0.000167,0.000426,0.007373,-0.9575,-1.1721,0.0140,0.00002077,0.00003184,-0.00173795,-0.00093557,0.00022659,0.01743815,-0.1872,0.1627,-9.7301,-0.000454,-0.002770,-0.000325,27.0252,0.0300,73,0,2,-0.000014,0.000145,-0.030085,-0.002113,0.001481,0.007420,-0.9124,-1.1149,-0.0116
12838,11.0,-0.000083,0.000056,-0.030227,0.000000,0.000509,0.008390,-0.9593,-1.1722,0.0146,0.00002192,0.00002727,-0.00173811,-0.00083946,0.00025242,0.01734390,-0.1864,0.1776,-9.7093,-0.001967,-0.003839,-0.002849,27.0252,0.0300,76,0,1,-0.000062,0.000145,-0.030000,-0.002186,0.001464,0.007958,-0.9115,-1.1145,-0.0106
12849,11.0,-0.000084,0.000010,-0.030054,0.000184,-0.000145,0.009707,-0.9643,-1.1707,0.0166,0.00002994,0.00002074,-0.00173836,-0.00095377,0.00047620,0.01673137,-0.1789,0.1603,-9.7544,-0.001791,-0.001881,-0.000694,27.0252,0.0300,70,2,0,-0.000085,0.000097,-0.029828,-0.002252,0.001335,0.009061,-0.9139,-1.1153,-0.0104
12860,11.0,-0.000083,-0.000015,-0.029936,0.000162,-0.000378,0.010358,-0.9680,-1.1721,0.0175,0.00003433,0.00002045,-0.00173850,-0.00094973,0.00056463,0.01666329,-0.2007,0.1694,-9.7402,-0.002745,-0.002424,-0.001968,27.0252,0.0310,64,1,0,-0.000086,0.000049,-0.030483,-0.002167,0.001157,0.000924,-0.9143,-1.1152,-0.0098
12871,11.0,-0.000083,-0.000016,-0.029817,0.000205,-0.000359,0.011161,-0.9692,-1.1718,0.0152,0.00003258,0.00001776,-0.00173849,-0.00098121,0.00056979,0.01666401,-0.1929,0.1623,-9.7171,-0.003046,-0.001031,-0.004983,27.0622,0.0310,64,0,0,-0.000086,0.000024,-0.030472,-0.002137,0.001169,0.001135,-0.9144,-1.1150,-0.0090
12883,12.0,-0.000082,-0.000017,-0.030409,0.000186,-0.000490,0.003057,-0.9691,-1.1754,0.0177,0.00003184,0.00001729,-0.00173848,-0.00086177,0.00046129,0.02223143,-0.2003,0.1510,-9.7524,-0.000057,-0.005627,0.001933,27.0622,0.0310,72,0,0,-0.000088,0.000022,-0.030443,-0.002015,0.001444,0.001855,-0.9147,-1.1181,-0.1037
12894,11.0,-0.000082,-0.000018,-0.030371,0.000093,-0.000514,0.003744,-0.9695,-1.1776,0.0184,0.00002786,0.00001955,-0.00173850,-0.00081948,0.00049148,0.02223106,-0.2095,0.1564,-9.7219,-0.002992,-0.002209,-0.001899,27.0622,0.0300,72,0,0,-0.000088,0.000021,-0.030424,-0.002003,0.001390,0.001995,-0.9142,-1.1201,-0.1024
12905,11.0,-0.000081,-0.000020,-0.030330,0.000053,-0.000407,0.004266,-0.9691,-1.1785,0.0181,0.00002701,0.00001943,-0.00173847,-0.00081693,0.00047647,0.02225034,-0.2044,0.1709,-9.7339,0.000125,-0.001479,-0.001953,27.0622,0.0300,67,0,0,-0.000088,0.000020,-0.030080,-0.002141,0.001387,0.005857,-0.9152,-1.1228,-0.1018
12917,12.0,-0.000081,0.000003,-0.030116,-0.000044,-0.000142,0.006665,-0.9681,-1.1810,0.0177,0.00001918,0.00002254,-0.00173833,-0.00079609,0.00043015,0.02106095,-0.2115,0.1597,-9.7397,-0.002396,-0.002017,-0.001847,27.0622,0.0300,67,-1,0,-0.000088,0.000020,-0.030022,-0.002151,0.001414,0.006220,-0.9145,-1.1230,-0.1018
12928,11.0,-0.000082,0.000025,-0.030042,0.000135,0.000215,0.007093,-0.9683,-1.1844,0.0145,0.00001408,0.00002227,-0.00173818,-0.00079097,0.00034751,0.02107493,-0.1845,0.1725,-9.7446,-0.003131,-0.005485,-0.005503,27.0622,0.0310,72,-1,0,-0.000089,0.000066,-0.030564,-0.002117,0.001656,-0.000292,-0.9133,-1.1237,-0.1013
12939,11.0,-0.000082,0.000025,-0.029962,0.000306,0.000192,0.007419,-0.9715,-1.1832,0.0145,0.00001480,0.00001468,-0.00173816,-0.00088637,0.00035605,0.02107700,-0.1816,0.1666,-9.7562,-0.004598,-0.001905,-0.000483,27.0622,0.0310,74,0,0,-0.000090,0.000089,-0.030567,-0.002059,0.001745,-0.000001,-0.9149,-1.1253,-0.1029
12950,11.0,-0.000082,0.000048,-0.029953,0.000460,0.000245,0.007037,-0.9708,-1.1862,0.0144,0.00000973,0.00001355,-0.00173804,-0.00085770,0.00026955,0.02162506,-0.1832,0.1467,-9.7408,-0.001316,-0.005272,-0.000922,27.1177,0.0300,68,-1,0,-0.000090,0.000089,-0.030566,-0.001946,0.001779,0.000153,-0.9158,-1.1252,-0.1025
12961,11.0,-0.000081,0.000047,-0.029872,0.000439,0.000195,0.007686,-0.9724,-1.1879,0.0139,0.00000964,0.00001102,-0.00173808,-0.00086354,0.00029270,0.02162556,-0.1991,0.1640,-9.7260,-0.002598,-0.003896,-0.002876,27.1177,0.0300,69,0,0,-0.000091,0.000111,-0.030224,-0.001729,0.001888,0.004142,-0.9172,-1.1263,-0.1029
12973,12.0,-0.000057,0.000047,-0.029801,0.000733,0.000105,0.007986,-0.9757,-1.1914,0.0137,0.00001014,0.00001547,-0.00173799,-0.00092386,0.00029713,0.02180612,-0.1971,0.1605,-9.7359,-0.004631,-0.003147,-0.001370,27.1177,0.0300,67,0,-1,-0.000068,0.000111,-0.030181,-0.001654,0.001854,0.004540,-0.9180,-1.1280,-0.1034
12984,11.0,-0.000033,-0.000000,-0.029865,0.001132,-0.000534,0.006660,-0.9795,-1.1912,0.0147,0.00001849,0.00001057,-0.00173820,-0.00107018,0.00048597,0.02292310,-0.1801,0.1583,-9.7408,-0.002446,-0.002007,-0.001216,27.1177,0.0300,77,2,-1,-0.000045,0.000111,-0.030161,-0.001516,0.001796,0.004618,-0.9186,-1.1282,-0.1039
12995,11.0,-0.000057,-0.000002,-0.029807,0.000928,-0.000437,0.006975,-0.9816,-1.1908,0.0172,0.00001753,0.00000136,-0.00173840,-0.00094239,0.00047012,0.02305393,-0.1829,0.1720,-9.7352,-0.003635,-0.003153,0.000526,27.1177,0.0310,68,0,1,-0.000023,0.000063,-0.030670,-0.001287,0.001648,-0.001625,-0.9193,-1.1295,-0.1738
13006,11.0,-0.000056,-0.000003,-0.029728,0.000998,-0.000444,0.007407,-0.9827,-1.1895,0.0165,0.00001424,-0.00000839,-0.00173840,-0.00100552,0.00048744,0.02305545,-0.1841,0.1620,-9.7447,-0.003042,-0.002081,-0.002308,27.0252,0.0310,66,0,0,-0.000048,0.000062,-0.030697,-0.001095,0.001732,-0.001048,-0.9222,-1.1289,-0.1727
13018,12.0,-0.000055,-0.000005,-0.029825,0.001135,-0.000192,0.005980,-0.9847,-1.1909,0.0159,0.00001390,-0.00001162,-0.00173848,-0.00093778,0.00046054,0.02439090,-0.1798,0.1873,-9.7166,-0.003121,-0.003062,-0.003125,27.0252,0.0300,66,0,0,-0.000048,0.000062,-0.030301,-0.001060,0.001660,0.003834,-0.9222,-1.1284,-0.1728
13029,11.0,-0.000053,-0.000006,-0.029757,0.001003,-0.000112,0.006312,-0.9876,-1.1917,0.0158,0.00001632,-0.00001418,-0.00173852,-0.00089815,0.00042367,0.02438946,-0.2049,0.1760,-9.7517,-0.003518,-0.002348,-0.001986,27.0252,0.0300,66,0,0,-0.000049,0.000061,-0.030260,-0.000902,0.001828,0.004333,-0.9224,-1.1286,-0.1733
13040,11.0,-0.000052,0.000017,-0.029674,0.000856,0.000091,0.006995,-0.9865,-1.1922,0.0118,0.00000963,-0.00001668,-0.00173839,-0.00086875,0.00034325,0.02430736,-0.2074,0.1606,-9.7323,-0.000796,-0.001486,-0.007054,27.0252,0.0300,68,-1,0,-0.000048,0.000084,-0.030156,-0.001101,0.001835,0.005033,-0.9247,-1.1289,-0.1743
13051,11.0,-0.000051,0.000017,-0.030362,0.000836,-0.000102,-0.001447,-0.9849,-1.1924,0.0124,0.00000180,-0.00002290,-0.00173851,-0.00078000,0.00035368,0.02960057,-0.1950,0.1483,-9.7317,-0.000547,-0.002675,-0.002485,27.0252,0.0310,66,0,0,-0.000048,0.000084,-0.030103,-0.001145,0.001732,0.005463,-0.9230,-1.1296,-0.1758
13062,11.0,-0.000051,0.000016,-0.030366,0.000975,-0.000125,-0.000741,-0.9876,-1.1941,0.0106,0.00000172,-0.00002577,-0.00173858,-0.00074776,0.00035362,0.02953800,-0.1802,0.1656,-9.7228,-0.004295,-0.003685,-0.005231,27.0252,0.0310,72,0,0,-0.000048,0.000085,-0.030641,-0.001080,0.001536,-0.000566,-0.9227,-1.1293,-0.1763
13073,11.0,-0.000049,0.000017,-0.030373,0.000886,-0.000428,-0.000462,-0.9847,-1.1941,0.0118,-0.00001312,-0.00002933,-0.00173874,-0.00072865,0.00051559,0.02954024,-0.2023,0.1334,-9.7521,-0.000793,-0.001190,-0.002912,27.0252,0.0310,69,0,0,-0.000049,0.000084,-0.030635,-0.000875,0.001481,0.000059,-0.9232,-1.1289,-0.1785
13084,11.0,-0.000049,-0.000008,-0.030157,0.000855,-0.000679,0.002504,-0.9868,-1.1958,0.0108,-0.00000744,-0.00003190,-0.00173896,-0.00072924,0.00060344,0.02805814,-0.1976,0.1664,-9.7412,-0.001682,-0.003450,-0.004858,27.0252,0.0300,73,1,0,-0.000049,0.000084,-0.030633,-0.000888,0.001330,0.000223,-0.9205,-1.1291,-0.1934
13095,11.0,-0.000047,-0.000033,-0.030127,0.000763,-0.000981,0.002897,-0.9895,-1.1965,0.0109,-0.00000756,-0.00003432,-0.00173920,-0.00070562,0.00071504,0.02805953,-0.2047,0.1571,-9.7428,-0.004575,-0.001906,-0.003997,26.9697,0.0300,73,1,0,-0.000049,0.000061,-0.030240,-0.000966,0.001235,0.004661,-0.9198,-1.1293,-0.1951
13106,11.0,-0.000046,-0.000034,-0.030062,0.000706,-0.000851,0.003592,-0.9904,-1.1973,0.0098,-0.00001014,-0.00003655,-0.00173918,-0.00068609,0.00069123,0.02783804,-0.2022,0.1723,-9.7504,-0.002124,-0.001989,-0.003271,26.9697,0.0300,69,0,0,-0.000096,-0.000010,-0.030113,-0.001199,0.001014,0.005479,-0.9212,-1.1300,-0.1955
13117,11.0,-0.000045,-0.000013,-0.030003,0.000729,-0.000490,0.004197,-0.9919,-1.1972,0.0066,-0.00001938,-0.00004335,-0.00173892,-0.00071983,0.00059631,0.02772444,-0.1938,0.1701,-9.7419,-0.005220,-0.001976,-0.004717,26.9697,0.0300,66,-1,0,-0.000096,-0.000011,-0.030016,-0.001197,0.001036,0.006126,-0.9221,-1.1307,-0.1961
13128,11.0,-0.000044,-0.000013,-0.029930,0.000568,-0.000669,0.004914,-0.9923,-1.1979,0.0080,-0.00002145,-0.00004521,-0.00173891,-0.00070412,0.00057795,0.02755645,-0.2132,0.1464,-9.7408,-0.001236,-0.001781,0.000650,26.9697,0.0320,72,0,0,-0.000096,0.000012,-0.031255,-0.001197,0.001090,-0.007719,-0.9210,-1.1290,-0.1977
13139,11.0,-0.000019,-0.000013,-0.029875,0.000932,-0.000834,0.005126,-0.9912,-1.1991,0.0067,-0.00003466,-0.00004614,-0.00173876,-0.00083839,0.00068048,0.02756088,-0.1895,0.1441,-9.7603,-0.002473,-0.002438,-0.003832,26.9697,0.0320,65,0,-1,-0.000095,0.000012,-0.031304,-0.001268,0.000997,-0.007211,-0.9207,-1.1286,-0.1972
13151,12.0,-0.000016,0.000010,-0.031019,0.000815,-0.000672,-0.008700,-0.9915,-1.2002,0.0063,-0.00004597,-0.00004922,-0.00173850,-0.00065111,0.00044151,0.03539795,-0.2069,0.1501,-9.7546,-0.003206,-0.002438,-0.000806,27.0622,0.0320,74,-1,0,-0.000071,0.000037,-0.031449,-0.001077,0.000840,-0.007093,-0.9184,-1.1293,-0.1976
13162,11.0,0.000008,0.000032,-0.031112,0.000974,-0.000544,-0.008321,-0.9904,-1.2022,0.0057,-0.00006545,-0.00004399,-0.00173821,-0.00069239,0.00046006,0.03539903,-0.2067,0.1470,-9.7369,-0.004036,-0.001778,-0.002394,27.0622,0.0290,69,-1,-1,-0.000071,0.000037,-0.029975,-0.001161,0.000746,0.009643,-0.9175,-1.1309,-0.1970
13173,11.0,0.000031,0.000053,-0.031205,0.001263,-0.000062,-0.008077,-0.9907,-1.2038,0.0045,-0.00007377,-0.00004018,-0.00173787,-0.00072734,0.00038235,0.03541282,-0.1920,0.1867,-9.7464,-0.002576,-0.001643,-0.001860,27.0622,0.0290,69,-1,-1,-0.000048,0.000059,-0.029877,-0.001162,0.000685,0.009942,-0.9175,-1.1306,-0.1975
13184,11.0,0.000032,0.000030,-0.030025,0.001288,-0.000454,0.007178,-0.9919,-1.2034,0.0049,-0.00007291,-0.00005249,-0.00173819,-0.00094432,0.00065692,0.02734178,-0.1876,0.1544,-9.7312,-0.002231,-0.002950,-0.002793,27.0622,0.0290,72,1,0,-0.000003,0.000081,-0.029677,-0.000987,0.000908,0.010421,-0.9203,-1.1293,-0.1313
13195,11.0,0.000008,0.000004,-0.029946,0.001093,-0.000761,0.007644,-0.9943,-1.2039,0.0071,-0.00006597,-0.00006575,-0.00173869,-0.00082479,0.00071844,0.02735357,-0.1825,0.1634,-9.7350,-0.002091,-0.004124,-0.001095,27.0622,0.0320,70,1,1,-0.000003,0.000056,-0.031024,-0.000939,0.000791,-0.005152,-0.9199,-1.1290,-0.1315
13206,11.0,0.000008,0.000003,-0.029859,0.001157,-0.000840,0.008082,-0.9937,-1.2031,0.0060,-0.00007645,-0.00007900,-0.00173871,-0.00088935,0.00077910,0.02735576,-0.1855,0.1528,-9.7400,-0.002108,-0.002419,-0.003653,27.0622,0.0320,66,0,0,-0.000029,0.000030,-0.031074,-0.000912,0.000743,-0.004861,-0.9198,-1.1298,-0.1307
13217,11.0,0.000010,0.000002,-0.029334,0.001069,-0.000808,0.013821,-0.9953,-1.2021,0.0063,-0.00007928,-0.00008279,-0.00173872,-0.00091099,0.00079779,0.02463883,-0.2018,0.1636,-9.7185,-0.003324,0.000559,-0.001270,27.0252,0.0290,70,0,0,-0.000029,0.000029,-0.029976,-0.000829,0.000800,0.009207,-0.9189,-1.1297,-0.1307
13228,11.0,0.000012,0.000023,-0.029179,0.000906,-0.000542,0.014272,-0.9967,-1.2058,0.0068,-0.00009285,-0.00008399,-0.00173855,-0.00085929,0.00074634,0.02463677,-0.2112,0.1633,-9.7408,-0.005483,-0.006044,-0.000776,27.0252,0.0290,74,-1,0,-0.000029,0.000029,-0.029882,-0.000850,0.000794,0.009723,-0.9194,-1.1291,-0.1301
13239,11.0,-0.000010,0.000022,-0.029009,0.000650,-0.000576,0.014888,-0.9974,-1.2057,0.0069,-0.00009483,-0.00009530,-0.00173876,-0.00076543,0.00073026,0.02456521,-0.1963,0.1617,-9.7379,-0.001688,-0.002411,-0.002769,27.0252,0.0290,66,0,1,-0.000051,0.000050,-0.029669,-0.001044,0.000743,0.010484,-0.9194,-1.1297,-0.1292
13250,11.0,-0.000059,0.000021,-0.030565,0.000029,-0.000660,-0.004756,-0.9970,-1.2039,0.0096,-0.00010520,-0.00011656,-0.00173921,-0.00039178,0.00061127,0.03519516,-0.2045,0.1547,-9.7311,-0.002157,-0.002023,-0.000484,27.0252,0.0320,67,0,2,-0.000095,0.000050,-0.029563,-0.001232,0.000800,0.010754,-0.9192,-1.1288,-0.1293
13261,11.0,-0.000060,0.000046,-0.030606,0.000152,-0.000474,-0.004178,-0.9979,-1.2037,0.0083,-0.00011702,-0.00011704,-0.00173888,-0.00038831,0.00051622,0.03513781,-0.1931,0.1534,-9.7289,-0.004033,0.000121,-0.002061,27.0252,0.0320,66,-1,0,-0.000145,0.000050,-0.031060,-0.001396,0.000791,-0.006471,-0.9194,-1.1289,-0.1293
13272,11.0,-0.000035,0.000046,-0.030651,0.000533,-0.000612,-0.003887,-0.9988,-1.2049,0.0086,-0.00012869,-0.00011490,-0.00173868,-0.00051745,0.00059977,0.03514186,-0.1933,0.1505,-9.7453,-0.004599,-0.001902,-0.000972,27.0252,0.0320,74,0,-1,-0.000120,0.000074,-0.031172,-0.001283,0.000882,-0.005817,-0.9201,-1.1281,-0.1298
13283,11.0,-0.000034,0.000022,-0.029753,0.000652,-0.000872,0.007303,-1.0028,-1.2056,0.1253,-0.00012211,-0.00011706,-0.00175911,-0.00068821,0.00065440,0.02944725,-0.1878,0.1660,-9.7554,-0.003036,-0.003578,-0.000414,27.0252,0.0290,67,1,0,-0.000071,0.000049,-0.031229,-0.001114,0.000670,-0.005615,-0.9222,-1.1280,-0.0785
13294,11.0,-0.000033,-0.000001,-0.029671,0.000508,-0.001286,0.007718,-1.0021,-1.2065,0.1281,-0.00013090,-0.00011534,-0.00175941,-0.00063515,0.00082242,0.02944898,-0.2145,0.1437,-9.7395,-0.001499,-0.000869,-0.000789,26.9116,0.0290,67,1,0,-0.000071,0.000026,-0.029886,-0.001040,0.000587,0.009783,-0.9225,-1.1283,-0.0785
13305,11.0,-0.000033,-0.000003,-0.029530,0.000511,-0.001182,0.008787,-1.0022,-1.2080,0.1294,-0.00013542,-0.00011738,-0.00175933,-0.00062601,0.00079317,0.02911877,-0.2005,0.1686,-9.7384,-0.001108,-0.003051,0.000586,26.9116,0.0290,74,0,0,-0.000070,0.000025,-0.029637,-0.001294,0.000412,0.010869,-0.9208,-1.1297,-0.0781
13316,11.0,-0.000008,-0.000006,-0.030831,0.000900,-0.001084,-0.007333,-1.0022,-1.2100,0.1281,-0.00014127,-0.00011975,-0.00175900,-0.00059504,0.00063562,0.03745949,-0.1887,0.1694,-9.7525,-0.001536,-0.004204,-0.001554,26.9116,0.0320,69,0,-1,-0.000070,0.000025,-0.029458,-0.001307,0.000420,0.011935,-0.9196,-1.1298,-0.0773
13328,12.0,0.000019,-0.000008,-0.030874,0.001253,-0.001064,-0.006273,-1.0028,-1.2123,0.1267,-0.00014548,-0.00011417,-0.00175877,-0.00064138,0.00060898,0.03720108,-0.1911,0.1626,-9.7236,-0.001775,-0.002529,-0.002971,26.9116,0.0320,61,0,-1,-0.000021,0.000024,-0.030979,-0.001076,0.000336,-0.004924,-0.9213,-1.1301,-0.0754
13339,11.0,0.000020,-0.000060,-0.030941,0.001191,-0.001637,-0.006000,-1.0052,-1.2136,0.1286,-0.00013633,-0.00012314,-0.00175931,-0.00064653,0.00078102,0.03720414,-0.1996,0.1593,-9.7447,-0.002477,-0.004173,-0.001471,26.9116,0.0320,70,2,0,0.000004,0.000023,-0.030972,-0.001001,0.000339,-0.004003,-0.9212,-1.1308,-0.0758
13350,11.0,0.000021,-0.000062,-0.029859,0.001291,-0.001579,0.007771,-1.0068,-1.2146,0.1286,-0.00014223,-0.00012813,-0.00175927,-0.00074533,0.00084619,0.03051759,-0.1844,0.1605,-9.7336,-0.003755,-0.002612,-0.001581,26.9116,0.0290,70,0,0,0.000004,-0.000027,-0.031011,-0.001068,0.000203,-0.003787,-0.9216,-1.1318,-0.0756
13361,11.0,-0.000000,-0.000065,-0.029771,0.000978,-0.001535,0.008241,-1.0074,-1.2139,0.1296,-0.00015522,-0.00014679,-0.00175943,-0.00068958,0.00086650,0.03051652,-0.1988,0.1590,-9.7334,-0.003884,-0.002721,-0.001214,26.9116,0.0290,73,0,1,-0.000018,-0.000028,-0.029677,-0.001203,0.000183,0.010768,-0.9210,-1.1317,-0.0741
13372,11.0,0.000001,-0.000020,-0.029603,0.000928,-0.001092,0.009476,-1.0074,-1.2147,0.1301,-0.00017989,-0.00015069,-0.00175885,-0.00067016,0.00070154,0.03006383,-0.2023,0.1495,-9.7465,-0.004584,-0.002210,0.001468,26.8534,0.0290,69,-2,0,-0.000018,0.000016,-0.029568,-0.001216,0.000303,0.011101,-0.9207,-1.1325,-0.0742
13383,11.0,0.000002,0.000003,-0.030864,0.000825,-0.000826,-0.006089,-1.0058,-1.2155,0.1298,-0.00020226,-0.00015494,-0.00175858,-0.00048418,0.00053650,0.03791117,-0.2080,0.1583,-9.7407,-0.002205,-0.002130,-0.001909,26.8534,0.0320,70,-1,0,-0.000018,0.000061,-0.029360,-0.001244,0.000341,0.012433,-0.9201,-1.1331,-0.0729
13394,11.0,0.000002,0.000002,-0.030871,0.000924,-0.000834,-0.005075,-1.0072,-1.2180,0.0158,-0.00020551,-0.00015887,-0.00173632,-0.00038654,0.00061433,0.03756768,-0.1899,0.1620,-9.7404,-0.005134,-0.002993,-0.002773,26.8534,0.0320,65,0,0,-0.000068,0.000110,-0.030938,-0.001421,0.000438,-0.005456,-0.9191,-1.1346,-0.1322
13405,11.0,0.000003,0.000026,-0.030925,0.001020,-0.000609,-0.004719,-1.0051,-1.2173,0.0159,-0.00022700,-0.00017444,-0.00173604,-0.00046121,0.00059393,0.03756858,-0.1866,0.1571,-9.7371,-0.001034,-0.002513,-0.000429,26.8534,0.0320,64,-1,0,-0.000068,0.000109,-0.030915,-0.001400,0.000441,-0.004475,-0.9205,-1.1350,-0.1322
13416,11.0,0.000003,0.000048,-0.029844,0.001060,-0.000393,0.008678,-1.0061,-1.2167,0.0169,-0.00023850,-0.00017856,-0.00173583,-0.00056193,0.00062076,0.03116526,-0.1933,0.1620,-9.7538,-0.003709,-0.000050,0.000743,26.8534,0.0290,64,-1,0,-0.000068,0.000133,-0.030959,-0.001302,0.000548,-0.004166,-0.9212,-1.1344,-0.1320
13427,11.0,0.000004,0.000047,-0.029747,0.001029,-0.000445,0.008958,-1.0058,-1.2175,0.0174,-0.00024494,-0.00018801,-0.00173589,-0.00057685,0.00065440,0.03116603,-0.1991,0.1629,-9.7500,-0.001284,-0.003366,-0.001338,26.8878,0.0290,68,0,0,-0.000069,0.000155,-0.029652,-0.001152,0.000539,0.009812,-0.9209,-1.1342,-0.1313
13438,11.0,0.000005,0.000046,-0.029586,0.001068,-0.000449,0.009806,-1.0070,-1.2182,0.0183,-0.00024672,-0.00019279,-0.00173595,-0.00055299,0.00064851,0.03080688,-0.1936,0.1678,-9.7664,-0.002366,-0.002118,-0.000462,26.8878,0.0290,69,0,0,-0.000069,0.000154,-0.029383,-0.001173,0.000588,0.010791,-0.9179,-1.1351,-0.1295
13448,10.0,0.000030,0.000022,-0.030840,0.001344,-0.001032,-0.005902,-1.0051,-1.2187,0.0184,-0.00026200,-0.00019515,-0.00173615,-0.00050081,0.00076718,0.03838724,-0.1947,0.1300,-9.7579,-0.001295,-0.001923,-0.004239,26.8878,0.0320,74,1,-1,-0.000044,0.000128,-0.030898,-0.001094,0.000488,-0.007087,-0.9181,-1.1356,-0.1296
13459,11.0,0.000031,-0.000004,-0.030857,0.001407,-0.001297,-0.005127,-1.0062,-1.2189,0.0177,-0.00025597,-0.00020157,-0.00173644,-0.00046588,0.00080942,0.03811330,-0.1876,0.1628,-9.7506,-0.001105,-0.001567,-0.003813,26.8878,0.0320,71,1,0,-0.000020,0.000104,-0.030918,-0.000995,0.000198,-0.006410,-0.9176,-1.1356,-0.1305
13470,11.0,0.000008,-0.000005,-0.030911,0.001107,-0.001371,-0.004772,-1.0067,-1.2169,0.0189,-0.00027409,-0.00022576,-0.00173668,-0.00042709,0.00087963,0.03811336,-0.1945,0.1494,-9.7365,-0.004726,-0.001451,-0.001233,26.8878,0.0320,67,0,1,-0.000020,0.000079,-0.030982,-0.000930,0.000132,-0.006329,-0.9171,-1.1354,-0.1317
13481,11.0,0.000008,-0.000006,-0.030395,0.001179,-0.001497,0.002305,-1.0074,-1.2175,0.0198,-0.00028047,-0.00023086,-0.00173662,-0.00045716,0.00088986,0.03499279,-0.1886,0.1451,-9.7301,-0.002302,-0.002026,-0.000184,26.8878,0.0300,72,0,0,-0.000045,0.000078,-0.031016,-0.000989,0.000029,-0.005010,-0.9183,-1.1342,-0.0937
13492,11.0,0.000010,-0.000008,-0.030367,0.001060,-0.001500,0.002774,-1.0055,-1.2191,0.0203,-0.00029599,-0.00023681,-0.00173661,-0.00043545,0.00092793,0.03499282,-0.2069,0.1554,-9.7290,-0.000301,-0.003757,-0.001630,26.8191,0.0300,72,0,0,-0.000045,0.000078,-0.030368,-0.000923,-0.000084,0.002632,-0.9181,-1.1341,-0.0935
13503,11.0,0.000011,-0.000010,-0.030246,0.000919,-0.001452,0.004255,-1.0058,-1.2194,0.1006,-0.00030256,-0.00024111,-0.00175401,-0.00047769,0.00082416,0.03450049,-0.2105,0.1620,-9.7329,-0.000380,-0.002689,-0.000769,26.8191,0.0300,67,0,0,-0.000022,0.000075,-0.030226,-0.000892,0.000205,0.003901,-0.9166,-1.1355,-0.0939
13514,11.0,-0.000013,-0.000011,-0.031175,0.000614,-0.001653,-0.006693,-1.0014,-1.2184,0.1016,-0.00033140,-0.00026159,-0.00175423,-0.00031908,0.00087022,0.03979285,-0.2001,0.1333,-9.7267,0.000862,-0.002187,-0.002208,26.8191,0.0320,70,0,1,-0.000022,0.000075,-0.031137,-0.000905,0.000184,-0.006322,-0.9156,-1.1361,-0.0941
13525,11.0,-0.000037,-0.000039,-0.031178,0.000466,-0.001884,-0.005348,-1.0039,-1.2200,0.1032,-0.00032741,-0.00027601,-0.00175461,-0.00024101,0.00089923,0.03941541,-0.1882,0.1595,-9.7192,-0.003640,-0.005174,-0.000376,26.8191,0.0320,68,1,1,-0.000047,0.000075,-0.031199,-0.000976,-0.000045,-0.006020,-0.9138,-1.1360,-0.0945
13536,11.0,-0.000013,-0.000042,-0.031236,0.000919,-0.001715,-0.005125,-1.0047,-1.2206,0.1030,-0.00033683,-0.00028128,-0.00175418,-0.00040507,0.00086614,0.03941816,-0.1841,0.1694,-9.7471,-0.003173,-0.002828,0.000037,26.8191,0.0320,72,0,-1,-0.000098,0.000025,-0.031209,-0.000958,-0.000317,-0.004407,-0.9124,-1.1355,-0.0931
13547,11.0,0.000012,-0.000045,-0.030528,0.001048,-0.001580,0.003902,-1.0058,-1.2241,0.1028,-0.00034332,-0.00027409,-0.00175387,-0.00052776,0.00089139,0.03535552,-0.2128,0.1688,-9.7578,-0.002906,-0.004811,-0.001122,26.8191,0.0300,66,0,-1,-0.000073,0.000024,-0.031252,-0.000829,-0.000263,-0.004279,-0.9126,-1.1353,-0.0921
13558,11.0,0.000060,-0.000047,-0.030483,0.001530,-0.001461,0.004280,-1.0046,-1.2264,0.1019,-0.00035288,-0.00026273,-0.00175335,-0.00066146,0.00087479,0.03535804,-0.2011,0.1672,-9.7368,-0.000199,-0.002466,-0.001578,26.8191,0.0300,70,0,-2,-0.000049,0.000023,-0.030405,-0.000883,-0.000201,0.005376,-0.9120,-1.1365,-0.0923
13569,11.0,0.000062,-0.000049,-0.030389,0.001406,-0.001442,0.005035,-1.0059,-1.2263,0.1009,-0.00035982,-0.00026956,-0.00175331,-0.00062725,0.00083895,0.03510917,-0.2062,0.1587,-9.7524,-0.003363,-0.001028,-0.003306,26.9327,0.0300,66,0,0,-0.000002,0.000020,-0.030294,-0.000809,-0.000117,0.005697,-0.9106,-1.1413,-0.0926
13580,11.0,0.000013,-0.000051,-0.031236,0.000949,-0.001331,-0.005166,-1.0054,-1.2230,0.1003,-0.00036897,-0.00031523,-0.00175368,-0.00048553,0.00074321,0.03984517,-0.1823,0.1682,-9.7385,-0.001250,-0.002810,-0.002789,26.9327,0.0320,73,0,2,-0.000002,0.000019,-0.030175,-0.000811,-0.000090,0.006542,-0.9111,-1.1416,-0.0934
13591,11.0,-0.000011,-0.000054,-0.031256,0.000701,-0.001132,-0.004352,-1.0061,-1.2235,0.1006,-0.00037415,-0.00033148,-0.00175390,-0.00039827,0.00071672,0.03965267,-0.1957,0.1788,-9.7313,-0.002245,-0.003574,-0.001883,26.9327,0.0320,73,0,1,-0.000052,0.000018,-0.031252,-0.000846,0.000016,-0.005643,-0.9111,-1.1408,-0.0498
13602,11.0,-0.000011,-0.000055,-0.031303,0.000733,-0.001249,-0.004150,-1.0065,-1.2229,0.1000,-0.00039435,-0.00034123,-0.00175389,-0.00043183,0.00080183,0.03965461,-0.1981,0.1467,-9.7489,-0.004824,-0.001097,-0.003444,26.9327,0.0320,65,0,0,-0.000077,0.000016,-0.031320,-0.000837,0.000114,-0.004863,-0.9112,-1.1407,-0.0515
13613,11.0,-0.000009,-0.000057,-0.031670,0.000605,-0.001120,-0.007675,-1.0067,-1.2231,0.1815,-0.00039998,-0.00034450,-0.00177401,-0.00044514,0.00066466,0.04131940,-0.2135,0.1734,-9.7442,0.000036,-0.002472,-0.003540,26.9327,0.0320,65,0,0,-0.000077,0.000016,-0.031309,-0.000826,0.000078,-0.004090,-0.9113,-1.1404,-0.0521
13624,11.0,-0.000009,-0.000083,-0.031753,0.000733,-0.001294,-0.007364,-1.0097,-1.2222,0.1817,-0.00039507,-0.00035959,-0.00177419,-0.00052237,0.00071147,0.04132174,-0.1885,0.1702,-9.7371,-0.004574,-0.001911,-0.001288,26.9327,0.0310,69,1,0,-0.000077,-0.000010,-0.031130,-0.001044,0.000181,-0.001088,-0.9106,-1.1403,-0.0525
13635,11.0,-0.000008,-0.000062,-0.031799,0.000763,-0.000876,-0.006621,-1.0108,-1.2243,0.1805,-0.00041166,-0.00036334,-0.00177385,-0.00050504,0.00062471,0.04114927,-0.1981,0.1751,-9.7330,-0.004598,-0.004236,-0.002821,26.9697,0.0310,65,-1,0,-0.000077,-0.000011,-0.031112,-0.000975,0.000328,-0.000570,-0.9121,-1.1403,-0.0530
13647,12.0,-0.000007,-0.000039,-0.031938,0.000759,-0.000549,-0.006865,-1.0099,-1.2252,0.1817,-0.00042978,-0.00037201,-0.00177352,-0.00051620,0.00055451,0.04146048,-0.2013,0.1688,-9.7259,-0.001516,-0.003119,0.000920,26.9697,0.0320,69,-1,0,-0.000077,0.000035,-0.031603,-0.000995,0.000631,-0.005216,-0.9122,-1.1419,-0.0511
13658,11.0,-0.000007,-0.000040,-0.031987,0.000842,-0.000643,-0.006346,-1.0122,-1.2266,0.1817,-0.00043266,-0.00037622,-0.00177353,-0.00049644,0.00054130,0.04132880,-0.1933,0.1583,-9.7457,-0.004522,-0.003086,-0.001900,26.9697,0.0320,73,0,0,-0.000077,0.000060,-0.031629,-0.001005,0.000730,-0.004669,-0.9123,-1.1424,-0.0507
13669,11.0,-0.000006,-0.000041,-0.032057,0.000864,-0.000769,-0.006333,-1.0110,-1.2275,0.1831,-0.00044730,-0.00038751,-0.00177358,-0.00052910,0.00061352,0.04133053,-0.1981,0.1533,-9.7643,-0.001325,-0.003894,-0.000161,26.9697,0.0320,73,0,0,-0.000077,0.000059,-0.031675,-0.000961,0.000744,-0.004548,-0.9133,-1.1428,-0.0511
13680,11.0,-0.000006,-0.000042,-0.032030,0.000889,-0.000888,-0.004982,-1.0103,-1.2287,0.1863,-0.00045155,-0.00039211,-0.00177357,-0.00051448,0.00059923,0.04085885,-0.1981,0.1533,-9.7424,0.000192,-0.003097,0.003239,26.9697,0.0320,72,0,0,-0.000077,0.000057,-0.031722,-0.000850,0.000721,-0.003894,-0.9116,-1.1454,-0.1451
13692,12.0,0.000020,-0.000043,-0.032087,0.001219,-0.001018,-0.004372,-1.0095,-1.2297,0.1862,-0.00046933,-0.00039442,-0.00177334,-0.00062360,0.00067599,0.04086231,-0.1944,0.1504,-9.7153,-0.002269,-0.002618,-0.001679,26.9697,0.0310,70,0,-1,-0.000053,0.000057,-0.031270,-0.000769,0.000685,0.001560,-0.9109,-1.1456,-0.1432
13703,11.0,0.000021,-0.000044,-0.032099,0.001204,-0.001143,-0.003554,-1.0107,-1.2314,0.1866,-0.00047486,-0.00040068,-0.00177333,-0.00059462,0.00065026,0.04069171,-0.1985,0.1497,-9.7280,-0.003088,-0.004038,-0.001168,26.9697,0.0310,71,0,0,-0.000029,0.000057,-0.031201,-0.000671,0.000494,0.002643,-0.9120,-1.1456,-0.1425
13714,11.0,0.000022,-0.000021,-0.032054,0.001259,-0.000826,-0.002118,-1.0101,-1.2305,0.1860,-0.00049773,-0.00041896,-0.00177297,-0.00066293,0.00060884,0.04029119,-0.1901,0.1639,-9.7217,-0.003124,-0.002326,-0.001446,26.9327,0.0320,74,-1,0,-0.000030,0.000080,-0.031111,-0.000567,0.000552,0.003620,-0.9117,-1.1470,-0.1425
13725,11.0,0.000023,-0.000022,-0.032040,0.001306,-0.000852,-0.001408,-1.0085,-1.2335,0.0253,-0.00050168,-0.00042586,-0.00172937,-0.00049757,0.00075488,0.04010911,-0.1933,0.1608,-9.7411,-0.001755,-0.003421,-0.001445,26.9327,0.0320,71,0,0,-0.000030,0.000104,-0.031630,-0.000510,0.000680,-0.002014,-0.9127,-1.1469,-0.1428
13736,11.0,0.000024,-0.000023,-0.032054,0.001198,-0.001033,-0.001158,-1.0077,-1.2345,0.0276,-0.00052307,-0.00043431,-0.00172947,-0.00048364,0.00085874,0.04011038,-0.2076,0.1440,-9.7439,-0.003044,-0.003357,0.000671,26.9327,0.0320,71,0,0,-0.000030,0.000103,-0.031619,-0.000461,0.000538,-0.001088,-0.9111,-1.1480,-0.1426
13747,11.0,0.000050,-0.000048,-0.031448,0.001412,-0.001314,0.006219,-1.0096,-1.2360,0.0282,-0.00051610,-0.00042807,-0.00172952,-0.00057551,0.00094279,0.03711770,-0.2041,0.1611,-9.7485,-0.002553,-0.002005,-0.000994,26.9327,0.0310,67,1,-1,-0.000029,0.000102,-0.031629,-0.000606,0.000519,-0.000896,-0.9111,-1.1485,-0.1400
13758,11.0,0.000051,-0.000049,-0.031378,0.001416,-0.001319,0.006640,-1.0097,-1.2344,0.0271,-0.00053204,-0.00044533,-0.00172951,-0.00061563,0.00097950,0.03711893,-0.1944,0.1572,-9.7315,-0.003475,-0.000915,-0.003521,26.9327,0.0310,68,0,0,-0.000005,0.000078,-0.031181,-0.000469,0.000364,0.003895,-0.9112,-1.1478,-0.1394
13769,11.0,0.000027,-0.000051,-0.031271,0.001285,-0.001330,0.007284,-1.0100,-1.2355,0.0273,-0.00053858,-0.00046552,-0.00172975,-0.00051889,0.00094931,0.03695638,-0.1817,0.1590,-9.7465,-0.002041,-0.004827,-0.001974,26.9697,0.0310,60,0,1,-0.000029,0.000078,-0.031141,-0.000480,0.000386,0.004086,-0.9121,-1.1467,-0.1402
13780,11.0,0.000027,-0.000054,-0.031625,0.001471,-0.001185,0.002733,-1.0117,-1.2332,0.0267,-0.00054468,-0.00049420,-0.00172962,-0.00059750,0.00088250,0.03905163,-0.1755,0.1738,-9.7211,-0.004005,-0.002078,-0.001068,26.9697,0.0320,76,0,0,-0.000055,0.000076,-0.031563,-0.000421,0.000373,-0.000985,-0.9122,-1.1479,-0.1404
13791,11.0,0.000028,-0.000055,-0.031568,0.001541,-0.001188,0.003370,-1.0127,-1.2333,0.0263,-0.00055083,-0.00050241,-0.00172964,-0.00055968,0.00085424,0.03892785,-0.1878,0.1606,-9.7371,-0.002892,-0.001687,-0.002473,26.9697,0.0320,67,0,0,-0.000055,0.000074,-0.031547,-0.000357,0.000554,-0.000163,-0.9138,-1.1494,-0.1710
13802,11.0,0.000029,-0.000082,-0.031528,0.001580,-0.001507,0.003942,-1.0123,-1.2335,0.0268,-0.00055445,-0.00052437,-0.00172997,-0.00062321,0.00096251,0.03893085,-0.1880,0.1560,-9.7161,-0.001179,-0.004791,-0.001494,26.9697,0.0320,76,1,0,-0.000055,0.000049,-0.031548,-0.000291,0.000451,-0.000024,-0.9141,-1.1480,-0.1715
13813,11.0,0.000030,-0.000107,-0.031194,0.001603,-0.001894,0.007507,-1.0145,-1.2341,0.0284,-0.00055065,-0.00053270,-0.00173023,-0.00061007,0.00100263,0.03756124,-0.1919,0.1461,-9.7508,-0.003459,-0.002643,0.000133,26.9697,0.0310,76,1,0,-0.000055,0.000023,-0.031547,-0.000209,0.000333,0.000306,-0.9137,-1.1491,-0.1715
13825,12.0,0.000033,-0.000112,-0.031101,0.001593,-0.001669,0.007975,-1.0151,-1.2337,0.0265,-0.00055788,-0.00055107,-0.00173011,-0.00064268,0.00094847,0.03756079,-0.1946,0.1765,-9.7299,-0.002195,-0.002722,-0.003670,26.9697,0.0310,69,0,0,-0.000056,-0.000002,-0.031124,-0.000041,0.000089,0.004647,-0.9136,-1.1482,-0.1712
13836,11.0,0.000058,-0.000113,-0.030978,0.001932,-0.001751,0.008911,-1.0162,-1.2354,-0.0206,-0.00056710,-0.00054786,-0.00171580,-0.00061999,0.00095705,0.03740242,-0.1868,0.1472,-9.7202,-0.004586,-0.002062,-0.001626,26.9697,0.0310,73,0,-1,-0.000056,-0.000003,-0.031042,-0.000025,0.000182,0.005344,-0.9147,-1.1488,-0.1724
13847,11.0,0.000084,-0.000115,-0.030938,0.002221,-0.001758,0.008650,-1.0150,-1.2351,-0.0228,-0.00058841,-0.00056109,-0.00171554,-0.00073422,0.00100025,0.03768938,-0.1862,0.1533,-9.7290,-0.002374,-0.002693,-0.004698,26.9697,0.0310,73,0,-1,-0.000032,-0.000003,-0.030987,0.000157,0.000126,0.005698,-0.9158,-1.1488,-0.1730
13858,11.0,0.000086,-0.000141,-0.030805,0.002045,-0.002149,0.009530,-1.0159,-1.2360,-0.0224,-0.00058609,-0.00057228,-0.00171582,-0.00068464,0.00101364,0.03751902,-0.2046,0.1431,-9.7278,-0.001594,-0.003498,-0.001581,26.9327,0.0310,76,1,0,0.000017,-0.000005,-0.030872,0.000379,0.000221,0.006064,-0.9165,-1.1489,-0.1741
13869,11.0,0.000088,-0.000143,-0.030698,0.002002,-0.002171,0.009924,-1.0148,-1.2353,-0.0217,-0.00061309,-0.00059460,-0.00171581,-0.00072039,0.00107741,0.03752050,-0.1920,0.1472,-9.7337,-0.003378,-0.003166,-0.000936,26.9327,0.0310,69,0,0,0.000017,-0.000030,-0.030810,0.000332,0.000093,0.006368,-0.9155,-1.1497,-0.1738
13880,11.0,0.000066,-0.000146,-0.030780,0.001661,-0.002015,0.008004,-1.0155,-1.2351,-0.0223,-0.00062395,-0.00061758,-0.00171600,-0.00059569,0.00101229,0.03839958,-0.1969,0.1670,-9.7407,-0.003341,-0.003301,-0.003141,26.9327,0.0310,74,0,1,0.000017,-0.000031,-0.030687,0.000300,0.000085,0.007292,-0.9157,-1.1500,-0.1741
13891,11.0,0.000018,-0.000125,-0.030690,0.001083,-0.001505,0.008333,-1.0146,-1.2329,-0.0220,-0.00064324,-0.00065990,-0.00171607,-0.00050748,0.00089389,0.03839521,-0.1960,0.1778,-9.7381,-0.001487,-0.003331,-0.000716,26.9327,0.0310,74,-1,2,-0.000054,-0.000008,-0.030785,0.000119,0.000327,0.005481,-0.9169,-1.1491,-0.1498
13902,11.0,0.000020,-0.000126,-0.030551,0.000931,-0.001625,0.009223,-1.0146,-1.2341,-0.0242,-0.00065175,-0.00066493,-0.00171595,-0.00048807,0.00085783,0.03817978,-0.2146,0.1459,-9.7370,-0.001926,-0.003259,-0.004922,26.9327,0.0310,70,0,0,-0.000103,0.000014,-0.030620,0.000069,0.000552,0.006366,-0.9176,-1.1488,-0.1488
13913,11.0,0.000020,-0.000127,-0.030742,0.000959,-0.001773,0.006280,-1.0130,-1.2331,-0.0253,-0.00068198,-0.00067880,-0.00171593,-0.00050039,0.00094462,0.03952362,-0.1968,0.1386,-9.7239,-0.003515,-0.001390,-0.004286,26.9327,0.0310,70,0,0,-0.000102,0.000014,-0.030785,-0.000005,0.000439,0.004097,-0.9164,-1.1496,-0.1499
13924,11.0,0.000021,-0.000128,-0.030636,0.001077,-0.001826,0.007026,-1.0138,-1.2326,-0.0234,-0.00069194,-0.00068463,-0.00171579,-0.00047657,0.00090148,0.03935846,-0.1885,0.1491,-9.7381,-0.003199,-0.000704,0.001633,26.9327,0.0310,71,0,0,-0.000102,0.000063,-0.030743,-0.000028,0.000236,0.004251,-0.9156,-1.1498,-0.1514
13935,11.0,0.000022,-0.000131,-0.030558,0.001011,-0.001778,0.007278,-1.0142,-1.2339,-0.0222,-0.00070987,-0.00069333,-0.00171571,-0.00047587,0.00092387,0.03935863,-0.2058,0.1589,-9.7443,-0.004115,-0.004046,-0.000095,26.9327,0.0310,71,0,0,-0.000102,0.000062,-0.030594,0.000089,0.000091,0.005392,-0.9149,-1.1486,-0.1509
13946,11.0,0.000022,-0.000133,-0.030728,0.001137,-0.001752,0.004718,-1.0165,-1.2342,0.0242,-0.00071947,-0.00069971,-0.00173081,-0.00046633,0.00081122,0.04049021,-0.1870,0.1582,-9.7329,-0.004768,-0.002940,-0.000932,26.9327,0.0310,77,0,0,-0.000101,0.000085,-0.030539,0.000027,0.000193,0.005611,-0.9158,-1.1503,-0.1501
13957,11.0,0.000024,-0.000135,-0.030674,0.001038,-0.001774,0.005167,-1.0158,-1.2340,0.0245,-0.00074235,-0.00070701,-0.00173077,-0.00045324,0.00086631,0.04049066,-0.2085,0.1513,-9.7253,-0.003436,-0.001449,-0.001936,26.9327,0.0310,72,0,0,-0.000101,0.000085,-0.030779,0.000073,0.000216,0.002712,-0.9167,-1.1506,-0.1494
13968,11.0,0.000025,-0.000136,-0.030570,0.000922,-0.001790,0.006004,-1.0162,-1.2347,0.0241,-0.00075191,-0.00071201,-0.00173062,-0.00043455,0.00082636,0.04028081,-0.2117,0.1538,-9.7396,-0.002640,-0.002419,-0.002029,26.9327,0.0310,64,0,0,-0.000101,0.000083,-0.030721,0.000042,0.000201,0.002980,-0.9158,-1.1501,-0.1491
13979,11.0,0.000025,-0.000138,-0.030767,0.001106,-0.001667,0.003106,-1.0164,-1.2323,0.0238,-0.00076533,-0.00073611,-0.00173042,-0.00051531,0.00079703,0.04145423,-0.1806,0.1671,-9.7501,-0.003096,-0.001283,-0.001088,26.9327,0.0310,68,0,0,-0.000101,0.000083,-0.030829,-0.000007,0.000175,0.001669,-0.9155,-1.1511,-0.1491
13990,11.0,0.000025,-0.000140,-0.030707,0.001323,-0.001617,0.003795,-1.0172,-1.2324,0.0231,-0.00077406,-0.00074336,-0.00173034,-0.00048487,0.00075960,0.04134107,-0.1766,0.1613,-9.7298,-0.003162,-0.001709,-0.002704,26.9697,0.0310,68,0,0,-0.000101,0.000082,-0.030812,0.000144,0.000235,0.001785,-0.9151,-1.1509,-0.1769
14001,11.0,0.000026,-0.000142,-0.030664,0.001339,-0.001587,0.003867,-1.0186,-1.2316,0.0226,-0.00079109,-0.00076037,-0.00173028,-0.00052477,0.00078564,0.04134210,-0.1943,0.1598,-9.7590,-0.005887,-0.002342,-0.002542,26.9697,0.0310,68,0,0,-0.000101,0.000079,-0.030739,0.000168,0.000390,0.002378,-0.9164,-1.1508,-0.1786
14012,11.0,0.000027,-0.000168,-0.030802,0.001369,-0.001854,0.002147,-1.0195,-1.2312,0.0219,-0.00078760,-0.00076811,-0.00173053,-0.00047453,0.00078863,0.04213733,-0.1929,0.1575,-9.7293,-0.001778,-0.001184,-0.003117,26.9697,0.0310,70,1,0,-0.000100,0.000055,-0.030875,0.000145,0.000293,0.000679,-0.9177,-1.1512,-0.1791
14023,11.0,0.000028,-0.000170,-0.030776,0.001422,-0.001887,0.002470,-1.0176,-1.2308,0.0232,-0.00081167,-0.00078894,-0.00173047,-0.00053549,0.00084810,0.04213930,-0.1887,0.1502,-9.7356,-0.001744,-0.003777,0.000189,26.9697,0.0310,66,0,0,-0.000100,0.000030,-0.030830,0.000186,0.000159,0.001322,-0.9174,-1.1505,-0.1790
14034,11.0,0.000029,-0.000172,-0.030715,0.001449,-0.001958,0.003293,-1.0173,-1.2322,0.0237,-0.00082204,-0.00079696,-0.00173037,-0.00050266,0.00080447,0.04199529,-0.1921,0.1473,-9.7249,-0.001645,-0.004065,-0.000816,26.9697,0.0310,67,0,0,-0.000076,0.000030,-0.030775,0.000366,0.000053,0.002012,-0.9180,-1.1498,-0.1792
14044,10.0,0.000029,-0.000172,-0.030847,0.001470,-0.001855,0.001426,-1.0166,-1.2301,0.0239,-0.00083932,-0.00081718,-0.00173025,-0.00054093,0.00079970,0.04271309,-0.1901,0.1621,-9.7584,-0.002682,-0.000866,-0.000807,26.9697,0.0310,71,0,0,-0.000076,0.000029,-0.030754,0.000418,0.000004,0.002303,-0.9176,-1.1496,-0.1790
14055,11.0,0.000031,-0.000174,-0.030806,0.001364,-0.002002,0.001903,-1.0172,-1.2303,-0.0171,-0.00085012,-0.00082459,-0.00171570,-0.00047237,0.00080026,0.04260302,-0.2060,0.1394,-9.7475,-0.004076,-0.001333,-0.003358,26.9697,0.0310,71,0,0,-0.000076,0.000028,-0.030898,0.000449,0.000126,0.000649,-0.9172,-1.1497,-0.1794
14066,11.0,0.000032,-0.000176,-0.030783,0.001422,-0.002001,0.002208,-1.0170,-1.2290,-0.0181,-0.00087393,-0.00084519,-0.00171561,-0.00053320,0.00084942,0.04260481,-0.1884,0.1517,-9.7367,-0.004464,-0.002339,-0.003200,26.9697,0.0310,75,0,0,-0.000075,0.000051,-0.030853,0.000460,0.000055,0.000993,-0.9173,-1.1498,-0.1794
14077,11.0,0.000033,-0.000179,-0.030864,0.001476,-0.001924,0.001123,-1.0167,-1.2308,-0.0171,-0.00088412,-0.00085346,-0.00171552,-0.00048798,0.00079793,0.04305711,-0.1896,0.1619,-9.7503,-0.001760,-0.004816,-0.000043,26.9697,0.0310,69,0,0,-0.000075,0.000050,-0.030905,0.000513,-0.000006,0.000483,-0.9170,-1.1492,-0.1801
14088,11.0,0.000034,-0.000181,-0.030849,0.001412,-0.001887,0.001558,-1.0120,-1.2295,-0.0161,-0.00090486,-0.00086778,-0.00171546,-0.00049978,0.00082809,0.04305762,-0.1997,0.1556,-9.7241,0.003233,-0.001178,-0.000296,26.9697,0.0310,65,0,0,-0.000075,0.000048,-0.030892,0.000591,0.000139,0.000975,-0.9166,-1.1497,-0.1987
14100,12.0,0.000037,-0.000185,-0.030796,0.001351,-0.001919,0.002364,-1.0121,-1.2305,-0.0170,-0.00091518,-0.00087529,-0.00171535,-0.00046980,0.00078547,0.04291428,-0.2017,0.1521,-9.7291,-0.002314,-0.003188,-0.002778,26.9697,0.0310,73,0,0,-0.000075,0.000048,-0.030842,0.000544,0.000135,0.001713,-0.9151,-1.1494,-0.1985
14111,11.0,0.000063,-0.000186,-0.030889,0.001481,-0.001966,0.001164,-1.0101,-1.2308,-0.0166,-0.00094206,-0.00087004,-0.00171509,-0.00048700,0.00084524,0.04342285,-0.2101,0.1458,-9.7456,-0.002406,-0.000607,-0.001493,26.9697,0.0310,72,0,-1,-0.000074,0.000047,-0.030824,0.000481,0.000227,0.001960,-0.9156,-1.1495,-0.1990
14122,11.0,0.000015,-0.000214,-0.030851,0.001006,-0.002030,0.001628,-1.0107,-1.2306,-0.0137,-0.00093881,-0.00090353,-0.00171588,-0.00034484,0.00086011,0.04331292,-0.1881,0.1741,-9.7480,-0.001373,-0.005101,0.001649,26.9697,0.0310,67,1,2,-0.000049,0.000047,-0.030889,0.000501,0.000089,0.001228,-0.9149,-1.1481,-0.1982
14133,11.0,-0.000033,-0.000241,-0.030831,0.000492,-0.002273,0.001972,-1.0096,-1.2289,-0.0122,-0.00094850,-0.00094278,-0.00171662,-0.00027698,0.00095013,0.04331268,-0.1957,0.1532,-9.7323,-0.001165,-0.004056,-0.000704,26.9697,0.0310,67,1,2,-0.000098,0.000021,-0.030876,0.000436,0.000112,0.001336,-0.9141,-1.1491,-0.1963
14144,11.0,-0.000034,-0.000243,-0.030341,0.000707,-0.002189,0.007677,-1.0116,-1.2291,-0.0146,-0.00095996,-0.00094613,-0.00171639,-0.00030077,0.00093071,0.04137528,-0.1831,0.1573,-9.7371,-0.005738,-0.001588,-0.005187,26.9697,0.0300,68,0,0,-0.000146,-0.000004,-0.030308,0.000405,-0.000105,0.007537,-0.9121,-1.1485,-0.1963
14155,11.0,-0.000033,-0.000222,-0.030255,0.000800,-0.002039,0.008067,-1.0084,-1.2287,-0.0126,-0.00100550,-0.00096140,-0.00171597,-0.00036175,0.00098031,0.04137695,-0.1916,0.1363,-9.7304,-0.003139,-0.003170,0.001491,26.9697,0.0300,67,-1,0,-0.000146,-0.000004,-0.030205,0.000480,-0.000127,0.008087,-0.9127,-1.1473,-0.1976
14166,11.0,-0.000033,-0.000224,-0.030134,0.000767,-0.001736,0.008561,-1.0092,-1.2275,0.0644,-0.00101515,-0.00096559,-0.00174656,-0.00042294,0.00084741,0.04124130,-0.2047,0.1827,-9.7543,-0.002021,-0.000833,-0.002565,26.9697,0.0300,66,0,0,-0.000146,0.000019,-0.030123,0.000528,-0.000238,0.008401,-0.9127,-1.1476,-0.1963
14177,11.0,-0.000033,-0.000226,-0.030555,0.000974,-0.001805,0.003192,-1.0088,-1.2258,0.0653,-0.00104132,-0.00098993,-0.00174642,-0.00049219,0.00088781,0.04337648,-0.1776,0.1450,-9.7063,-0.004752,-0.002778,-0.000239,26.9697,0.0310,68,0,0,-0.000145,0.000018,-0.030551,0.000430,-0.000239,0.002420,-0.9139,-1.1484,-0.1962
14188,11.0,-0.000032,-0.000229,-0.030509,0.001035,-0.001714,0.003637,-1.0090,-1.2264,0.0648,-0.00105050,-0.00099561,-0.00174630,-0.00046852,0.00084924,0.04333853,-0.1929,0.1631,-9.7323,-0.002571,-0.002663,-0.002343,27.0252,0.0310,65,0,0,-0.000145,0.000017,-0.030524,0.000477,-0.000324,0.002864,-0.9145,-1.1469,-0.1484
14199,11.0,-0.000031,-0.000231,-0.030467,0.001034,-0.001609,0.004036,-1.0087,-1.2264,0.0640,-0.00106338,-0.00100840,-0.00174618,-0.00049618,0.00084503,0.04333885,-0.1976,0.1651,-9.7270,-0.002666,-0.003199,-0.002763,27.0252,0.0310,66,0,0,-0.000144,0.000016,-0.030450,0.000548,-0.000258,0.003463,-0.9151,-1.1453,-0.1488
14210,11.0,-0.000007,-0.000233,-0.030179,0.001418,-0.001645,0.007139,-1.0084,-1.2286,0.0634,-0.00107183,-0.00100263,-0.00174584,-0.00053982,0.00082469,0.04235446,-0.1860,0.1525,-9.7376,-0.001660,-0.003726,-0.002174,27.0252,0.0300,64,0,-1,-0.000120,0.000014,-0.030414,0.000596,-0.000211,0.003696,-0.9149,-1.1464,-0.1493
14221,11.0,-0.000006,-0.000236,-0.030098,0.001430,-0.001510,0.007486,-1.0089,-1.2286,0.0630,-0.00108163,-0.00102092,-0.00174573,-0.00058253,0.00080601,0.04235483,-0.1922,0.1693,-9.7328,-0.003395,-0.004100,-0.002040,27.0252,0.0300,67,0,0,-0.000096,0.000013,-0.030119,0.000666,-0.000229,0.006584,-0.9147,-1.1471,-0.1494
14232,11.0,-0.000005,-0.000238,-0.030003,0.001432,-0.001531,0.007987,-1.0097,-1.2299,0.0628,-0.00108957,-0.00102875,-0.00174569,-0.00055012,0.00077300,0.04230743,-0.1946,0.1552,-9.7311,-0.003392,-0.004020,-0.002019,27.0252,0.0300,67,0,0,-0.000096,0.000011,-0.029972,0.000701,0.000018,0.007062,-0.9163,-1.1464,-0.1506
14243,11.0,-0.000004,-0.000265,-0.031043,0.001347,-0.001774,-0.004814,-1.0102,-1.2298,0.0628,-0.00109346,-0.00104163,-0.00174602,-0.00045853,0.00077301,0.04684742,-0.2028,0.1594,-9.7340,-0.003004,-0.002998,-0.002379,27.0252,0.0320,73,1,0,-0.000096,0.000010,-0.029900,0.000723,-0.000028,0.007320,-0.9174,-1.1478,-0.1506
14254,11.0,-0.000003,-0.000292,-0.031085,0.001432,-0.001998,-0.004329,-1.0102,-1.2308,0.0658,-0.00108985,-0.00104954,-0.00174630,-0.00042596,0.00078865,0.04681045,-0.1868,0.1599,-9.7257,-0.000458,-0.003707,0.002531,27.0252,0.0320,73,1,0,-0.000095,-0.000016,-0.031141,0.000639,-0.000082,-0.006401,-0.9183,-1.1492,-0.1509
14265,11.0,-0.000002,-0.000295,-0.031131,0.001554,-0.001875,-0.003982,-1.0088,-1.2296,0.0652,-0.00110465,-0.00107537,-0.00174612,-0.00051563,0.00078350,0.04681195,-0.1802,0.1641,-9.7287,-0.001162,-0.003783,-0.001895,26.9697,0.0320,72,0,0,-0.000095,-0.000043,-0.031256,0.000591,-0.000018,-0.005999,-0.9184,-1.1502,-0.1482
14277,12.0,0.000000,-0.000323,-0.030504,0.001524,-0.002107,0.003945,-1.0093,-1.2315,0.0376,-0.00110187,-0.00108315,-0.00173497,-0.00050785,0.00087073,0.04414932,-0.1981,0.1579,-9.7488,-0.002015,-0.004226,-0.003824,26.9697,0.0300,68,1,0,-0.000095,-0.000044,-0.031273,0.000648,0.000014,-0.005287,-0.9179,-1.1509,-0.1484
14288,11.0,0.000001,-0.000325,-0.030460,0.001511,-0.002069,0.004175,-1.0070,-1.2306,0.0387,-0.00112408,-0.00110093,-0.00173490,-0.00054148,0.00090429,0.04415030,-0.1941,0.1530,-9.7419,-0.001228,-0.002740,-0.000112,26.9697,0.0300,75,0,0,-0.000094,-0.000069,-0.030492,0.000643,0.000083,0.003617,-0.9182,-1.1518,-0.1672
14300,12.0,0.000003,-0.000330,-0.030375,0.001612,-0.002066,0.004930,-1.0078,-1.2330,0.0378,-0.00113486,-0.00110981,-0.00173480,-0.00050662,0.00086110,0.04401680,-0.1858,0.1532,-9.7324,-0.003543,-0.005675,-0.002900,26.9697,0.0300,70,0,0,-0.000094,-0.000070,-0.030423,0.000619,0.000096,0.004077,-0.9176,-1.1516,-0.1661
14311,11.0,0.000005,-0.000332,-0.031240,0.001521,-0.002006,-0.005266,-1.0068,-1.2322,0.0377,-0.00115622,-0.00112445,-0.00173477,-0.00043742,0.00082600,0.04760569,-0.2015,0.1550,-9.7235,-0.003128,-0.002157,-0.002030,26.9697,0.0320,72,0,0,-0.000094,-0.000071,-0.030381,0.000683,0.000051,0.004399,-0.9182,-1.1523,-0.1660
14322,11.0,0.000007,-0.000334,-0.031270,0.001352,-0.001908,-0.004558,-1.0067,-1.2324,0.0362,-0.00116642,-0.00113184,-0.00173465,-0.00040819,0.00078483,0.04750419,-0.2110,0.1609,-9.7214,-0.002406,-0.002517,-0.003968,26.9697,0.0320,72,0,0,-0.000093,-0.000072,-0.031358,0.000613,0.000134,-0.005629,-0.9168,-1.1508,-0.1683
14333,11.0,0.000007,-0.000336,-0.031319,0.001432,-0.001880,-0.004287,-1.0054,-1.2311,0.0353,-0.00118685,-0.00115360,-0.00173454,-0.00047711,0.00081897,0.04750592,-0.1860,0.1536,-9.7350,-0.002696,-0.002765,-0.003042,26.9697,0.0290,72,0,0,-0.000093,-0.000072,-0.031413,0.000526,0.000148,-0.005317,-0.9169,-1.1515,-0.1690
14344,11.0,0.000008,-0.000338,-0.030047,0.001378,-0.001793,0.011353,-1.0055,-1.2310,0.0350,-0.00119542,-0.00115985,-0.00173444,-0.00055004,0.00086476,0.04241747,-0.2004,0.1610,-9.7223,-0.002424,-0.001957,-0.002036,26.9697,0.0290,70,0,0,-0.000093,-0.000051,-0.030003,0.000626,0.000120,0.010496,-0.9158,-1.1526,-0.1693
