timestamp_ms,dt_ms,pos_x,pos_y,pos_z,vel_x,vel_y,vel_z,roll_deg,pitch_deg,yaw_deg,gyro_bias_x,gyro_bias_y,gyro_bias_z,accel_bias_x,accel_bias_y,accel_bias_z,raw_accel_x,raw_accel_y,raw_accel_z,raw_gyro_x,raw_gyro_y,raw_gyro_z,raw_baro_alt,raw_tof,raw_flow_squal,raw_flow_dx,raw_flow_dy,dev_pos_x,dev_pos_y,dev_pos_z,dev_vel_x,dev_vel_y,dev_vel_z,dev_roll_deg,dev_pitch_deg,dev_yaw_deg
10865,10.0,-0.000134,-0.000036,-0.262927,-0.007706,-0.002379,-0.001439,-0.0276,0.0330,0.0118,0.00000000,0.00000000,-0.00776300,0.00207742,0.00259510,0.00000000,1.1491,0.2556,-9.8881,-0.046152,0.050004,0.012925,20.0892,0.2630,131,0,0,-0.000921,0.000000,-0.297173,0.134366,0.014251,-0.319477,-0.1016,-0.0687,0.2878
10875,10.0,-0.000126,-0.000262,-0.262944,-0.003260,-0.012628,-0.001970,-0.4706,3.1072,-0.0142,0.00000133,-0.00001067,-0.00776298,0.00208427,0.00271100,0.00000006,1.0754,0.1425,-9.7414,-0.049781,0.028223,-0.017796,20.0892,0.2630,133,0,-1,-0.001019,-0.000019,-0.279253,0.141475,0.017136,-0.072745,-0.1273,-0.0441,0.3061
10886,11.0,-0.000146,-0.000297,-0.260912,0.001345,-0.009146,0.093453,-0.4639,3.1109,-0.0208,0.00000125,-0.00001068,-0.00776300,0.00209749,0.00259868,-0.00005738,0.9827,0.0731,-9.6444,-0.039814,0.003055,-0.028632,20.0892,0.2630,131,0,0,-0.001228,-0.000355,-0.280484,0.155227,0.017508,-0.049649,-0.1895,0.0209,0.3278
10898,12.0,0.000129,-0.000337,-0.262344,0.008743,-0.007423,0.019034,-0.2798,3.8590,-0.0305,-0.00000084,-0.00001991,-0.00776303,0.00173488,0.00247297,-0.00001014,0.9585,-0.0111,-9.5686,-0.027702,-0.007615,-0.023075,20.0892,0.2630,131,1,0,-0.001233,-0.000366,-0.280825,0.161294,0.017148,-0.035765,-0.2131,0.0191,0.3222
10909,11.0,0.000123,-0.000329,-0.261990,0.008841,-0.006399,0.024561,-0.2316,3.9033,-0.0237,-0.00000106,-0.00002017,-0.00776309,0.00198028,0.00227359,-0.00004459,0.8957,-0.0526,-9.5929,0.016156,-0.002056,-0.013870,20.0892,0.2620,131,0,0,-0.001124,-0.000437,-0.281120,0.166922,0.015777,-0.022585,-0.2301,0.0529,0.3185
10920,11.0,0.000107,-0.000293,-0.261719,0.006700,-0.004319,0.024833,-0.2665,4.1632,-0.0072,0.00000132,-0.00002522,-0.00776318,0.00227387,0.00200422,-0.00002815,0.8149,0.1110,-9.7457,0.060990,0.010714,-0.002998,20.0892,0.2620,135,0,0,-0.001176,-0.000374,-0.267417,0.175551,0.014398,0.143019,-0.1991,0.0545,0.3150
10931,11.0,0.000072,-0.000275,-0.261289,0.005905,-0.000981,0.026439,-0.2059,4.2177,0.0039,0.00000108,-0.00002575,-0.00776327,0.00261920,0.00185011,-0.00010087,0.8469,0.2621,-9.9027,0.059675,0.009537,-0.005503,20.1447,0.2620,127,0,0,-0.001220,-0.000337,-0.265924,0.179351,0.014985,0.155635,-0.1654,0.0603,0.3236
10942,11.0,0.000112,-0.000253,-0.261010,0.005456,-0.000130,0.024255,-0.5879,4.4741,0.0058,0.00001588,-0.00003553,-0.00776334,0.00266281,0.00167899,-0.00009859,0.9393,0.3740,-9.9570,-0.017696,-0.002656,-0.018512,20.1447,0.2640,127,0,0,-0.001369,-0.000381,-0.263431,0.186520,0.018445,0.168186,-0.1255,0.1061,0.3499
10953,11.0,0.000192,-0.000317,-0.260660,0.007730,0.000441,0.024993,-0.6863,4.4518,-0.0253,0.00001644,-0.00003546,-0.00776318,0.00263948,0.00194750,-0.00024142,0.9640,0.2690,-9.8179,-0.103293,-0.028228,-0.034488,20.1447,0.2640,133,0,0,-0.001429,-0.000504,-0.261661,0.190432,0.020370,0.178985,-0.1569,0.1402,0.3662
10964,11.0,0.000302,-0.000388,-0.262329,0.008300,-0.000684,-0.000829,-0.8267,4.5935,-0.0778,0.00001818,-0.00004471,-0.00776294,0.00221497,0.00222441,0.00338626,0.9301,0.1519,-9.6469,-0.135613,-0.023431,-0.059276,20.1447,0.2640,127,0,0,-0.001357,-0.000563,-0.259813,0.195205,0.022193,0.190654,-0.2159,0.1251,0.3585
10975,11.0,0.000387,-0.000426,-0.262273,0.011625,-0.002858,0.002995,-0.8903,4.5814,-0.1186,0.00001840,-0.00004501,-0.00776289,0.00233946,0.00231136,0.00325591,1.1061,-0.0281,-9.4613,-0.082811,-0.035349,-0.066627,20.1447,0.2630,128,0,0,-0.001280,-0.000774,-0.255673,0.203277,0.021738,0.218685,-0.3718,0.1328,0.3203
10986,11.0,0.000264,-0.000446,-0.262227,0.008582,-0.002980,0.005620,-0.7592,4.9899,-0.1576,0.00000664,-0.00007645,-0.00776295,0.00310838,0.00240951,0.00331333,1.2089,-0.0205,-9.4905,-0.002107,-0.012948,-0.058870,20.1130,0.2630,131,-1,0,-0.001351,-0.000909,-0.259715,0.207702,0.019660,0.166030,-0.4194,0.1725,0.3542
10997,11.0,0.000209,-0.000440,-0.262002,0.009696,-0.003894,0.009362,-0.7378,5.0719,-0.1711,0.00000590,-0.00007912,-0.00776323,0.00395328,0.00219354,0.00277023,1.1898,-0.0243,-9.5676,0.006764,0.027716,-0.054431,20.1130,0.2630,128,0,0,-0.001543,-0.000904,-0.257932,0.213681,0.018424,0.181104,-0.4255,0.1653,0.3331
11008,11.0,0.000099,-0.000239,-0.261896,0.006884,-0.000251,0.010049,-0.5792,5.3164,-0.1133,-0.00000428,-0.00009772,-0.00776461,0.00476556,0.00111322,0.00281904,1.0683,0.0417,-9.6818,0.026966,0.071457,-0.020298,20.1130,0.2640,135,0,1,-0.001846,-0.000781,-0.259641,0.223179,0.016043,0.145505,-0.4188,0.2646,0.3042
11019,11.0,-0.000073,-0.000228,-0.261719,-0.000162,0.002025,0.010921,-0.5534,5.4615,-0.1013,-0.00000430,-0.00010250,-0.00776477,0.00593194,0.00111075,0.00251116,0.6013,0.3030,-9.7838,0.038459,0.101079,0.001216,20.1130,0.2640,137,0,0,-0.002096,-0.000628,-0.258085,0.225563,0.015684,0.157982,-0.4051,0.3480,0.3093
11030,11.0,-0.000320,-0.000178,-0.262337,-0.005622,0.003445,0.002341,-0.6912,5.3313,-0.0325,0.00002504,-0.00005978,-0.00776566,0.00769121,0.00038276,0.00734278,0.4150,0.4216,-9.8067,0.043904,0.107879,0.009771,20.1130,0.2640,129,0,0,-0.002271,-0.000616,-0.256449,0.225819,0.017091,0.169295,-0.3879,0.4035,0.3220
11042,12.0,-0.000125,-0.000199,-0.262260,-0.005520,0.005907,0.002964,-0.7439,5.2396,-0.0701,0.00002734,-0.00005190,-0.00776468,0.00624373,0.00081060,0.00685710,0.5519,0.4366,-9.7869,-0.032519,0.006205,-0.007717,20.1130,0.2620,127,1,0,-0.002617,-0.000667,-0.252771,0.220059,0.022479,0.191876,-0.3674,0.5337,0.3757
11053,11.0,0.000162,-0.000210,-0.262224,-0.001088,0.005670,0.003220,-0.9157,5.0047,-0.0951,0.00005338,-0.00002068,-0.00776388,0.00487259,0.00071147,0.00674657,0.6794,0.3674,-9.7529,-0.062286,-0.050569,-0.031018,20.1130,0.2620,127,1,0,-0.002482,-0.000792,-0.257994,0.217755,0.024654,0.123668,-0.3986,0.5847,0.4110
11064,11.0,0.000331,-0.000232,-0.261440,0.002683,0.005061,0.013714,-0.9793,4.8936,-0.1604,0.00005614,-0.00001526,-0.00776295,0.00449646,0.00123391,0.00052781,0.9414,0.2221,-9.5860,-0.053914,-0.087705,-0.062679,19.9941,0.2620,128,0,0,-0.002051,-0.000950,-0.255250,0.218327,0.028365,0.146501,-0.4849,0.5552,0.4075
11076,12.0,0.000490,-0.000254,-0.261258,0.005371,0.003567,0.016559,-1.0224,4.8645,-0.2263,0.00005170,-0.00002667,-0.00776190,0.00351099,0.00180879,0.00044908,0.9645,0.1112,-9.5248,-0.059802,-0.069995,-0.046981,19.9941,0.2630,130,0,0,-0.001861,-0.000981,-0.253587,0.221341,0.028950,0.160566,-0.5192,0.5064,0.3850
11087,11.0,0.000513,-0.000266,-0.260949,0.006064,0.001037,0.021168,-1.0639,4.8730,-0.2408,0.00005327,-0.00002846,-0.00776166,0.00382238,0.00203007,-0.00057900,0.9313,-0.0036,-9.4673,-0.047254,-0.004296,-0.019249,19.9941,0.2630,135,0,0,-0.001697,-0.001138,-0.257656,0.225048,0.027210,0.111835,-0.6018,0.4939,0.4352
11098,11.0,0.000502,-0.000261,-0.261426,0.005737,0.000294,0.015327,-1.0161,4.9461,-0.2454,0.00003834,-0.00004757,-0.00776130,0.00327371,0.00229755,0.00636191,0.9644,0.0573,-9.5174,0.012973,0.011398,0.019505,19.9941,0.2630,134,0,0,-0.001763,-0.001209,-0.256369,0.225826,0.025507,0.126190,-0.6248,0.5309,0.4369
11109,11.0,0.000509,-0.000232,-0.261166,0.006145,0.000355,0.018252,-0.9738,4.9561,-0.2156,0.00003702,-0.00005057,-0.00776168,0.00366778,0.00217313,0.00555887,0.9550,0.1401,-9.5805,0.052506,-0.009424,0.023717,19.9941,0.2620,137,0,0,-0.001782,-0.001200,-0.255043,0.228091,0.024451,0.138954,-0.6222,0.5414,0.4606
11120,11.0,0.000620,-0.000225,-0.260950,0.007522,0.000246,0.020961,-0.9535,4.9488,-0.1949,0.00003316,-0.00006477,-0.00776149,0.00308867,0.00223388,0.00550792,0.9594,0.1372,-9.5102,0.014530,-0.055222,0.038289,19.9941,0.2620,137,0,0,-0.001819,-0.001240,-0.257580,0.230663,0.023001,0.107300,-0.5855,0.5728,0.5213
11131,11.0,0.000761,-0.000207,-0.261369,0.009697,0.000787,0.015032,-0.9237,4.8894,-0.1404,0.00003246,-0.00006191,-0.00776152,0.00225114,0.00206217,0.01215508,0.9659,0.1953,-9.5799,0.036734,-0.078627,0.076588,19.9941,0.2630,137,0,0,-0.001782,-0.001300,-0.256447,0.231130,0.022537,0.119516,-0.5821,0.5790,0.5614
11142,11.0,0.000913,-0.000154,-0.261193,0.012115,0.002501,0.017012,-0.9095,4.9120,-0.0737,0.00005948,-0.00010377,-0.00776240,0.00103171,0.00120160,0.01202761,1.1247,0.3456,-9.5516,0.088540,-0.082641,0.046288,19.9941,0.2630,135,0,0,-0.001568,-0.001359,-0.258509,0.233772,0.023419,0.094297,-0.5445,0.5398,0.6811
11153,11.0,0.000965,-0.000146,-0.260899,0.015655,0.003891,0.018695,-0.9004,4.9143,-0.0684,0.00006127,-0.00011057,-0.00776233,0.00167034,0.00136077,0.01097402,1.2983,0.3187,-9.6824,0.022756,-0.031765,0.002466,19.9941,0.2630,133,0,0,-0.001445,-0.001322,-0.257413,0.237564,0.025399,0.106900,-0.4987,0.5006,0.7179
11164,11.0,0.000543,-0.000162,-0.261390,0.010084,0.004111,0.008947,-0.9845,5.1714,-0.0382,0.00009134,-0.00022315,-0.00776367,0.00235427,0.00100125,0.01802961,1.3048,0.3216,-9.8523,-0.050442,0.040648,-0.009263,19.9941,0.2630,135,-2,0,-0.001485,-0.001429,-0.256294,0.240218,0.026453,0.117288,-0.4959,0.5347,0.7463
11175,11.0,0.000047,-0.000186,-0.261216,0.004593,0.002911,0.009377,-1.0357,5.3300,-0.0360,0.00009621,-0.00026777,-0.00776460,0.00544414,0.00136151,0.01744732,1.1829,0.1437,-9.7715,-0.060206,0.066217,-0.029357,19.9941,0.2620,135,-2,0,-0.001938,-0.001468,-0.255076,0.243871,0.028201,0.126437,-0.5209,0.5547,0.7597
11186,11.0,-0.000096,-0.000186,-0.261112,0.001437,0.002289,0.009532,-1.0401,5.3968,-0.0326,0.00009395,-0.00026770,-0.00776465,0.00668739,0.00161810,0.01755804,0.8372,0.1504,-9.7419,-0.008318,0.081988,-0.000586,20.0179,0.2620,134,0,0,-0.002872,-0.001667,-0.258127,0.244558,0.028117,0.087352,-0.5989,0.6960,0.7870
11197,11.0,-0.000021,-0.000181,-0.260822,-0.000412,0.002792,0.012248,-1.0386,5.4294,-0.0337,0.00009588,-0.00026135,-0.00776401,0.00650285,0.00175774,0.01573572,0.6630,0.2560,-9.7211,0.008510,0.072770,0.008673,20.0179,0.2620,129,1,0,-0.002995,-0.001740,-0.256080,0.240656,0.028307,0.107839,-0.6109,0.8319,0.8257
11208,11.0,0.000066,-0.000170,-0.260691,-0.001312,0.004020,0.011468,-1.0805,5.3865,0.0076,0.00013763,-0.00019840,-0.00776476,0.00722864,0.00104153,0.01579653,0.6326,0.3956,-9.8450,0.009177,0.056725,-0.010611,20.0179,0.2630,127,1,0,-0.002935,-0.001822,-0.259856,0.237193,0.028813,0.063592,-0.6219,0.9045,0.8508
11219,11.0,-0.000014,-0.000178,-0.260483,-0.004964,0.006159,0.010436,-1.0937,5.4256,0.0154,0.00014384,-0.00020269,-0.00776400,0.00754515,0.00136797,0.01487670,0.6760,0.4703,-9.9681,-0.005219,0.049365,0.023207,20.0179,0.2630,129,0,0,-0.002810,-0.001829,-0.259104,0.234773,0.031032,0.072390,-0.6201,0.9427,0.8603
11230,11.0,0.000144,-0.000197,-0.261154,-0.004066,0.006952,-0.001283,-1.1977,5.3657,0.0475,0.00020613,-0.00013834,-0.00776324,0.00680134,0.00054157,0.02222265,0.6975,0.4692,-9.9958,-0.059058,0.026030,0.000306,20.0179,0.2630,129,1,0,-0.002739,-0.001947,-0.257400,0.228891,0.035515,0.087325,-0.6601,1.0308,0.9226
11241,11.0,0.000379,-0.000227,-0.261110,-0.002208,0.007958,-0.003067,-1.2553,5.3150,-0.0028,0.00021807,-0.00010924,-0.00775956,0.00558040,0.00103440,0.02141542,0.7607,0.4519,-9.9965,-0.059172,-0.010910,-0.006688,20.0179,0.2620,130,1,0,-0.002763,-0.002079,-0.259776,0.225367,0.037084,0.057485,-0.7147,1.0752,0.9546
11252,11.0,0.000692,-0.000255,-0.261157,0.001210,0.007442,-0.005461,-1.3487,5.2153,-0.0347,0.00025832,-0.00005371,-0.00775645,0.00449504,0.00095023,0.02132286,0.8019,0.3609,-9.9683,-0.078840,-0.052319,-0.024182,20.0179,0.2620,130,1,0,-0.002498,-0.002121,-0.259170,0.224198,0.039257,0.063746,-0.7528,1.0760,0.9652
11263,11.0,0.000877,-0.000315,-0.260958,0.002999,0.004627,-0.001401,-1.4610,5.1414,-0.0814,0.00027283,-0.00003469,-0.00775331,0.00395490,0.00155013,0.01895200,0.8388,0.1388,-9.6558,-0.144894,-0.077658,-0.021074,20.0179,0.2620,133,0,0,-0.002021,-0.002290,-0.257652,0.222216,0.040106,0.079171,-0.8743,1.0482,0.9777
11274,11.0,0.001034,-0.000380,-0.260954,0.002821,0.001000,0.002173,-1.5736,5.0878,-0.1044,0.00028482,-0.00001916,-0.00775099,0.00338739,0.00195943,0.01891002,0.6772,0.0388,-9.4455,-0.154960,-0.055819,-0.002593,20.1130,0.2630,136,0,0,-0.001866,-0.002425,-0.260448,0.220245,0.038493,0.048587,-0.9672,1.0379,0.9824
11285,11.0,0.000721,-0.000397,-0.260846,-0.002122,-0.002253,0.007580,-1.6111,5.1114,-0.0776,0.00028609,-0.00006074,-0.00775235,0.00485965,0.00204290,0.01849486,0.7923,-0.0251,-9.3366,-0.059499,-0.034006,0.007077,20.1130,0.2630,133,-2,0,-0.001970,-0.002556,-0.259242,0.215788,0.033490,0.072519,-1.1182,0.9961,0.9254
11296,11.0,0.000558,-0.000193,-0.261356,-0.002172,-0.001667,0.004123,-1.5775,5.1159,-0.0004,0.00025581,-0.00007912,-0.00775686,0.00498253,0.00096484,0.02394845,1.0201,0.0308,-9.3925,-0.001609,-0.024947,0.040618,20.1130,0.2630,129,-1,1,-0.002286,-0.002576,-0.258381,0.214507,0.030570,0.085873,-1.1459,0.9841,0.9494
11307,11.0,0.000322,0.000007,-0.261249,-0.001436,-0.000653,0.007711,-1.5482,5.1542,0.0937,0.00022521,-0.00011045,-0.00776195,0.00594111,0.00012271,0.02360750,1.1955,0.0818,-9.4428,-0.008068,0.011443,0.061368,20.1130,0.2630,132,-1,1,-0.002449,-0.002368,-0.257462,0.215430,0.028883,0.097951,-1.1496,0.9804,0.9908
11318,11.0,0.000274,0.000000,-0.261153,0.001041,-0.001608,0.009819,-1.5354,5.2296,0.0668,0.00019297,-0.00020216,-0.00776035,0.00446845,0.00065218,0.02347831,1.2329,0.1363,-9.5227,-0.011732,0.025059,0.024865,20.1130,0.2630,129,0,0,-0.002807,-0.002256,-0.259910,0.217878,0.026055,0.075683,-1.1658,1.0581,1.0757
11329,11.0,0.000224,-0.000001,-0.260888,0.002302,-0.002525,0.013536,-1.5355,5.2544,0.0845,0.00018968,-0.00021291,-0.00776111,0.00487168,0.00059973,0.02226081,1.0827,0.1459,-9.5467,-0.006379,0.024604,0.009560,20.1685,0.2620,134,0,0,-0.002849,-0.002263,-0.259102,0.220395,0.024868,0.086021,-1.1762,1.0802,1.1024
11341,12.0,0.000166,-0.000011,-0.260707,0.000821,-0.003607,0.016619,-1.5176,5.2759,0.0537,0.00014527,-0.00020581,-0.00776073,0.00557243,0.00121963,0.02233873,0.8274,0.1046,-9.4959,-0.009707,0.034676,-0.015441,20.1685,0.2620,131,0,0,-0.003012,-0.002139,-0.259455,0.218808,0.023042,0.083913,-1.1923,1.1647,1.1298
11352,11.0,0.000166,-0.000006,-0.260469,-0.001044,-0.004617,0.020055,-1.5076,5.2784,0.0608,0.00013712,-0.00020560,-0.00776190,0.00559496,0.00103157,0.02200649,0.7127,0.0989,-9.4935,0.006532,0.003940,-0.012179,20.1685,0.2620,134,0,0,-0.003040,-0.002144,-0.258527,0.216952,0.021599,0.095272,-1.2013,1.1887,1.1338
11364,12.0,0.000211,0.000014,-0.260560,-0.002980,-0.004398,0.018747,-1.4480,5.2064,0.0783,0.00010323,-0.00011255,-0.00776336,0.00656373,0.00106298,0.02496611,0.5897,0.1708,-9.5422,0.056691,-0.031845,0.000560,20.1685,0.2620,127,0,0,-0.003014,-0.002137,-0.257522,0.214135,0.020208,0.105828,-1.1991,1.1961,1.1392
11375,11.0,0.000481,0.000030,-0.260318,-0.000315,-0.004178,0.020320,-1.4168,5.1509,0.1116,0.00009254,-0.00006276,-0.00776371,0.00541193,0.00081909,0.02461319,0.7798,0.1891,-9.6419,0.034259,-0.039899,0.037586,20.1685,0.2620,122,1,0,-0.002892,-0.002115,-0.258753,0.206939,0.018462,0.089691,-1.1483,1.1890,1.1697
11386,11.0,0.000501,0.000031,-0.260091,-0.000072,-0.004179,0.020998,-1.3934,5.1408,0.1507,0.00006590,-0.00005703,-0.00776400,0.00535150,0.00095162,0.02461059,0.8735,0.1721,-9.6835,0.009103,-0.012592,0.066745,20.1685,0.2620,129,0,0,-0.002652,-0.002140,-0.257812,0.204631,0.018103,0.098687,-1.1348,1.1987,1.2279
11398,12.0,0.000468,0.000026,-0.260391,0.001511,-0.003996,0.014723,-1.3788,5.1549,0.2125,0.00005659,-0.00006477,-0.00776542,0.00511838,0.00070063,0.02900356,1.0606,0.2019,-9.7121,0.006397,0.012284,0.067557,20.1685,0.2620,126,0,0,-0.002674,-0.002201,-0.255618,0.202282,0.017298,0.116136,-1.1337,1.2413,1.3276
11409,11.0,0.000399,0.000037,-0.260233,0.003304,-0.003904,0.014056,-1.3456,5.2277,0.2213,0.00002821,-0.00018077,-0.00776578,0.00377332,0.00076416,0.02887678,1.2309,0.1676,-9.7696,0.028413,0.030166,0.040069,20.2266,0.2620,133,0,0,-0.002719,-0.002205,-0.259261,0.204150,0.016946,0.072043,-1.1282,1.2635,1.3747
11420,11.0,0.000334,0.000059,-0.260070,0.004289,-0.003534,0.012881,-1.3093,5.2537,0.2417,0.00001614,-0.00020136,-0.00776804,0.00419036,0.00055141,0.02878211,1.1241,0.1901,-9.8420,0.046197,0.024283,0.000880,20.2266,0.2620,134,0,0,-0.002867,-0.002270,-0.258504,0.204111,0.016364,0.079462,-1.1154,1.3282,1.4073
11431,11.0,0.000298,0.000085,-0.260430,0.003471,-0.003929,0.005706,-1.2560,5.2750,0.2141,-0.00003582,-0.00022894,-0.00776894,0.00395001,0.00082968,0.03263802,0.9396,0.0891,-9.8623,0.051550,0.014637,-0.025507,20.2266,0.2620,134,0,0,-0.002926,-0.002254,-0.257675,0.205602,0.016036,0.086409,-1.0956,1.3524,1.4272
11442,11.0,0.000298,0.000113,-0.260369,0.001869,-0.003579,0.003452,-1.2125,5.2759,0.2316,-0.00004996,-0.00023485,-0.00777106,0.00406304,0.00059529,0.03254639,0.8152,0.1695,-9.9617,0.057278,-0.003350,-0.001922,20.2266,0.2620,133,0,0,-0.003049,-0.002263,-0.258978,0.201857,0.014873,0.067447,-1.0405,1.4163,1.4298
11453,11.0,0.000372,0.000118,-0.260340,0.001871,-0.002822,0.001724,-1.1984,5.2411,0.2582,-0.00004894,-0.00020937,-0.00777248,0.00409251,0.00031425,0.03254335,0.8506,0.2359,-9.8961,0.019740,-0.039682,0.007774,20.2266,0.2620,133,0,0,-0.003085,-0.002281,-0.258276,0.198455,0.014531,0.072966,-1.0130,1.4455,1.4389
11464,11.0,0.000340,0.000092,-0.260628,0.001604,-0.003112,-0.002880,-1.2252,5.1928,0.2583,-0.00005101,-0.00022061,-0.00777303,0.00406281,0.00025073,0.03485394,0.9437,0.1714,-9.8278,-0.043870,-0.084063,-0.014345,20.2847,0.2620,131,-1,0,-0.003337,-0.002339,-0.256682,0.193256,0.014397,0.084949,-1.0096,1.4351,1.4673
11475,11.0,0.000538,0.000052,-0.260656,0.004982,-0.004280,-0.002235,-1.2597,5.1361,0.2068,-0.00009272,-0.00023212,-0.00777024,0.00272516,0.00084377,0.03474381,1.0278,0.0826,-9.6639,-0.074712,-0.094104,-0.023467,20.2847,0.2620,127,0,0,-0.003355,-0.002379,-0.259689,0.192615,0.014025,0.049389,-1.0420,1.3958,1.4715
11486,11.0,0.000480,0.000024,-0.260680,0.005993,-0.005707,-0.001100,-1.2933,5.1009,0.1904,-0.00009898,-0.00025872,-0.00777161,0.00314823,0.00075562,0.03482835,1.0990,0.0500,-9.6068,-0.054236,-0.071137,-0.046185,20.2847,0.2620,129,-1,0,-0.003235,-0.002504,-0.258546,0.192757,0.011852,0.064976,-1.1261,1.3398,1.4346
11497,11.0,0.000513,0.000011,-0.260797,0.007583,-0.006358,-0.000544,-1.2871,5.1183,0.1270,-0.00015846,-0.00033679,-0.00777116,0.00215807,0.00121330,0.03560909,1.0838,0.0757,-9.5436,-0.016657,-0.013494,-0.053721,20.2847,0.2620,132,0,0,-0.003390,-0.002587,-0.257863,0.191604,0.010743,0.073802,-1.1522,1.3486,1.4088
11508,11.0,0.000458,-0.000001,-0.260798,0.007620,-0.006148,0.001204,-1.2906,5.1497,0.1158,-0.00017182,-0.00036946,-0.00777371,0.00265191,0.00103374,0.03568484,1.0265,0.1690,-9.5554,-0.010515,0.032429,-0.045125,20.2847,0.2620,132,0,0,-0.003352,-0.002603,-0.260004,0.192527,0.009647,0.051344,-1.1678,1.3488,1.3896
11519,11.0,0.000313,-0.000017,-0.260776,0.005084,-0.005520,0.002746,-1.2939,5.2195,0.1309,-0.00018461,-0.00041971,-0.00777637,0.00343708,0.00089984,0.03575033,0.8874,0.2179,-9.5909,-0.013224,0.083807,-0.001078,20.2847,0.2620,133,0,0,-0.003532,-0.002685,-0.258805,0.190780,0.008853,0.068948,-1.1874,1.4380,1.3607
11530,11.0,0.000149,-0.000031,-0.260787,0.000753,-0.004293,0.003926,-1.2911,5.2958,0.1719,-0.00019456,-0.00046765,-0.00777884,0.00409582,0.00077436,0.03617909,0.7136,0.2835,-9.5839,-0.005951,0.095421,0.040928,20.2847,0.2620,136,0,0,-0.003720,-0.002751,-0.258073,0.187532,0.008842,0.077560,-1.2001,1.5191,1.3726
11540,10.0,0.000226,-0.000020,-0.260745,0.000556,-0.002451,0.004482,-1.2813,5.3145,0.2447,-0.00015430,-0.00040492,-0.00778227,0.00449987,-0.00003850,0.03620164,0.7777,0.3678,-9.6826,0.030648,0.063487,0.037115,20.2847,0.2620,135,1,0,-0.003873,-0.002770,-0.257266,0.184171,0.009403,0.086210,-1.2077,1.5828,1.4047
11551,11.0,0.000430,-0.000012,-0.260674,0.003097,-0.000280,0.003632,-1.2573,5.2968,0.2501,-0.00015997,-0.00035775,-0.00778146,0.00387078,-0.00012352,0.03593519,0.9432,0.3919,-9.8311,0.034262,-0.007019,0.007085,20.1923,0.2620,133,1,0,-0.003868,-0.002814,-0.259304,0.178791,0.012052,0.063427,-1.1844,1.6777,1.4660
11562,11.0,0.000494,-0.000042,-0.260738,0.002899,0.000362,0.001981,-1.3018,5.2750,0.2516,-0.00011744,-0.00033328,-0.00778171,0.00392695,-0.00049011,0.03666931,0.8549,0.3202,-9.7742,-0.050156,-0.023482,-0.036874,20.1923,0.2620,132,0,0,-0.003673,-0.002869,-0.258640,0.176975,0.013277,0.069487,-1.1809,1.7038,1.4836
11573,11.0,0.000554,-0.000085,-0.260689,0.002230,-0.000535,0.003172,-1.3613,5.2628,0.2193,-0.00010622,-0.00032489,-0.00777998,0.00383638,-0.00035866,0.03650405,0.8013,0.1874,-9.6550,-0.085530,-0.015076,-0.046188,20.1923,0.2610,132,0,0,-0.003596,-0.002895,-0.257914,0.175521,0.014464,0.075806,-1.2019,1.6968,1.4791
11584,11.0,0.000620,-0.000102,-0.260646,0.001918,-0.000842,0.004653,-1.3810,5.2325,0.2029,-0.00011304,-0.00027897,-0.00777913,0.00416985,-0.00020189,0.03653947,0.8011,0.2092,-9.6041,-0.032495,-0.028097,-0.026754,20.1923,0.2610,137,0,0,-0.003477,-0.003025,-0.258731,0.170555,0.014032,0.067391,-1.2957,1.7094,1.4575
11595,11.0,0.000676,-0.000107,-0.260162,0.002444,-0.001556,0.011715,-1.3893,5.2137,0.2029,-0.00011525,-0.00026999,-0.00777911,0.00433905,-0.00016430,0.03355230,0.8932,0.1566,-9.5420,-0.014111,-0.026528,-0.008051,20.1923,0.2610,138,0,0,-0.003437,-0.003080,-0.257988,0.167639,0.013687,0.075993,-1.3162,1.7206,1.4515
11606,11.0,0.000738,-0.000132,-0.260020,0.003321,-0.002319,0.013999,-1.4109,5.1988,0.1849,-0.00014539,-0.00027462,-0.00777733,0.00406031,0.00021697,0.03353412,0.9250,0.1568,-9.5237,-0.046135,-0.025804,0.000038,20.1923,0.2620,131,0,0,-0.003363,-0.003086,-0.257185,0.166489,0.012912,0.084662,-1.3259,1.7119,1.4558
11618,12.0,0.000614,-0.000153,-0.259796,0.003018,-0.004259,0.016861,-1.4374,5.1864,0.2038,-0.00015095,-0.00032135,-0.00777930,0.00464481,0.00017706,0.03328400,1.0191,0.0535,-9.5290,-0.042546,-0.034723,0.007173,20.1579,0.2620,134,-1,0,-0.003252,-0.003182,-0.258956,0.164405,0.010856,0.066512,-1.3896,1.7181,1.4748
11628,10.0,0.000245,-0.000130,-0.260293,-0.000097,-0.004747,0.010873,-1.3949,5.2122,0.1987,-0.00022782,-0.00049488,-0.00778175,0.00467324,0.00053910,0.03798968,1.0557,0.0885,-9.5251,0.040225,-0.026647,0.022736,20.1579,0.2620,139,-2,0,-0.003439,-0.003246,-0.258247,0.162710,0.009272,0.075318,-1.4127,1.7342,1.4792
11639,11.0,0.000220,-0.000100,-0.260134,0.002190,-0.004737,0.012735,-1.3492,5.2143,0.2232,-0.00025199,-0.00050563,-0.00778538,0.00481018,0.00030330,0.03777064,1.1320,0.1407,-9.5741,0.061494,-0.001452,0.006977,20.1579,0.2610,133,0,0,-0.003844,-0.003259,-0.259083,0.161444,0.006607,0.064834,-1.3682,1.7548,1.5096
11650,11.0,0.000146,-0.000084,-0.259993,0.003071,-0.004067,0.012849,-1.3157,5.2619,0.2465,-0.00027457,-0.00062087,-0.00778804,0.00404764,0.00013157,0.03769208,1.1157,0.2163,-9.6986,0.041885,0.031742,0.027621,20.1579,0.2610,135,0,0,-0.003858,-0.003231,-0.258395,0.162595,0.005955,0.072793,-1.3387,1.7634,1.5254
11661,11.0,0.000032,-0.000066,-0.259813,0.002992,-0.002625,0.012654,-1.2791,5.3046,0.2671,-0.00029121,-0.00066572,-0.00779168,0.00455867,-0.00000614,0.03743998,1.0679,0.2938,-9.7755,0.050393,0.051986,0.002705,20.1579,0.2610,135,0,0,-0.004091,-0.003261,-0.256759,0.162037,0.006378,0.086324,-1.2950,1.8578,1.5674
11672,11.0,-0.000078,-0.000050,-0.259679,0.001865,-0.001401,0.011664,-1.2566,5.3534,0.2850,-0.00027138,-0.00073389,-0.00779581,0.00466738,-0.00046772,0.03743790,0.9788,0.2947,-9.8104,0.042625,0.053737,-0.021592,20.1579,0.2620,135,0,0,-0.004247,-0.003310,-0.259391,0.160216,0.007059,0.053330,-1.2756,1.9232,1.5725
11683,11.0,-0.000215,-0.000090,-0.259513,-0.002954,-0.001082,0.011556,-1.2985,5.4191,0.2918,-0.00026312,-0.00077509,-0.00779601,0.00512325,-0.00037312,0.03719889,0.6348,0.2757,-9.8076,-0.065129,0.090565,0.003432,20.1579,0.2620,131,0,0,-0.004363,-0.003322,-0.258831,0.157219,0.007665,0.058526,-1.2790,1.9732,1.5763
11694,11.0,-0.000319,-0.000146,-0.259039,-0.006413,-0.001542,0.016180,-1.3603,5.4431,0.3336,-0.00025213,-0.00067262,-0.00779572,0.00698786,-0.00012972,0.03507948,0.6397,0.2254,-9.7005,-0.100892,0.072651,0.045745,20.1579,0.2600,131,0,0,-0.004507,-0.003391,-0.258219,0.152269,0.008101,0.064026,-1.3141,2.0436,1.5850
11705,11.0,-0.000139,-0.000179,-0.258827,-0.004465,-0.001783,0.017107,-1.3956,5.4410,0.3608,-0.00024722,-0.00059445,-0.00779259,0.00623509,-0.00010990,0.03479921,0.8418,0.2257,-9.6868,-0.059787,0.017490,0.054604,20.1579,0.2600,128,1,0,-0.004477,-0.003525,-0.258116,0.143989,0.007545,0.064097,-1.4288,2.1507,1.6559
11716,11.0,-0.000067,-0.000183,-0.258637,-0.001869,-0.001516,0.017507,-1.3963,5.4210,0.3813,-0.00024789,-0.00061666,-0.00779162,0.00519847,-0.00021614,0.03470020,1.0649,0.2465,-9.6792,-0.005036,-0.042579,0.035393,20.1579,0.2600,128,0,0,-0.004276,-0.003558,-0.257404,0.142379,0.007234,0.071393,-1.4688,2.1709,1.6978
11727,11.0,0.000047,-0.000162,-0.259695,0.001293,-0.001070,0.003394,-1.3680,5.3692,0.3784,-0.00026010,-0.00057827,-0.00779195,0.00404935,-0.00051814,0.04282393,1.0825,0.2360,-9.6579,0.041972,-0.072138,-0.015068,20.1579,0.2620,127,0,0,-0.004143,-0.003607,-0.255837,0.141732,0.006891,0.085306,-1.4768,2.1599,1.7454
11738,11.0,0.000092,-0.000149,-0.259656,0.003051,-0.001157,0.003771,-1.3486,5.3632,0.3562,-0.00028552,-0.00063640,-0.00779163,0.00321395,-0.00044110,0.04274619,1.0706,0.1905,-9.6738,0.024990,-0.028814,-0.022384,20.1579,0.2620,129,0,0,-0.004079,-0.003640,-0.259238,0.141249,0.006908,0.045602,-1.4575,2.1551,1.7419
11749,11.0,0.000063,-0.000149,-0.259552,0.003618,-0.001583,0.004572,-1.3498,5.3762,0.3463,-0.00029074,-0.00065875,-0.00779305,0.00345683,-0.00046451,0.04235123,1.0428,0.1727,-9.7071,-0.001800,0.014498,-0.031194,20.0998,0.2620,129,0,0,-0.004020,-0.003627,-0.258748,0.141732,0.006488,0.052374,-1.4470,2.1443,1.7392
11760,11.0,0.000020,-0.000159,-0.259103,0.002104,-0.002032,0.009944,-1.3568,5.3933,0.3326,-0.00031974,-0.00065549,-0.00779343,0.00427648,-0.00015288,0.03989332,0.8548,0.1717,-9.6614,-0.018823,0.029548,-0.019272,20.0998,0.2600,127,0,0,-0.004109,-0.003684,-0.257498,0.139852,0.005140,0.066269,-1.4611,2.2010,1.7161
11771,11.0,0.000006,-0.000155,-0.258942,0.000160,-0.002499,0.011247,-1.3501,5.4023,0.3336,-0.00033024,-0.00066460,-0.00779506,0.00438496,-0.00022331,0.03958586,0.7727,0.1551,-9.6740,0.007889,0.011280,-0.014370,20.0998,0.2600,127,0,0,-0.004181,-0.003726,-0.258576,0.136863,0.004616,0.053977,-1.4722,2.2414,1.7092
11783,12.0,-0.000016,-0.000158,-0.258802,-0.001330,-0.001950,0.012096,-1.3460,5.4027,0.3537,-0.00032818,-0.00061652,-0.00779719,0.00503254,-0.00036580,0.03964361,0.8024,0.2530,-9.6644,0.005029,0.013199,-0.000307,20.0998,0.2600,132,0,0,-0.004223,-0.003753,-0.257304,0.130955,0.003426,0.068271,-1.4739,2.2845,1.6774
11794,11.0,-0.000112,-0.000173,-0.259783,-0.000963,-0.001244,-0.000515,-1.3529,5.4391,0.3835,-0.00033014,-0.00064742,-0.00779843,0.00462308,-0.00052897,0.04662935,1.0501,0.2876,-9.6724,-0.015853,0.048623,0.034116,20.0998,0.2620,134,0,0,-0.004267,-0.003762,-0.256508,0.129501,0.003448,0.076134,-1.4790,2.3103,1.6938
11805,11.0,-0.000144,-0.000179,-0.259791,0.000359,-0.000952,-0.001045,-1.3566,5.4648,0.3967,-0.00032345,-0.00073567,-0.00779878,0.00384402,-0.00065544,0.04655286,1.1072,0.2514,-9.7479,-0.006089,0.014182,0.016213,20.0998,0.2620,129,0,0,-0.004445,-0.003844,-0.258830,0.128498,0.004170,0.049608,-1.5008,2.3947,1.7438
11816,11.0,-0.000136,-0.000182,-0.259738,0.001334,-0.000969,0.000003,-1.3601,5.4617,0.3901,-0.00032600,-0.00073607,-0.00779914,0.00388527,-0.00066364,0.04615320,1.0251,0.2198,-9.6815,-0.005366,-0.005421,-0.020097,20.0998,0.2620,131,0,0,-0.004494,-0.003899,-0.258242,0.127435,0.004175,0.056125,-1.5083,2.4281,1.7518
11827,11.0,0.000059,-0.000194,-0.259189,0.003263,-0.001879,0.007526,-1.3711,5.4571,0.3624,-0.00037199,-0.00066288,-0.00779540,0.00380643,-0.00018439,0.04279354,0.9137,0.1342,-9.6137,-0.028882,0.009579,-0.008559,20.1579,0.2600,135,1,0,-0.004473,-0.003906,-0.257649,0.127139,0.003837,0.062540,-1.5171,2.4325,1.7505
11838,11.0,0.000077,-0.000200,-0.259067,0.000598,-0.002253,0.009410,-1.3770,5.4578,0.3640,-0.00037830,-0.00066398,-0.00779624,0.00383293,-0.00022291,0.04259690,0.6857,0.1798,-9.6074,-0.011301,0.000143,-0.009114,20.1579,0.2600,129,0,0,-0.004290,-0.003957,-0.258008,0.123066,0.001995,0.059350,-1.5499,2.4719,1.7493
11850,12.0,0.000090,-0.000178,-0.258951,-0.000540,-0.001249,0.009909,-1.3405,5.4405,0.3892,-0.00037253,-0.00060611,-0.00779965,0.00434445,-0.00052422,0.04263838,0.8165,0.2772,-9.6888,0.053222,-0.011892,-0.002988,20.1579,0.2600,128,0,0,-0.004290,-0.003971,-0.257379,0.119076,0.001656,0.066453,-1.5491,2.4884,1.7492
11861,11.0,0.000310,-0.000166,-0.258776,0.002605,0.000702,0.010452,-1.3253,5.4185,0.2349,-0.00037758,-0.00052536,-0.00776956,0.00387031,-0.00109475,0.04217120,0.9925,0.3977,-9.7334,0.034609,-0.015081,-0.007866,20.1579,0.2600,132,1,0,-0.004267,-0.003951,-0.256632,0.116725,0.001914,0.073487,-1.5253,2.4901,1.7557
11872,11.0,0.000363,-0.000200,-0.258661,0.004022,0.000937,0.010310,-1.3708,5.4157,0.2205,-0.00033032,-0.00057955,-0.00776790,0.00318470,-0.00128347,0.04210329,1.0540,0.2982,-9.7209,-0.058663,-0.019611,-0.032474,20.1579,0.2620,128,0,0,-0.004029,-0.003987,-0.259309,0.115444,0.003916,0.039799,-1.5157,2.5037,1.7613
11883,11.0,0.000455,-0.000217,-0.258505,0.005701,0.000546,0.011170,-1.3962,5.3861,0.1972,-0.00032017,-0.00056411,-0.00776607,0.00309578,-0.00121795,0.04184598,1.0351,0.2235,-9.6774,-0.035329,-0.043544,-0.037445,20.1579,0.2620,134,0,0,-0.004005,-0.004073,-0.258882,0.114578,0.004115,0.045527,-1.5569,2.5181,1.6959
11894,11.0,0.000564,-0.000214,-0.258603,0.007195,-0.000172,0.009342,-1.3944,5.3569,0.1471,-0.00035620,-0.00059872,-0.00776387,0.00235734,-0.00095762,0.04312352,1.0199,0.1627,-9.6421,-0.001246,-0.055618,-0.054666,20.2160,0.2600,134,0,0,-0.003911,-0.004099,-0.258397,0.114683,0.003855,0.051542,-1.5883,2.5027,1.6843
11905,11.0,0.000419,-0.000233,-0.258479,0.005566,-0.000852,0.010812,-1.4174,5.3540,0.1621,-0.00035140,-0.00068580,-0.00776604,0.00299987,-0.00089669,0.04309781,0.9939,0.1855,-9.5967,-0.037540,-0.022675,0.004825,20.2160,0.2600,134,-1,0,-0.003749,-0.004142,-0.258338,0.113986,0.002098,0.053929,-1.6099,2.4785,1.6392
11916,11.0,0.000238,-0.000245,-0.258352,0.003552,-0.002041,0.012180,-1.4232,5.3671,0.1599,-0.00041566,-0.00080981,-0.00776650,0.00338795,-0.00035329,0.04314503,0.9789,0.1145,-9.5935,-0.027310,-0.006185,0.020056,20.2160,0.2600,139,-1,0,-0.003934,-0.004198,-0.257747,0.112300,0.001412,0.061119,-1.6304,2.4912,1.6394
11927,11.0,0.000115,-0.000232,-0.259608,0.001021,-0.002497,-0.002629,-1.4078,5.3485,0.1626,-0.00043124,-0.00087177,-0.00777021,0.00302239,-0.00064191,0.05133807,0.8389,0.1564,-9.5887,0.021540,-0.042264,-0.019058,20.2160,0.2620,134,-1,0,-0.004319,-0.004260,-0.259456,0.109417,-0.000748,0.040362,-1.6578,2.5128,1.6681
11938,11.0,0.000255,-0.000224,-0.259624,0.000991,-0.002889,-0.000219,-1.3925,5.2833,0.1257,-0.00048929,-0.00073731,-0.00776972,0.00345529,-0.00035943,0.05138466,0.7398,0.1508,-9.5117,0.014807,-0.072352,-0.053940,20.2160,0.2620,129,0,0,-0.004425,-0.004252,-0.259002,0.107205,-0.001816,0.047695,-1.6502,2.4930,1.6630
11948,10.0,0.000369,-0.000214,-0.259603,0.000869,-0.002073,0.000875,-1.3787,5.2439,0.1065,-0.00050359,-0.00069412,-0.00777020,0.00316203,-0.00045497,0.05124336,0.7638,0.2754,-9.6389,0.023916,-0.059935,-0.043872,20.2160,0.2620,139,0,0,-0.004310,-0.004250,-0.258486,0.104392,-0.002631,0.055463,-1.6413,2.4701,1.6358
11959,11.0,0.000423,-0.000209,-0.259190,0.001492,-0.000354,0.004749,-1.3747,5.2247,0.1262,-0.00043537,-0.00069079,-0.00777325,0.00310322,-0.00107877,0.04884690,0.9224,0.3855,-9.7938,0.022533,-0.031771,-0.023111,20.2160,0.2600,136,0,0,-0.004100,-0.004260,-0.257221,0.099737,-0.002004,0.068200,-1.6258,2.4313,1.6088
11970,11.0,0.000439,-0.000231,-0.259122,0.002734,0.000928,0.003543,-1.4008,5.2196,-0.0210,-0.00042473,-0.00069450,-0.00774103,0.00326187,-0.00156928,0.04870866,1.0271,0.3873,-9.8386,-0.029328,-0.006080,-0.007087,20.1817,0.2600,132,0,0,-0.004040,-0.004259,-0.258553,0.099297,-0.000697,0.051274,-1.6192,2.4202,1.6053
11981,11.0,0.000431,-0.000276,-0.259089,0.004117,0.001366,0.002522,-1.4604,5.2466,-0.0119,-0.00034889,-0.00081444,-0.00773967,0.00241960,-0.00187447,0.04862312,1.0954,0.3500,-9.7898,-0.078918,0.013898,-0.001639,20.1817,0.2600,135,0,0,-0.004051,-0.004330,-0.257991,0.098496,0.000299,0.055943,-1.6409,2.4434,1.6095
11992,11.0,0.000507,-0.000325,-0.258910,0.006073,0.000052,0.006047,-1.5268,5.2290,-0.0268,-0.00032431,-0.00080608,-0.00773632,0.00244642,-0.00171876,0.04782280,1.0399,0.1850,-9.5352,-0.099716,-0.026748,-0.019858,20.1817,0.2600,139,0,0,-0.004084,-0.004481,-0.256735,0.099329,0.001189,0.066553,-1.7439,2.4898,1.5762
12003,11.0,0.000380,-0.000359,-0.258819,0.004211,-0.002726,0.010394,-1.5809,5.2221,-0.0389,-0.00031615,-0.00088663,-0.00773773,0.00296841,-0.00165124,0.04787226,0.8904,0.0161,-9.3278,-0.082798,-0.025106,-0.033583,20.1817,0.2620,136,-1,0,-0.003997,-0.004535,-0.259443,0.100082,0.000199,0.037460,-1.8062,2.4796,1.5718
12014,11.0,0.000182,-0.000348,-0.258640,0.000980,-0.005472,0.016967,-1.5779,5.2342,-0.0296,-0.00034095,-0.00098648,-0.00774311,0.00362311,-0.00176763,0.04774626,0.7969,-0.0582,-9.1700,-0.000336,0.000980,-0.010050,20.1817,0.2620,136,-1,0,-0.004257,-0.004607,-0.258477,0.097312,-0.004856,0.057146,-1.8996,2.4675,1.5550
12025,11.0,0.000122,-0.000283,-0.259188,-0.000502,-0.006232,0.012491,-1.4960,5.2496,0.0031,-0.00039878,-0.00101529,-0.00775050,0.00338564,-0.00219219,0.05197561,0.7959,0.0464,-9.3299,0.116122,0.017330,0.021757,20.1817,0.2610,131,0,0,-0.004665,-0.004398,-0.257852,0.094600,-0.007389,0.068025,-1.8966,2.4760,1.5611
12036,11.0,-0.000028,-0.000198,-0.259014,-0.002271,-0.005159,0.014890,-1.3793,5.2923,0.0496,-0.00046524,-0.00107578,-0.00775948,0.00376337,-0.00254348,0.05185981,0.8688,0.1845,-9.5258,0.168090,0.055060,0.040452,20.1817,0.2610,131,0,0,-0.004711,-0.004338,-0.259197,0.092867,-0.009462,0.055013,-1.8408,2.4916,1.5792
12047,11.0,-0.000238,-0.000142,-0.258861,-0.004255,-0.002669,0.013006,-1.3005,5.3618,0.1385,-0.00043260,-0.00116464,-0.00776931,0.00412225,-0.00338037,0.05187215,0.9344,0.3666,-9.8800,0.124809,0.091128,0.072507,20.1817,0.2610,134,0,0,-0.005004,-0.004182,-0.257950,0.090043,-0.009714,0.068538,-1.6645,2.5740,1.6470
12058,11.0,-0.000614,-0.000325,-0.259282,-0.008726,-0.002695,0.004094,-1.2648,5.4301,0.1821,-0.00036368,-0.00130648,-0.00776553,0.00468539,-0.00304944,0.05497305,0.8668,0.3875,-9.9397,0.060646,0.082212,0.071848,20.1817,0.2610,132,-1,-1,-0.005235,-0.004173,-0.257207,0.087822,-0.008546,0.072614,-1.6013,2.6519,1.6967
12069,11.0,-0.000729,-0.000328,-0.259255,-0.008958,-0.000775,0.000862,-1.2635,5.4686,0.2590,-0.00027684,-0.00132957,-0.00776990,0.00456926,-0.00381976,0.05494542,0.9624,0.3895,-9.9971,0.012902,0.052882,0.063261,20.1817,0.2630,132,0,0,-0.005598,-0.004368,-0.256465,0.085403,-0.007603,0.075713,-1.5673,2.7087,1.7452
12080,11.0,-0.000554,-0.000548,-0.259232,-0.004957,-0.001440,-0.001983,-1.2855,5.4626,0.1665,-0.00017986,-0.00121174,-0.00773375,0.00401063,-0.00372447,0.05472268,1.0563,0.3874,-9.9875,-0.013800,0.009689,0.031799,20.1817,0.2630,128,1,-1,-0.005580,-0.004634,-0.259819,0.084053,-0.005201,0.033811,-1.5673,2.7911,1.7807
12092,12.0,-0.000092,-0.000582,-0.260084,0.002311,-0.001116,-0.014075,-1.3300,5.4346,0.1363,-0.00014798,-0.00107436,-0.00772490,0.00151589,-0.00407190,0.05887678,1.0985,0.2695,-9.9126,-0.055824,-0.026501,-0.021886,20.1817,0.2620,130,2,0,-0.005212,-0.004687,-0.259469,0.084408,-0.003950,0.036163,-1.5836,2.8224,1.8040
12103,11.0,0.000030,-0.000629,-0.260214,0.003078,-0.002761,-0.013804,-1.3942,5.3999,0.0989,-0.00013566,-0.00103028,-0.00772206,0.00128842,-0.00402177,0.05871981,0.9006,0.1013,-9.7125,-0.094872,-0.047657,-0.058872,20.1817,0.2620,138,0,0,-0.004695,-0.004774,-0.260199,0.085691,-0.003770,0.027944,-1.6597,2.8191,1.7842
12114,11.0,-0.000056,-0.000669,-0.260352,0.001020,-0.005039,-0.011267,-1.4322,5.3680,0.0373,-0.00027149,-0.00103212,-0.00771970,0.00205930,-0.00297725,0.05881424,0.8253,-0.0003,-9.4881,-0.083922,-0.046838,-0.052324,20.1817,0.2620,130,-1,0,-0.004562,-0.004816,-0.259862,0.084846,-0.005489,0.033784,-1.7191,2.7962,1.7589
12125,11.0,-0.000286,-0.000676,-0.260609,-0.003008,-0.006718,-0.010972,-1.4411,5.3911,0.0440,-0.00029963,-0.00113733,-0.00772531,0.00256153,-0.00311856,0.05962645,0.7734,0.0213,-9.5438,-0.019138,0.019200,-0.010715,20.1817,0.2620,131,-1,0,-0.004838,-0.004884,-0.259041,0.079832,-0.009920,0.048324,-1.7939,2.7868,1.7173
12137,12.0,-0.000602,-0.000456,-0.260730,-0.007063,-0.004641,-0.009150,-1.3902,5.4294,0.0614,-0.00050698,-0.00120087,-0.00774178,0.00376143,-0.00325133,0.05973161,0.8186,0.1161,-9.5644,0.038472,0.048610,0.000988,20.1817,0.2630,131,-1,1,-0.005127,-0.004892,-0.261065,0.076572,-0.011567,0.027810,-1.7922,2.8216,1.7096
12149,12.0,-0.000695,-0.000229,-0.260800,-0.007622,-0.001707,-0.007671,-1.3435,5.4545,0.0904,-0.00063572,-0.00120262,-0.00775618,0.00376988,-0.00386389,0.05953318,0.8820,0.2122,-9.6184,0.046749,0.034418,0.002364,20.1817,0.2630,133,0,1,-0.005429,-0.004673,-0.260754,0.073985,-0.012369,0.034426,-1.7746,2.8560,1.7173
12160,11.0,-0.000753,-0.000221,-0.261357,-0.006331,-0.000521,-0.013972,-1.3320,5.4757,0.1074,-0.00059524,-0.00125650,-0.00775842,0.00293278,-0.00436640,0.06188639,1.0498,0.3190,-9.7707,0.025558,0.019596,0.000185,20.1817,0.2630,139,0,0,-0.005605,-0.004444,-0.259909,0.071209,-0.012030,0.046121,-1.7264,2.9189,1.7264
12171,11.0,-0.000777,-0.000222,-0.261486,-0.004416,0.001036,-0.015421,-1.3246,5.4771,0.1048,-0.00059315,-0.00123924,-0.00775768,0.00285964,-0.00435675,0.06169051,1.0912,0.3720,-9.8536,0.011625,0.003686,-0.009697,20.1473,0.2630,130,0,0,-0.005685,-0.004480,-0.261314,0.070736,-0.011199,0.030096,-1.7173,2.9544,1.7297
12182,11.0,-0.000768,-0.000442,-0.261666,-0.002714,-0.000228,-0.017201,-1.3535,5.4811,0.0941,-0.00040869,-0.00129005,-0.00774558,0.00210973,-0.00443838,0.06162078,1.0686,0.3615,-9.8478,-0.012655,-0.007038,-0.013077,20.1473,0.2630,137,0,-1,-0.005701,-0.004483,-0.260958,0.071496,-0.010030,0.034315,-1.7140,2.9643,1.7318
12193,11.0,-0.000731,-0.000478,-0.262306,-0.001848,0.000569,-0.023458,-1.3964,5.4692,-0.0094,-0.00039087,-0.00125962,-0.00772059,0.00181872,-0.00476979,0.06387969,0.9589,0.3463,-9.7960,-0.056163,-0.012964,-0.034383,20.1473,0.2640,132,0,0,-0.005481,-0.004971,-0.260143,0.072006,-0.008968,0.042066,-1.7455,2.9876,1.6785
12204,11.0,-0.000406,-0.000524,-0.262562,0.001070,0.000721,-0.023092,-1.4561,5.4168,-0.0511,-0.00033047,-0.00104556,-0.00771336,0.00140201,-0.00493752,0.06383770,0.8390,0.3080,-9.6726,-0.077810,-0.047740,-0.068398,20.1473,0.2640,129,1,0,-0.005468,-0.005041,-0.261982,0.070921,-0.008178,0.021223,-1.7825,3.0020,1.6648
12215,11.0,0.000013,-0.000582,-0.262758,0.004514,-0.001332,-0.020311,-1.5379,5.3422,-0.1183,-0.00030293,-0.00085199,-0.00770413,0.00044377,-0.00485684,0.06350868,0.8062,0.1115,-9.5101,-0.117236,-0.088240,-0.090375,20.1473,0.2640,129,1,0,-0.004807,-0.005130,-0.261405,0.069170,-0.008289,0.032843,-1.8845,2.9595,1.5893
12226,11.0,-0.000010,-0.000418,-0.262312,0.002932,-0.001948,-0.008850,-1.5936,5.2967,-0.1412,-0.00039414,-0.00088369,-0.00771525,0.00090460,-0.00517299,0.06024159,0.8065,-0.0041,-9.3595,-0.097738,-0.076544,-0.071607,20.1473,0.2630,136,-1,1,-0.004591,-0.005183,-0.261040,0.067862,-0.010100,0.040023,-1.9572,2.9134,1.5466
12237,11.0,-0.000154,-0.000407,-0.262357,-0.000059,-0.003103,-0.005146,-1.5848,5.2857,-0.1385,-0.00041365,-0.00096430,-0.00771939,0.00132358,-0.00524392,0.06009564,0.7790,0.1115,-9.4203,0.010682,-0.030114,-0.013171,20.1473,0.2630,133,-1,0,-0.004691,-0.005035,-0.261302,0.064341,-0.014750,0.044885,-2.0428,2.8472,1.5013
12248,11.0,-0.000452,-0.000369,-0.262403,-0.003952,-0.002594,-0.003289,-1.5310,5.3174,-0.1076,-0.00046683,-0.00105587,-0.00772651,0.00241963,-0.00523419,0.06019768,0.8248,0.2297,-9.5432,0.072146,0.038009,0.029130,20.2610,0.2630,127,-1,0,-0.004875,-0.005020,-0.260815,0.062161,-0.015952,0.052560,-2.0271,2.8478,1.5087
12259,11.0,-0.000616,-0.000131,-0.262609,-0.005568,0.001278,-0.005063,-1.4714,5.3710,-0.0419,-0.00059114,-0.00111212,-0.00774168,0.00260368,-0.00579400,0.06106059,0.8825,0.3440,-9.6840,0.067748,0.073468,0.066326,20.2610,0.2640,129,0,1,-0.005171,-0.004990,-0.260254,0.060175,-0.016260,0.059148,-1.9874,2.8786,1.5351
12270,11.0,-0.000738,-0.000106,-0.262668,-0.006168,0.002871,-0.005516,-1.4452,5.4088,0.0111,-0.00050245,-0.00114599,-0.00774576,0.00268525,-0.00642642,0.06105457,0.9325,0.4003,-9.7389,0.053319,0.051911,0.038091,20.2610,0.2640,129,0,0,-0.005501,-0.004762,-0.261525,0.056988,-0.014048,0.044103,-1.9158,2.9872,1.6115
12281,11.0,-0.000780,-0.000088,-0.262738,-0.003945,0.004589,-0.007819,-1.4194,5.4132,0.0084,-0.00049070,-0.00113868,-0.00774414,0.00265340,-0.00637867,0.06103571,1.1335,0.4255,-9.8920,0.042440,0.006901,-0.008009,20.2610,0.2640,138,0,0,-0.005623,-0.004790,-0.261063,0.056032,-0.012653,0.048230,-1.8934,3.0333,1.5893
12293,12.0,-0.000785,-0.000091,-0.262237,-0.002148,0.005752,-0.003548,-1.4421,5.4222,0.0039,-0.00035878,-0.00121264,-0.00774227,0.00210546,-0.00687869,0.05795141,1.0805,0.4135,-9.9207,-0.009123,-0.002717,-0.033132,20.2610,0.2630,138,0,0,-0.005659,-0.004778,-0.260566,0.057106,-0.011005,0.051161,-1.8724,3.0454,1.5936
12304,11.0,-0.000766,-0.000115,-0.262246,-0.002409,0.005301,-0.003992,-1.4958,5.4154,-0.2848,-0.00031678,-0.00119267,-0.00765807,0.00229229,-0.00790148,0.05777005,0.8602,0.3043,-9.7889,-0.054692,-0.001347,-0.037308,20.1473,0.2630,139,0,0,-0.005475,-0.005053,-0.261107,0.057318,-0.009799,0.040510,-1.9002,3.0762,1.5672
12315,11.0,-0.000712,-0.000147,-0.262287,-0.002937,0.003476,-0.003526,-1.5370,5.3911,-0.2878,-0.00033676,-0.00106302,-0.00765059,0.00280302,-0.00729220,0.05783303,0.7751,0.1571,-9.6795,-0.073288,-0.015966,0.016329,20.1473,0.2630,129,0,0,-0.005475,-0.005105,-0.260635,0.055585,-0.009867,0.045191,-1.9361,3.0923,1.5506
12326,11.0,-0.000666,-0.000168,-0.262522,-0.003060,0.002409,-0.004881,-1.5680,5.3787,-0.2697,-0.00030866,-0.00102202,-0.00764602,0.00252561,-0.00721905,0.05879427,0.8214,0.2127,-9.6254,-0.048629,-0.015750,0.030903,20.1473,0.2640,129,0,0,-0.005413,-0.005142,-0.260158,0.053902,-0.010915,0.050201,-1.9821,3.0900,1.5616
12337,11.0,-0.000606,-0.000187,-0.262565,-0.000723,0.001149,-0.002937,-1.5903,5.3662,-0.2773,-0.00034458,-0.00105134,-0.00763984,0.00177010,-0.00677729,0.05873316,1.0400,0.1757,-9.5180,-0.044743,-0.029531,0.015741,20.1473,0.2640,135,0,0,-0.005329,-0.005194,-0.261537,0.051445,-0.012800,0.037379,-2.0380,3.0908,1.5988
12348,11.0,-0.000603,-0.000193,-0.262544,0.001644,0.000582,-0.000921,-1.6001,5.3644,-0.2696,-0.00033659,-0.00105293,-0.00763894,0.00179932,-0.00673720,0.05851027,1.1243,0.2261,-9.5520,-0.015993,-0.004628,0.006255,20.1473,0.2640,133,0,0,-0.005310,-0.005233,-0.261130,0.051480,-0.013662,0.043999,-2.0594,3.0974,1.6049
12360,12.0,-0.000915,0.000027,-0.262646,-0.000321,0.002536,-0.001291,-1.5779,5.4257,-0.2435,-0.00046855,-0.00130949,-0.00765573,0.00182935,-0.00696836,0.05895966,1.0750,0.2251,-9.6298,0.010916,0.049420,0.009409,20.1473,0.2640,132,-1,1,-0.005594,-0.005084,-0.260062,0.053030,-0.014161,0.056825,-2.0802,3.1365,1.6183
12371,11.0,-0.001074,0.000042,-0.262616,-0.001450,0.001349,0.000787,-1.5675,5.4839,-0.2073,-0.00046472,-0.00138815,-0.00765773,0.00220849,-0.00693004,0.05882227,0.9724,0.1573,-9.5509,0.011213,0.078515,0.046508,20.1473,0.2640,131,0,0,-0.005706,-0.005082,-0.262028,0.053749,-0.014729,0.035206,-2.0764,3.1742,1.6275
12382,11.0,-0.001250,0.000049,-0.262594,-0.004743,0.000162,0.003042,-1.5532,5.5370,-0.1639,-0.00053823,-0.00135225,-0.00765813,0.00344492,-0.00637291,0.05895148,0.7584,0.1386,-9.5173,0.000120,0.092908,0.075806,20.1473,0.2640,127,0,0,-0.006066,-0.005100,-0.261161,0.050939,-0.016903,0.047879,-2.0660,3.2991,1.6288
12392,10.0,-0.001373,0.000065,-0.262595,-0.007821,0.000334,0.004571,-1.5310,5.5787,-0.1220,-0.00054564,-0.00138357,-0.00765994,0.00356925,-0.00640263,0.05915878,0.6936,0.2532,-9.5247,0.030179,0.064731,0.062685,20.2028,0.2640,135,0,0,-0.006249,-0.005092,-0.260616,0.047087,-0.017781,0.055022,-2.0562,3.3638,1.6676
12403,11.0,-0.001383,0.000093,-0.262544,-0.007582,0.001562,0.004685,-1.4990,5.5685,-0.0856,-0.00049562,-0.00130956,-0.00766220,0.00364259,-0.00683879,0.05915567,0.8940,0.3551,-9.6939,0.056300,-0.006436,0.026334,20.2028,0.2640,132,0,0,-0.006361,-0.005081,-0.262062,0.043889,-0.017958,0.039805,-2.0387,3.4059,1.7075
12414,11.0,-0.001293,0.000100,-0.262478,-0.005324,0.003100,0.003135,-1.4923,5.5250,-0.1979,-0.00048664,-0.00122523,-0.00763079,0.00336216,-0.00721983,0.05900080,1.0034,0.4166,-9.8608,0.022671,-0.055436,-0.046452,20.2028,0.2640,132,0,0,-0.006353,-0.005053,-0.261146,0.041292,-0.016195,0.049081,-1.9853,3.4138,1.7371
12425,11.0,-0.001158,0.000079,-0.262042,-0.001640,0.003659,0.006559,-1.5291,5.4847,-0.2424,-0.00038970,-0.00124071,-0.00762496,0.00227333,-0.00754886,0.05696562,1.1219,0.3720,-9.8058,-0.034755,-0.072359,-0.076597,20.2028,0.2630,135,0,0,-0.006069,-0.005077,-0.260640,0.041567,-0.014972,0.052089,-1.9834,3.4006,1.7134
12436,11.0,-0.001020,0.000043,-0.261950,0.001604,0.002276,0.006996,-1.5843,5.4368,-0.2905,-0.00035358,-0.00116725,-0.00761786,0.00196173,-0.00742803,0.05684827,1.0855,0.2005,-9.6730,-0.076492,-0.065173,-0.069827,20.2028,0.2630,128,0,0,-0.005927,-0.005097,-0.261452,0.042962,-0.013968,0.040787,-2.0072,3.3635,1.6772
12447,11.0,-0.000931,0.000030,-0.261857,0.003140,0.000052,0.009958,-1.6142,5.4082,-0.3065,-0.00033969,-0.00113302,-0.00761503,0.00181292,-0.00738303,0.05683546,0.9779,0.0814,-9.4353,-0.043706,-0.041328,-0.028188,20.1130,0.2630,138,0,0,-0.005694,-0.005189,-0.260542,0.044272,-0.015763,0.051158,-2.0966,3.3182,1.6106
12458,11.0,-0.001139,0.000064,-0.262783,0.000814,-0.001661,0.000121,-1.5839,5.4168,-0.2921,-0.00036261,-0.00125802,-0.00762142,0.00187929,-0.00759836,0.06170113,0.9412,0.0595,-9.4909,0.043212,-0.005050,0.003280,20.1130,0.2650,139,-1,0,-0.005607,-0.005201,-0.262337,0.044502,-0.017809,0.031791,-2.1224,3.3012,1.6028
12470,12.0,-0.001182,0.000121,-0.262773,0.000983,-0.001438,0.001452,-1.5034,5.4295,-0.2850,-0.00043782,-0.00132407,-0.00762568,0.00172648,-0.00752510,0.06168706,0.9891,0.1995,-9.5851,0.104210,0.006480,0.006181,20.1130,0.2650,133,0,0,-0.005807,-0.005180,-0.261985,0.043633,-0.019914,0.038579,-2.1050,3.3031,1.6107
12481,11.0,-0.001182,0.000170,-0.262697,0.002012,-0.001614,0.002327,-1.4504,5.4217,-0.3127,-0.00047299,-0.00133327,-0.00763037,0.00178939,-0.00764573,0.06140863,1.0405,0.1623,-9.6778,0.083379,-0.013763,-0.060779,20.1130,0.2650,132,0,0,-0.005923,-0.005079,-0.261032,0.042518,-0.021205,0.050901,-1.9880,3.3336,1.6012
12492,11.0,-0.001128,0.000186,-0.261613,0.002792,-0.002049,0.015249,-1.4290,5.4032,-0.3602,-0.00054490,-0.00134261,-0.00762981,0.00201058,-0.00723131,0.05663674,0.9676,0.1537,-9.6377,0.026401,-0.031644,-0.066696,20.1130,0.2620,132,0,0,-0.005972,-0.005048,-0.260499,0.042268,-0.021702,0.055678,-1.9375,3.3474,1.5671
12503,11.0,-0.001107,0.000195,-0.261391,0.002220,-0.002870,0.017592,-1.4224,5.3976,-0.3786,-0.00056401,-0.00134574,-0.00763228,0.00204289,-0.00729653,0.05642842,0.8657,0.1193,-9.5503,0.010382,-0.009912,-0.041498,20.1130,0.2620,134,0,0,-0.005909,-0.005233,-0.260291,0.041543,-0.023549,0.056048,-1.9145,3.3375,1.5015
12514,11.0,-0.000886,0.000220,-0.261189,0.004042,-0.003060,0.019127,-1.3822,5.3788,-0.3872,-0.00065007,-0.00121865,-0.00763191,0.00181942,-0.00705670,0.05641179,0.8761,0.1455,-9.5736,0.048759,-0.012031,-0.009732,20.1130,0.2620,135,1,0,-0.005888,-0.005223,-0.259639,0.040536,-0.024647,0.062749,-1.9110,3.3370,1.4863
12525,11.0,-0.000907,0.000256,-0.262465,0.002614,-0.001955,0.002321,-1.3279,5.3862,-0.3289,-0.00068845,-0.00125258,-0.00764846,0.00124212,-0.00718967,0.06304816,0.8490,0.2577,-9.6698,0.074134,0.003866,0.027790,20.1130,0.2650,135,0,0,-0.005697,-0.005198,-0.258982,0.039581,-0.025408,0.068755,-1.8867,3.3447,1.4720
12536,11.0,-0.000957,0.000053,-0.262444,0.002013,-0.002531,0.001517,-1.3264,5.4082,-0.2845,-0.00050514,-0.00131306,-0.00764114,0.00126034,-0.00740562,0.06304709,0.9569,0.3697,-9.7677,0.025753,0.022705,0.054541,20.2266,0.2650,134,0,-1,-0.005769,-0.005154,-0.261625,0.036885,-0.024424,0.038299,-1.8106,3.3733,1.5168
12547,11.0,-0.000982,0.000026,-0.262413,0.002471,-0.001864,0.001391,-1.3478,5.4229,-0.2524,-0.00050319,-0.00133998,-0.00764170,0.00138168,-0.00739268,0.06298544,1.0223,0.2836,-9.7190,-0.038910,0.017251,0.042559,20.2266,0.2650,129,0,0,-0.005812,-0.005358,-0.261223,0.036431,-0.023573,0.041954,-1.7966,3.3930,1.5540
12558,11.0,-0.000989,-0.000001,-0.261496,0.003131,-0.002223,0.011850,-1.3745,5.4398,-0.2512,-0.00052320,-0.00142394,-0.00763997,0.00138241,-0.00713704,0.05898248,1.0375,0.1923,-9.6927,-0.047895,0.009994,0.008013,20.2266,0.2620,130,0,0,-0.005885,-0.005441,-0.260947,0.036582,-0.022472,0.042823,-1.8443,3.4392,1.6072
12569,11.0,-0.001025,-0.000016,-0.261349,0.002717,-0.002545,0.012998,-1.3906,5.4585,-0.2543,-0.00052914,-0.00146091,-0.00764176,0.00154248,-0.00715221,0.05894240,0.9574,0.1835,-9.6109,-0.026415,0.023415,-0.014857,20.2266,0.2620,135,0,0,-0.005938,-0.005481,-0.260496,0.036284,-0.022905,0.047461,-1.8662,3.4666,1.6035
12580,11.0,-0.001284,-0.000023,-0.261200,-0.000492,-0.003179,0.013950,-1.3927,5.4908,-0.2594,-0.00060187,-0.00160054,-0.00764485,0.00224103,-0.00678117,0.05901664,0.9234,0.1369,-9.6200,-0.017042,0.031657,-0.005032,20.2266,0.2620,139,-1,0,-0.005970,-0.005497,-0.259980,0.035977,-0.023457,0.052807,-1.8853,3.4848,1.6011
12591,11.0,-0.001314,-0.000030,-0.260854,-0.001222,-0.003735,0.017354,-1.3984,5.5044,-0.2555,-0.00061860,-0.00161158,-0.00764720,0.00236764,-0.00682348,0.05820669,0.8867,0.1433,-9.5979,-0.012412,0.018393,-0.004768,20.2266,0.2620,134,0,0,-0.006302,-0.005537,-0.258797,0.033400,-0.025023,0.063387,-1.9052,3.5387,1.5002
12602,11.0,-0.001307,-0.000033,-0.260658,-0.002189,-0.003692,0.018178,-1.3932,5.4939,-0.2546,-0.00066770,-0.00152171,-0.00764891,0.00288674,-0.00669245,0.05825887,0.8119,0.1896,-9.6421,-0.000970,-0.001393,-0.006899,20.2266,0.2650,134,0,0,-0.006358,-0.005548,-0.262148,0.032069,-0.025642,0.026514,-1.9086,3.5626,1.4948
12613,11.0,-0.001296,-0.000033,-0.260440,-0.002495,-0.002691,0.018891,-1.3833,5.4885,-0.2572,-0.00068697,-0.00150153,-0.00765069,0.00280696,-0.00676418,0.05818107,0.8702,0.2825,-9.6609,0.012997,-0.007313,-0.014638,20.2266,0.2650,134,0,0,-0.006348,-0.005549,-0.261858,0.030441,-0.026185,0.031500,-1.9127,3.5678,1.4973
12624,11.0,-0.001282,-0.000041,-0.260501,-0.002452,-0.001768,0.015922,-1.3894,5.4794,-0.2618,-0.00065946,-0.00145442,-0.00765315,0.00277252,-0.00706280,0.05934006,0.8959,0.2992,-9.6916,-0.003042,-0.007724,-0.029359,20.2266,0.2620,139,0,0,-0.006323,-0.005767,-0.261118,0.027651,-0.025567,0.040546,-1.9066,3.5771,1.4895
12635,11.0,-0.001284,-0.000053,-0.260313,-0.001754,-0.002962,0.016248,-1.4172,5.4787,-0.4299,-0.00066956,-0.00144553,-0.00759302,0.00291594,-0.00789773,0.05928303,0.9783,0.1123,-9.6851,-0.030253,0.003049,-0.034670,20.2266,0.2620,131,0,0,-0.006329,-0.005791,-0.261076,0.026468,-0.024988,0.040673,-1.9124,3.5882,1.4736
12646,11.0,-0.001330,-0.000055,-0.260129,-0.002406,-0.003278,0.017097,-1.4095,5.4931,-0.4163,-0.00073382,-0.00143242,-0.00759376,0.00317303,-0.00764988,0.05931289,0.8952,0.1621,-9.6314,-0.002601,0.024257,0.022973,20.2266,0.2620,139,0,0,-0.006366,-0.005822,-0.260173,0.025510,-0.026824,0.049900,-1.9452,3.6153,1.4453
12657,11.0,-0.001610,-0.000030,-0.261980,-0.004845,-0.003298,-0.006681,-1.3765,5.5237,-0.3875,-0.00077008,-0.00156316,-0.00760144,0.00288111,-0.00795212,0.06801997,0.9773,0.1654,-9.7063,0.042760,0.028456,0.028519,20.2266,0.2650,138,-1,0,-0.006411,-0.005821,-0.259630,0.024553,-0.027558,0.054984,-1.9452,3.6358,1.4649
12669,12.0,-0.001674,-0.000020,-0.262066,-0.003396,-0.002591,-0.007607,-1.3527,5.5509,-0.3730,-0.00078639,-0.00166074,-0.00760413,0.00223967,-0.00811493,0.06795473,1.0998,0.2447,-9.7559,0.030243,0.020142,0.013565,20.2266,0.2650,138,0,0,-0.006719,-0.005816,-0.262195,0.023301,-0.027948,0.025088,-1.9188,3.6693,1.4788
12680,11.0,-0.001664,-0.000040,-0.262141,-0.001748,-0.001681,-0.008936,-1.3679,5.5459,-0.3846,-0.00078850,-0.00163976,-0.00760380,0.00216089,-0.00812349,0.06787618,1.0725,0.3049,-9.8187,-0.023352,-0.006402,-0.025712,20.2266,0.2650,132,0,0,-0.006845,-0.005831,-0.261609,0.024262,-0.027305,0.032094,-1.8994,3.7168,1.4860
12691,11.0,-0.001643,-0.000063,-0.261940,-0.000673,-0.001338,-0.006365,-1.3943,5.5455,-0.4062,-0.00076639,-0.00166717,-0.00760303,0.00186238,-0.00821409,0.06655874,1.0259,0.2680,-9.7730,-0.035282,-0.007987,-0.041892,20.2266,0.2630,137,0,0,-0.006828,-0.005849,-0.261274,0.024907,-0.026714,0.034905,-1.9172,3.7181,1.4755
12702,11.0,-0.001622,-0.000090,-0.261997,-0.000151,-0.001409,-0.006068,-1.4224,5.5417,-0.4092,-0.00076042,-0.00165294,-0.00760182,0.00181096,-0.00819435,0.06650117,0.9681,0.2346,-9.6791,-0.044094,-0.005655,-0.010725,20.2266,0.2630,134,0,0,-0.006809,-0.005914,-0.261415,0.024708,-0.026350,0.032897,-1.9639,3.7317,1.4464
12713,11.0,-0.001588,-0.000103,-0.262060,-0.000190,-0.001658,-0.005363,-1.4342,5.5289,-0.4236,-0.00078715,-0.00160579,-0.00760065,0.00194477,-0.00803814,0.06651738,0.8982,0.2028,-9.6359,-0.022757,-0.013312,-0.025079,20.2266,0.2630,129,0,0,-0.006811,-0.005952,-0.261048,0.023846,-0.026359,0.037408,-1.9885,3.7440,1.4406
12724,11.0,-0.001512,-0.000112,-0.262967,0.000738,-0.001738,-0.014022,-1.4427,5.5024,-0.4386,-0.00079370,-0.00156641,-0.00760031,0.00143222,-0.00814732,0.07003287,0.9422,0.2156,-9.5810,-0.012852,-0.037802,-0.031767,20.2266,0.2650,134,0,0,-0.006774,-0.005965,-0.260651,0.022976,-0.026779,0.042088,-2.0070,3.7416,1.4328
12735,11.0,-0.001259,-0.000113,-0.263119,0.004022,-0.001876,-0.013590,-1.4395,5.4818,-0.4672,-0.00082989,-0.00147921,-0.00759628,0.00066698,-0.00804513,0.06996153,0.9999,0.2021,-9.6475,0.001640,-0.023743,-0.040132,20.2266,0.2650,138,1,0,-0.006666,-0.005982,-0.262387,0.022337,-0.027228,0.025599,-2.0207,3.7219,1.3998
12746,11.0,-0.001278,-0.000125,-0.263252,0.003819,-0.001679,-0.013353,-1.4486,5.4941,-0.4486,-0.00083329,-0.00151233,-0.00760995,0.00077329,-0.00789884,0.06990557,0.9847,0.2458,-9.6835,-0.016810,0.013130,-0.023698,20.2266,0.2650,135,0,0,-0.006458,-0.005992,-0.262109,0.022598,-0.027460,0.029991,-2.0227,3.7281,1.3757
12757,11.0,-0.001133,-0.000126,-0.262471,0.004918,-0.001897,-0.002251,-1.4447,5.5113,-0.4664,-0.00087321,-0.00145368,-0.00760822,0.00098550,-0.00765085,0.06610832,0.9336,0.1947,-9.6617,0.000389,0.034901,-0.026668,20.2266,0.2630,137,1,0,-0.006473,-0.006004,-0.261768,0.022494,-0.027512,0.034328,-2.0360,3.7391,1.3661
12768,11.0,-0.001187,-0.000116,-0.262475,0.003180,-0.002132,-0.000450,-1.4360,5.5347,-0.5028,-0.00089018,-0.00150705,-0.00761196,0.00120472,-0.00770313,0.06607582,0.8761,0.1787,-9.5523,0.016343,0.029812,-0.069259,20.2266,0.2630,136,0,0,-0.006422,-0.006007,-0.261562,0.020741,-0.028403,0.038126,-2.0363,3.7977,1.3283
12779,11.0,-0.001156,-0.000111,-0.262471,0.002013,-0.001966,0.001040,-1.4273,5.5171,-0.5354,-0.00092065,-0.00143247,-0.00761391,0.00174916,-0.00763658,0.06612922,0.8170,0.2165,-9.5721,0.012826,-0.013259,-0.062991,20.2266,0.2630,137,0,0,-0.006494,-0.006002,-0.261138,0.019108,-0.028669,0.043735,-2.0273,3.8233,1.2873
12791,12.0,-0.000902,-0.000126,-0.263126,0.005448,-0.002659,-0.005432,-1.4434,5.4942,-0.5751,-0.00092935,-0.00131915,-0.00761183,0.00101442,-0.00774454,0.06880060,1.0151,0.1626,-9.5782,-0.019944,-0.019294,-0.063573,20.2266,0.2650,137,1,0,-0.006487,-0.005989,-0.260674,0.017408,-0.028687,0.049025,-2.0193,3.8271,1.3062
12802,11.0,-0.000902,-0.000123,-0.263180,0.005374,-0.003002,-0.004340,-1.4350,5.5017,-0.5984,-0.00099444,-0.00138132,-0.00761216,0.00093222,-0.00750506,0.06879795,0.9917,0.1634,-9.5902,0.003644,0.001137,-0.033056,20.2266,0.2650,133,0,0,-0.006239,-0.006003,-0.262281,0.017557,-0.029838,0.032848,-2.0402,3.8256,1.2419
12813,11.0,-0.000911,-0.000116,-0.263192,0.005321,-0.003181,-0.003054,-1.4246,5.5080,-0.6058,-0.00101631,-0.00141782,-0.00761605,0.00109036,-0.00757604,0.06868602,1.0010,0.1750,-9.6041,0.013855,0.003892,-0.024127,20.1896,0.2650,133,0,0,-0.006264,-0.006011,-0.261927,0.017086,-0.030363,0.037874,-2.0403,3.8389,1.2177
12824,11.0,-0.000911,-0.000110,-0.262936,0.005995,-0.002170,0.000786,-1.4134,5.5194,-0.6118,-0.00100418,-0.00152756,-0.00762017,0.00076612,-0.00782440,0.06749249,1.0752,0.2933,-9.6321,0.021591,-0.002854,-0.024556,20.1896,0.2640,145,0,0,-0.006528,-0.006016,-0.262345,0.016659,-0.031164,0.033489,-2.0270,3.8645,1.1991
12835,11.0,-0.001081,-0.000115,-0.262901,0.004462,-0.001207,0.001577,-1.4149,5.5183,-0.6331,-0.00101058,-0.00164960,-0.00762492,0.00126875,-0.00782778,0.06744553,1.0410,0.3051,-9.6357,-0.000891,-0.019092,-0.047823,20.1896,0.2640,138,-1,0,-0.006532,-0.006009,-0.261964,0.017337,-0.030633,0.038184,-2.0183,3.8678,1.1912
12846,11.0,-0.000942,-0.000135,-0.262880,0.005246,-0.001286,0.002327,-1.4375,5.4725,-0.6757,-0.00101572,-0.00159273,-0.00762268,0.00116667,-0.00776653,0.06743712,0.9169,0.2305,-9.6284,-0.031743,-0.064109,-0.072421,20.1896,0.2640,137,0,0,-0.006665,-0.006049,-0.261113,0.016902,-0.029636,0.047032,-2.0329,3.8593,1.1412
12857,11.0,-0.000675,-0.000178,-0.263309,0.004943,-0.001909,0.000130,-1.4809,5.3906,-0.5946,-0.00100101,-0.00147881,-0.00768152,0.00034148,-0.00701012,0.06926006,0.6594,0.1924,-9.4217,-0.071953,-0.117571,-0.087887,20.1896,0.2650,135,0,0,-0.006521,-0.006073,-0.262757,0.015897,-0.029783,0.028673,-2.0565,3.8249,1.0973
12868,11.0,-0.000350,-0.000232,-0.263289,0.005071,-0.003291,0.003523,-1.5480,5.2864,-0.6673,-0.00098897,-0.00133433,-0.00767583,-0.00024441,-0.00698075,0.06920488,0.6193,0.1366,-9.4155,-0.095333,-0.144091,-0.120316,20.2477,0.2650,135,0,0,-0.006261,-0.006106,-0.262437,0.013598,-0.030423,0.035280,-2.1034,3.7611,1.0545
12879,11.0,-0.000027,-0.000270,-0.263226,0.007930,-0.005334,0.006447,-1.5965,5.1776,-0.7222,-0.00099544,-0.00119981,-0.00767317,-0.00078535,-0.00701184,0.06911840,0.8746,0.0538,-9.4458,-0.070841,-0.153022,-0.097034,20.2477,0.2650,139,0,0,-0.005618,-0.006177,-0.261584,0.009795,-0.033295,0.049236,-2.2159,3.5981,0.9762
12890,11.0,0.000164,-0.000082,-0.262983,0.008864,-0.003356,0.009293,-1.5962,5.1168,-0.7233,-0.00117150,-0.00113707,-0.00768424,-0.00084988,-0.00712608,0.06844698,0.8564,0.1855,-9.6195,-0.027937,-0.088298,-0.014413,20.2477,0.2640,136,0,1,-0.005317,-0.005992,-0.261060,0.010109,-0.034801,0.055530,-2.2595,3.5167,0.9367
12901,11.0,0.000211,-0.000055,-0.262879,0.007737,-0.002243,0.008482,-1.5522,5.1041,-0.6952,-0.00120215,-0.00116143,-0.00768860,-0.00075245,-0.00723525,0.06842714,0.8266,0.3059,-9.7828,0.060697,-0.025835,0.031732,20.2477,0.2640,129,0,0,-0.005125,-0.005797,-0.262302,0.010066,-0.035311,0.041264,-2.2809,3.4654,0.9311
12912,11.0,0.000021,-0.000014,-0.262801,0.005071,-0.000077,0.005714,-1.5021,5.1112,-0.6438,-0.00113761,-0.00133478,-0.00770154,-0.00047762,-0.00791697,0.06843544,0.9322,0.4157,-9.9422,0.087030,-0.017902,0.041644,20.2477,0.2640,134,-1,0,-0.005072,-0.005745,-0.261409,0.008437,-0.034119,0.046736,-2.2101,3.4536,0.9736
12923,11.0,0.000091,-0.000019,-0.263357,0.007427,0.001510,-0.004983,-1.4956,5.0877,-0.6183,-0.00113208,-0.00133304,-0.00770077,-0.00069367,-0.00794931,0.07074791,1.1137,0.4167,-10.0155,0.006329,-0.039270,0.032587,20.2477,0.2650,134,0,0,-0.005287,-0.005740,-0.260935,0.007752,-0.032637,0.047956,-2.1666,3.4603,1.0034
12934,11.0,0.000186,-0.000036,-0.263430,0.009846,0.001600,-0.008344,-1.5172,5.0796,-0.6080,-0.00108687,-0.00148489,-0.00769777,-0.00183269,-0.00809917,0.07063565,1.1354,0.3057,-9.9789,-0.028927,-0.045737,0.014067,20.2477,0.2650,134,0,0,-0.005231,-0.005734,-0.262811,0.009361,-0.031043,0.023543,-2.1536,3.4443,1.0297
12945,11.0,0.000077,-0.000255,-0.263485,0.008990,-0.002241,-0.008812,-1.5494,5.0618,-0.6169,-0.00097038,-0.00159831,-0.00768630,-0.00136882,-0.00768314,0.07051924,1.0241,0.1354,-9.7756,-0.035177,-0.045282,-0.009725,20.1553,0.2650,134,-1,-1,-0.005300,-0.005805,-0.262315,0.012513,-0.030163,0.025872,-2.1873,3.4195,1.0535
