timestamp_ms,dt_ms,pos_x,pos_y,pos_z,vel_x,vel_y,vel_z,roll_deg,pitch_deg,yaw_deg,gyro_bias_x,gyro_bias_y,gyro_bias_z,accel_bias_x,accel_bias_y,accel_bias_z,raw_accel_x,raw_accel_y,raw_accel_z,raw_gyro_x,raw_gyro_y,raw_gyro_z,raw_mag_x,raw_mag_y,raw_mag_z,raw_baro_alt,raw_tof,raw_flow_squal,raw_flow_dx,raw_flow_dy,dev_pos_x,dev_pos_y,dev_pos_z,dev_vel_x,dev_vel_y,dev_vel_z,dev_roll_deg,dev_pitch_deg,dev_yaw_deg
28719,10.0,-3.8e-05,4.6e-05,-0.264003,-0.004204,0.005515,0.001434,0.0131,0.0101,0.0009,0.0,0.0,0.00507254,0.00132804,-0.02597088,0.0,-0.0846,0.1632,-9.6006,0.021437,0.016429,0.006679,33.7935,6.5561,37.4388,-31.0097,0.264,174,0,0,0.01016,0.010358,-0.267902,0.022792,0.075224,-0.019667,-0.0058,0.2437,0.3227
28730,11.0,-2.9e-05,6e-06,-0.263974,-0.001904,0.002559,0.003914,-0.1893,-0.0412,-0.0033,6.4e-07,1.4e-07,0.00507254,0.00129502,-0.02590274,-2e-08,-0.0531,0.267,-9.583,-0.013022,-0.003787,-0.001302,33.7935,6.5561,37.4388,-31.0097,0.264,174,0,0,0.010133,0.010497,-0.265569,0.01872,0.069949,0.01134,0.0089,0.2569,0.3245
28741,11.0,9.8e-05,-0.000127,-0.264055,0.003218,-0.000272,-0.000233,-0.3133,-0.1505,-0.0124,9.2e-07,3.7e-07,0.00507254,0.00113583,-0.02570944,4.11e-06,0.0021,0.3047,-9.6472,-0.044934,-0.048358,-0.005775,33.7935,6.5561,37.4388,-31.0097,0.264,175,0,0,0.010208,0.01056,-0.265278,0.013823,0.060475,0.017945,-0.0079,0.2501,0.3179
28752,11.0,0.000276,0.000228,-0.263992,0.007706,0.012222,0.001571,-0.1965,-0.2702,-0.021,7e-07,6e-07,0.00507256,0.0009158,-0.02624307,7.4e-07,0.0389,0.3455,-9.8287,-0.047494,-0.067363,-0.003291,35.1538,4.7547,35.6728,-31.0097,0.264,170,0,1,0.010334,0.01051,-0.265091,0.013239,0.055994,0.020337,-0.0343,0.2236,0.3124
28763,11.0,0.00041,0.000135,-0.263994,0.009373,0.009286,-0.00063,-0.4596,-0.3459,-0.0221,2.09e-06,8.6e-07,0.00507257,0.00082143,-0.02573875,5.64e-06,-0.0021,0.3152,-9.9858,-0.037759,-0.048992,0.005914,35.1538,4.7547,35.6728,-31.0097,0.265,171,0,0,0.010466,0.015391,-0.264882,0.013123,0.108609,0.021404,-0.0503,0.1889,0.3075
28774,11.0,0.000446,0.00012,-0.264012,0.00835,0.008451,-0.002545,-0.7035,-0.2406,-0.0168,4.3e-06,-1.2e-07,0.00507255,0.00099648,-0.02541625,6.64e-06,0.0275,0.3309,-9.9766,-0.01108,-0.008597,0.010222,35.1538,4.7547,35.6728,-31.0467,0.265,167,0,0,0.010663,0.015434,-0.264695,0.011849,0.091862,0.017954,-0.0926,0.1488,0.3074
28785,11.0,0.000461,0.000123,-0.264812,0.007077,0.008275,-0.018174,-0.8382,-0.139,-0.0095,5.49e-06,-1.04e-06,0.00507251,0.00122329,-0.02513348,0.00044024,0.0267,0.3156,-9.948,-0.002067,-0.000424,0.012083,35.1538,4.7547,35.6728,-31.0467,0.265,167,0,0,0.010651,0.015514,-0.264522,0.014321,0.083565,0.017208,-0.2771,-0.2215,0.5115
28796,11.0,0.00046,9.3e-05,-0.265015,0.005279,0.007191,-0.018559,-1.0848,-0.0244,-0.0095,8.49e-06,-2.27e-06,0.00507246,0.00146598,-0.02473475,0.0004428,0.0011,0.3742,-9.8345,-0.019956,0.007149,0.000602,35.1538,4.7547,35.6728,-31.0467,0.265,172,0,0,0.010743,0.015613,-0.264679,0.013204,0.071799,0.011561,-0.2939,-0.2369,0.53
28807,11.0,0.000442,6.4e-05,-0.265203,0.003251,0.005565,-0.018742,-1.2517,0.0862,-0.0103,1.053e-05,-3.61e-06,0.00507241,0.00170593,-0.02436866,0.00041483,-0.0111,0.2815,-9.8453,-0.018572,0.013726,2e-05,35.1538,4.7547,35.6728,-31.0467,0.265,170,0,0,0.010765,0.015605,-0.264559,0.012131,0.06668,0.012383,-0.3138,-0.2386,0.5336
28818,11.0,8.1e-05,2e-06,-0.265076,-0.006635,0.002702,-0.015108,-1.4126,0.5755,-0.0135,1.248e-05,-1.105e-05,0.0050721,0.0030232,-0.02393701,-0.00021875,0.0293,0.2008,-9.9023,-0.032926,-0.02184,-0.018575,35.1538,4.7547,35.6728,-31.0467,0.265,178,-1,0,0.010777,0.015604,-0.264422,0.011043,0.061307,0.013188,-0.3312,-0.238,0.538
28829,11.0,9.7e-05,-1.7e-05,-0.265237,-0.004596,0.003106,-0.016059,-1.4914,0.4538,-0.0236,1.377e-05,-9.06e-06,0.0050722,0.0027229,-0.02374074,-0.0002471,0.0792,0.3928,-9.901,-0.009217,-0.014828,-0.005918,35.1538,4.7547,35.6728,-31.0467,0.265,181,0,0,0.005946,0.015496,-0.264656,-0.04006,0.049878,0.007972,-0.3777,-0.261,0.5301
28841,12.0,5.5e-05,1e-06,-0.265439,-0.004276,0.002979,-0.017477,-1.5205,0.4467,-0.0226,1.453e-05,-8.75e-06,0.00507222,0.00267823,-0.02367388,-0.00024608,0.0805,0.2761,-9.9231,0.003146,0.011447,0.007774,35.1538,4.7547,35.6728,-31.0467,0.265,177,0,0,0.005966,0.015504,-0.264576,-0.034555,0.04704,0.008004,-0.3884,-0.2784,0.5314
28852,11.0,-1.1e-05,-2.3e-05,-0.265169,-0.00494,0.001226,-0.012385,-1.5813,0.4809,-0.0262,1.596e-05,-9.24e-06,0.00507221,0.00273517,-0.02346329,-0.00207567,0.058,0.1909,-9.8527,-0.014115,0.024884,0.000331,35.1538,4.7547,35.6728,-31.0097,0.265,177,0,0,0.005944,0.015533,-0.264498,-0.030088,0.044006,0.007785,-0.3937,-0.2843,0.5398
28863,11.0,-8.2e-05,-1.1e-05,-0.265301,-0.005467,0.000983,-0.01165,-1.5197,0.4904,-0.0264,1.271e-05,-8.48e-06,0.00507219,0.00283043,-0.02333088,-0.00207177,0.0436,0.1537,-9.7448,0.006612,0.024872,0.00268,34.133,6.9149,36.5445,-31.0097,0.265,180,0,0,0.005819,0.015531,-0.264733,-0.024017,0.0362,0.00459,-0.4184,-0.2713,0.5478
28874,11.0,-6.2e-05,2e-06,-0.265427,-0.004018,0.000756,-0.010493,-1.5133,0.4059,-0.0302,1.258e-05,-5.97e-06,0.00507227,0.00257582,-0.02334413,-0.00204978,0.0442,0.2048,-9.6998,0.00433,-0.014287,0.000751,34.133,6.9149,36.5445,-31.0097,0.265,185,0,0,0.005762,0.015558,-0.264683,-0.021469,0.03283,0.006118,-0.4225,-0.2651,0.5523
28885,11.0,4.2e-05,-3.1e-05,-0.265169,-0.001031,0.000329,-0.006758,-1.5598,0.239,-0.039,1.437e-05,-5.3e-07,0.00507247,0.00214763,-0.02316716,-0.00443515,0.0246,0.2888,-9.865,-0.014513,-0.050869,-0.006025,34.133,6.9149,36.5445,-31.0097,0.265,185,0,0,0.005873,0.015595,-0.26452,-0.014638,0.030805,0.009638,-0.1883,-0.3279,0.3293
28896,11.0,0.000132,-6.7e-05,-0.265258,0.000915,-0.000567,-0.008963,-1.6028,0.1295,-0.0416,1.588e-05,3.37e-06,0.00507262,0.00185213,-0.02305312,-0.00441384,0.0093,0.2498,-10.0077,-0.016624,-0.040902,0.002846,34.133,6.9149,36.5445,-31.0097,0.266,187,0,0,0.006012,0.015591,-0.265375,-0.011066,0.029163,-0.000801,-0.1973,-0.3667,0.3254
28907,11.0,0.00016,-0.000118,-0.265373,0.0011,-0.001915,-0.011918,-1.6241,0.102,-0.0456,1.509e-05,4.79e-06,0.00507265,0.00183023,-0.02282333,-0.00440889,-0.0047,0.1868,-10.0811,-0.020796,-0.011398,-0.001763,34.133,6.9149,36.5445,-31.0097,0.266,194,0,0,0.006133,0.015582,-0.265389,-0.008074,0.027321,-0.001808,-0.2076,-0.3999,0.3252
28918,11.0,6.6e-05,-0.00018,-0.265167,-0.001615,-0.002589,-0.009995,-1.6665,0.2008,-0.0491,1.695e-05,2.9e-07,0.00507248,0.00211602,-0.02263469,-0.00733582,-0.0271,0.2774,-10.0076,-0.024854,0.043573,-0.001557,34.133,6.9149,36.5445,-31.0097,0.265,186,0,0,0.006191,0.015526,-0.265463,-0.005138,0.023001,-0.005428,-0.2362,-0.4191,0.3213
28929,11.0,-7.7e-05,-0.000152,-0.265274,-0.004521,-0.00099,-0.009573,-1.6254,0.3139,-0.0424,1.485e-05,-4.8e-06,0.00507226,0.00245765,-0.02278703,-0.00733633,-0.0032,0.3107,-9.7739,0.015292,0.061242,0.013073,34.133,6.9149,36.5445,-30.9252,0.265,185,0,0,0.006108,0.015493,-0.265201,-0.005375,0.021818,-0.00275,-0.2498,-0.4005,0.3181
28940,11.0,-0.000165,-6.4e-05,-0.265403,-0.005909,0.002042,-0.007832,-1.5433,0.3574,-0.034,1.016e-05,-6.57e-06,0.00507219,0.00254324,-0.02302544,-0.00698827,-0.0063,0.3538,-9.6128,0.04162,0.035154,0.018355,34.133,6.9149,36.5445,-30.9252,0.265,183,0,0,0.000934,0.015596,-0.265265,-0.062923,0.022335,2.9e-05,-0.2253,-0.3232,0.3332
28951,11.0,0.000302,3e-05,-0.265157,0.003916,0.004776,-0.001368,-1.4876,0.041,-0.0366,7.94e-06,2.263e-05,0.00507354,0.00131018,-0.02314279,-0.01008257,-0.0094,0.3784,-9.5649,0.040493,-0.023546,0.026011,34.133,6.9149,36.5445,-30.9252,0.265,187,1,0,0.000846,0.015706,-0.265294,-0.05695,0.023471,0.002734,-0.2034,-0.3213,0.343
28962,11.0,0.000428,0.000113,-0.265188,0.004968,0.006494,0.000314,-1.4541,-0.0351,-0.0225,6.55e-06,2.76e-05,0.00507378,0.00111583,-0.02320492,-0.00980098,-0.047,0.341,-9.63,0.033231,-0.049925,0.031098,33.454,5.8385,37.4388,-30.9252,0.265,185,0,0,0.005821,0.015848,-0.26525,0.006317,0.02503,0.006112,-0.1834,-0.373,0.3528
28973,11.0,0.000607,0.000163,-0.265184,0.007355,0.006865,0.000434,-1.4606,-0.1402,-0.014,9.06e-06,3.494e-05,0.00507414,0.00083532,-0.02318977,-0.00980304,0.002,0.3099,-9.8031,0.016146,-0.072485,0.023247,33.454,5.8385,37.4388,-30.9252,0.265,176,0,0,0.00615,0.016036,-0.264973,0.008671,0.025816,0.011797,-0.1503,-0.4509,0.3823
28984,11.0,0.000736,0.000196,-0.265056,0.008085,0.006723,0.0006,-1.4768,-0.1927,0.0012,1.214e-05,3.815e-05,0.00507427,0.00073719,-0.02305428,-0.01113707,-0.0392,0.2955,-9.9417,0.008382,-0.048243,0.0297,33.454,5.8385,37.4388,-30.9252,0.265,179,0,0,0.006401,0.016102,-0.264853,0.005734,0.024354,0.012529,-0.2456,-0.0577,0.4197
28995,11.0,0.000806,0.000202,-0.265062,0.007891,0.005752,-0.001659,-1.5098,-0.1966,0.0117,1.715e-05,3.636e-05,0.00507419,0.00075826,-0.02292381,-0.01113613,-0.0156,0.2619,-10.0224,-0.003436,-0.022446,0.019805,33.454,5.8385,37.4388,-30.9252,0.265,176,0,0,0.006541,0.016134,-0.264777,0.00632,0.023655,0.011708,-0.2445,-0.0902,0.4336
29006,11.0,0.000804,0.000186,-0.265151,0.005947,0.004707,-0.004685,-1.5511,-0.1552,0.0131,2.328e-05,2.988e-05,0.00507389,0.0009206,-0.02278907,-0.01052054,-0.0698,0.2784,-10.0263,-0.011743,0.009042,0.002305,33.454,5.8385,37.4388,-30.867,0.265,178,0,0,0.006653,0.016136,-0.26479,0.005665,0.021556,0.007192,-0.257,-0.1136,0.4505
29017,11.0,0.000752,0.000272,-0.265041,0.003432,0.006056,-0.004024,-1.5204,-0.095,0.0198,2.174e-05,2.166e-05,0.00507351,0.00116134,-0.02283032,-0.01225169,-0.077,0.3245,-9.9391,0.033574,0.028026,0.011158,33.454,5.8385,37.4388,-30.867,0.265,179,0,0,0.006634,0.01613,-0.264784,0.004159,0.020601,0.005159,-0.2647,-0.1067,0.4507
29028,11.0,0.00073,0.000382,-0.265131,0.002518,0.008173,-0.004974,-1.4806,-0.0648,0.0261,1.891e-05,1.662e-05,0.00507331,0.00126577,-0.02290371,-0.01178705,-0.0039,0.3776,-9.8518,0.04322,0.012324,0.013149,33.454,5.8385,37.4388,-30.867,0.265,181,0,0,0.006576,0.016199,-0.264736,0.002292,0.020862,0.004409,-0.2526,-0.0904,0.455
29039,11.0,0.000744,0.000435,-0.26519,0.001778,0.008787,-0.005697,-1.4884,-0.0644,0.0336,2.414e-05,1.635e-05,0.00507322,0.0013118,-0.02288993,-0.01178857,-0.0632,0.3603,-9.8807,0.017188,-0.002954,0.01431,33.454,5.8385,37.4388,-30.867,0.265,180,0,0,0.006536,0.016392,-0.26489,0.000843,0.023154,0.002552,-0.2146,-0.0794,0.47
29050,11.0,0.000758,0.000419,-0.264545,0.001359,0.008181,0.002018,-1.5343,-0.0648,0.0393,3.474e-05,1.589e-05,0.00507311,0.00130626,-0.02247452,-0.01887272,-0.0416,0.3569,-9.8866,-0.012286,-0.003976,0.010531,33.454,5.8385,37.4388,-30.867,0.264,179,0,0,0.006548,0.016446,-0.264864,0.000241,0.023507,0.002745,-0.2074,-0.0816,0.4775
29061,11.0,0.000744,0.000397,-0.264525,0.00085,0.006825,0.001496,-1.5812,-0.0513,0.0461,4.628e-05,1.321e-05,0.00507291,0.00135385,-0.02231696,-0.01887335,-0.0139,0.2893,-9.8711,-0.015458,0.007136,0.011605,34.1288,5.8533,36.9459,-30.8988,0.264,180,0,0,0.006544,0.016412,-0.264332,-0.00053,0.022339,0.008139,-0.2288,-0.0803,0.4829
29073,12.0,0.000715,0.000409,-0.264556,-0.000101,0.005667,0.000701,-1.6046,-0.0308,0.0547,5.342e-05,9.47e-06,0.00507271,0.00140987,-0.02222834,-0.01840407,-0.0374,0.246,-9.8432,-0.003323,0.013537,0.014937,34.1288,5.8533,36.9459,-30.8988,0.264,177,0,0,0.00653,0.016389,-0.264292,-0.000737,0.021197,0.007957,-0.2413,-0.0769,0.4882
29084,11.0,0.000683,0.000415,-0.264184,-0.00086,0.004576,0.005076,-1.618,-0.0148,0.0603,5.725e-05,7.2e-06,0.00507253,0.00148114,-0.02196873,-0.02186857,-0.0322,0.2264,-9.8198,-0.00204,0.013775,0.010931,34.1288,5.8533,36.9459,-30.8988,0.264,172,0,0,0.006482,0.016393,-0.264122,-0.001977,0.018314,0.009055,-0.2896,-0.0475,0.5321
29095,11.0,0.001091,0.000902,-0.264162,0.005167,0.011411,0.00481,-1.4928,-0.1171,0.0511,9.55e-06,5.315e-05,0.00507455,0.00088411,-0.02260366,-0.02152451,-0.0446,0.2612,-9.8126,0.011276,0.017826,0.014859,34.1288,5.8533,36.9459,-30.8988,0.265,178,1,1,0.006449,0.016401,-0.264679,-0.002473,0.017432,0.002743,-0.2937,-0.0397,0.5374
29106,11.0,0.001037,0.000927,-0.264109,0.003124,0.009897,0.004885,-1.5164,-0.0746,0.0564,2.017e-05,4.223e-05,0.005074,0.0010873,-0.02243305,-0.02152342,-0.0579,0.2328,-9.8212,0.001887,0.026447,0.007195,34.1288,5.8533,36.9459,-30.8988,0.265,176,0,0,0.011321,0.021439,-0.264647,0.052595,0.0741,0.003534,-0.2427,-0.0502,0.5698
29117,11.0,0.000957,0.00091,-0.263997,0.001468,0.008296,0.006554,-1.5566,-0.0241,0.0609,3.52e-05,2.87e-05,0.00507344,0.0012431,-0.02224112,-0.02200365,-0.0052,0.2639,-9.732,-0.013945,0.035185,0.007509,34.1288,5.8533,36.9459,-30.8988,0.264,175,0,0,0.011293,0.021565,-0.264617,0.040821,0.06231,0.004649,-0.2593,-0.0139,0.57
29128,11.0,0.000908,0.001326,-0.263921,0.000169,0.013273,0.007233,-1.4933,0.0033,0.0583,-4.52e-06,2.2e-05,0.00507341,0.00136834,-0.02267487,-0.02200159,-0.0372,0.258,-9.7665,-0.020935,0.021747,0.006723,34.1288,5.8533,36.9459,-30.8988,0.264,178,0,1,0.011207,0.026518,-0.264216,0.035201,0.113227,0.010028,-0.2194,0.0133,0.6045
29139,11.0,0.000917,0.001363,-0.263885,0.000264,0.011161,0.007188,-1.5146,-0.0007,0.0635,9.01e-06,2.297e-05,0.00507338,0.00135998,-0.02254691,-0.02157797,0.0004,0.1816,-9.7829,0.004528,-0.003671,0.011272,34.1288,5.8533,36.9459,-30.8988,0.264,185,0,0,0.011138,0.031522,-0.264146,0.030117,0.159141,0.010951,-0.1843,0.0336,0.6368
29150,11.0,0.000947,0.001421,-0.264416,0.000494,0.009622,-0.00057,-1.5122,-0.016,0.0663,1.181e-05,2.785e-05,0.00507342,0.00137841,-0.02244082,-0.01621334,-0.0178,0.1687,-9.8816,0.015387,-0.011991,0.00689,34.1288,5.8533,36.9459,-30.8988,0.265,180,0,0,0.011208,0.031855,-0.263965,0.024251,0.130968,0.012392,-0.213,0.0313,0.6273
29161,11.0,0.000949,0.001483,-0.264461,0.00049,0.008039,-0.001645,-1.5099,-0.0155,0.0636,1.709e-05,2.729e-05,0.00507338,0.00138509,-0.02239966,-0.01589783,0.0035,0.1448,-9.884,0.016645,-0.000369,0.000288,34.1309,5.4871,36.5217,-30.8988,0.265,177,0,0,0.01126,0.032025,-0.264538,0.021941,0.118866,0.004767,-0.2202,0.0247,0.6226
29173,12.0,0.000944,0.001527,-0.264482,0.000715,0.007239,-0.001845,-1.5122,-0.01,0.0521,2.312e-05,2.386e-05,0.00507336,0.00135273,-0.02229551,-0.01589664,0.0359,0.2284,-9.8394,0.009626,0.002212,-0.010631,34.1309,5.4871,36.5217,-30.8988,0.265,177,0,0,0.011305,0.03232,-0.264488,0.017748,0.098046,0.004469,-0.2323,0.0241,0.6044
29183,10.0,0.000931,0.001512,-0.264199,0.000885,0.006941,0.002473,-1.534,-0.0032,0.0496,3.66e-05,2.062e-05,0.00507328,0.00137111,-0.02210707,-0.01843879,0.0474,0.3354,-9.7407,-0.006745,0.004389,0.000459,34.1309,5.4871,36.5217,-30.8988,0.264,180,0,0,0.01131,0.032436,-0.264441,0.01747,0.088542,0.005168,-0.3369,-0.0877,0.7043
29194,11.0,0.000931,0.001546,-0.264168,0.001268,0.00749,0.0032,-1.5381,0.0009,0.0678,4.571e-05,1.754e-05,0.00507326,0.00135488,-0.02210131,-0.01844057,0.0546,0.3535,-9.7558,0.0108,0.000126,0.035121,34.1309,5.4871,36.5217,-30.8988,0.264,184,0,0,0.011321,0.032499,-0.264179,0.016146,0.081208,0.008791,-0.3535,-0.0869,0.6975
29205,11.0,0.001012,0.001592,-0.264181,0.001769,0.006498,0.002201,-1.5358,-0.0312,0.0833,5.079e-05,2.842e-05,0.00507357,0.00127146,-0.02207251,-0.01804705,-0.0409,0.1931,-9.8663,0.01307,-0.031496,0.028894,34.1309,5.4871,36.5217,-30.8988,0.264,177,0,0,0.011379,0.032684,-0.263976,0.014036,0.069262,0.011322,-0.3644,-0.0947,0.7229
29216,11.0,0.00112,0.001671,-0.264574,0.002727,0.005937,-0.004215,-1.5121,-0.0742,0.0957,4.329e-05,4.408e-05,0.00507391,0.00121129,-0.02199507,-0.01465771,-0.0305,0.1723,-9.9702,0.02669,-0.041997,0.021931,34.1309,5.4871,36.5217,-30.8988,0.265,181,0,0,0.011479,0.032778,-0.263921,0.013313,0.062963,0.010716,-0.3675,-0.1157,0.7343
29227,11.0,0.001142,0.001729,-0.26469,0.00208,0.005223,-0.007387,-1.5012,-0.0774,0.0958,4.393e-05,4.331e-05,0.00507389,0.00121741,-0.02200297,-0.01418129,-0.0649,0.1828,-10.0486,0.018387,-0.006189,0.005038,34.1309,5.4871,36.5217,-30.8248,0.265,185,0,0,0.011595,0.03289,-0.264525,0.012959,0.057479,0.002093,-0.3648,-0.1411,0.7423
29238,11.0,0.001061,0.001718,-0.264783,0.000262,0.004034,-0.009532,-1.5153,-0.0412,0.0824,5.299e-05,2.836e-05,0.00507339,0.00140201,-0.02185798,-0.01417866,-0.0564,0.211,-10.0165,-0.007983,0.034476,-0.016787,34.1309,5.4871,36.5217,-30.8248,0.265,189,0,0,0.011635,0.033032,-0.264578,0.009757,0.047532,-0.001585,-0.3724,-0.1443,0.7373
29249,11.0,0.000903,0.001703,-0.264392,-0.002876,0.00365,-0.004079,-1.5304,0.0246,0.0605,6.392e-05,9.7e-07,0.00507262,0.0015707,-0.02168852,-0.0181917,-0.1014,0.2797,-9.859,-0.007998,0.065864,-0.02779,34.1309,5.4871,36.5217,-30.8248,0.264,190,0,0,0.011562,0.033039,-0.264599,0.007329,0.042951,-0.002691,-0.3888,-0.1234,0.7225
29260,11.0,0.000781,0.00171,-0.264425,-0.004901,0.003626,-0.001973,-1.5357,0.0661,0.0465,7.088e-05,-1.175e-05,0.0050721,0.00174682,-0.02166155,-0.01819162,-0.0776,0.2773,-9.6322,0.00105,0.048668,-0.01861,34.1309,5.8459,35.6274,-30.8248,0.264,188,0,0,0.011303,0.033048,-0.264275,0.001403,0.036037,0.002641,-0.4173,-0.0553,0.6863
29271,11.0,0.000734,0.001702,-0.264505,-0.00594,0.002865,-0.000101,-1.5464,0.0747,0.0301,7.957e-05,-9.22e-06,0.00507209,0.00173286,-0.02162301,-0.01759252,-0.098,0.2219,-9.5739,-0.005654,0.017695,-0.021982,34.1309,5.8459,35.6274,-30.8248,0.264,190,0,0,0.011204,0.033062,-0.26431,-0.000669,0.033222,0.00441,-0.428,-0.0302,0.672
29283,12.0,0.000767,0.001686,-0.264165,-0.005489,0.001881,0.00616,-1.558,0.043,0.0053,8.559e-05,1.576e-05,0.00507244,0.00171916,-0.02141674,-0.02015139,-0.0723,0.2058,-9.6237,-0.009478,-0.017899,-0.036902,34.1309,5.8459,35.6274,-30.8248,0.264,185,0,0,0.011139,0.033057,-0.26425,0.001321,0.030944,0.00749,-0.37,-0.322,0.6372
29294,11.0,0.000852,0.00161,-0.264133,-0.00377,0.001597,0.006647,-1.5911,-0.0015,-0.0203,0.00010556,4.42e-05,0.00507311,0.00155531,-0.02130877,-0.01981939,-0.0078,0.3384,-9.7338,-0.029567,-0.036649,-0.039091,34.1309,5.8459,35.6274,-30.8776,0.265,185,0,0,0.011284,0.033035,-0.264697,0.002196,0.025553,0.005592,-0.3999,-0.3579,0.5896
29305,11.0,0.000854,0.001498,-0.264059,-0.0035,0.001287,0.006815,-1.6384,-0.0101,-0.0402,0.00013507,5.369e-05,0.0050732,0.00151952,-0.02121415,-0.0198206,-0.0276,0.3857,-9.8069,-0.042912,-0.002472,-0.029761,34.1309,5.8459,35.6274,-30.8776,0.265,181,0,0,0.011389,0.032965,-0.264634,0.003419,0.023583,0.007024,-0.4278,-0.3841,0.5625
29316,11.0,0.000795,0.001425,-0.264513,-0.003815,0.001115,0.001265,-1.6684,0.0054,-0.0472,0.0001542,5.013e-05,0.00507295,0.00155952,-0.02121551,-0.01573752,-0.006,0.3503,-9.7579,-0.028036,0.02137,-0.007973,34.1309,5.8459,35.6274,-30.8776,0.265,182,0,0,0.011424,0.032783,-0.264542,0.003521,0.020249,0.008194,-0.4909,-0.3921,0.5266
29327,11.0,0.000777,0.001394,-0.264491,-0.00383,0.001069,0.002794,-1.6826,0.0047,-0.0502,0.00016461,5.656e-05,0.00507307,0.00155619,-0.021184,-0.01573789,-0.0302,0.3106,-9.6811,-0.012056,0.005387,-0.000486,34.1309,5.8459,35.6274,-30.8776,0.263,176,0,0,0.011394,0.03273,-0.263553,0.003187,0.018622,0.019387,-0.5121,-0.3846,0.5203
29338,11.0,0.00083,0.001425,-0.264503,-0.00357,0.001043,0.003948,-1.6726,-0.022,-0.0501,0.00016008,7.831e-05,0.00507387,0.00145034,-0.02121813,-0.01532239,-0.0909,0.2349,-9.6584,0.011621,-0.021851,0.007312,34.1309,5.8459,35.6274,-30.8776,0.263,179,0,0,0.0114,0.0327,-0.263393,0.003004,0.017362,0.020928,-0.5273,-0.3858,0.5168
29349,11.0,0.000937,0.001462,-0.264692,-0.002492,0.001015,0.002513,-1.6592,-0.0702,-0.0537,0.00015129,0.00011518,0.00507496,0.00138846,-0.02122223,-0.01352211,-0.0806,0.2252,-9.6958,0.013706,-0.043204,-0.001006,34.1309,5.8459,35.6274,-30.8776,0.265,186,0,0,0.011466,0.032717,-0.263172,0.003052,0.01617,0.023247,-0.5302,-0.4012,0.5177
29360,11.0,0.001099,0.001527,-0.264705,-0.000502,0.001389,0.002001,-1.6369,-0.1345,-0.0599,0.00013888,0.00015828,0.00507648,0.00119005,-0.02128911,-0.0132097,-0.0492,0.2334,-9.8214,0.02473,-0.064711,-0.002377,32.7728,6.2047,36.5217,-30.8776,0.265,179,0,0,0.011696,0.037765,-0.263952,0.004301,0.070877,0.013747,-0.4302,-0.4549,0.5874
29371,11.0,0.001275,0.001621,-0.264688,0.001758,0.002334,0.001251,-1.6039,-0.2,-0.0629,0.00011964,0.00019973,0.00507797,0.00099451,-0.02134793,-0.0132118,-0.0235,0.2555,-9.8874,0.036763,-0.069735,0.003025,32.7728,6.2047,36.5217,-30.8776,0.265,179,0,0,0.011874,0.037881,-0.263811,0.005859,0.064923,0.014463,-0.4323,-0.4992,0.5764
29382,11.0,0.001431,0.001205,-0.26483,0.004305,-0.002683,-0.001752,-1.6426,-0.2549,-0.062,0.00022475,0.0002311,0.00507851,0.00086859,-0.02093575,-0.01210727,0.0479,0.3058,-9.9311,0.021292,-0.062169,-0.000677,32.7728,6.2047,36.5217,-30.8776,0.265,181,0,-1,0.01206,0.038013,-0.26373,0.00756,0.060055,0.013808,-0.4267,-0.545,0.5695
29393,11.0,0.001503,0.001217,-0.264862,0.005754,-0.002252,-0.004059,-1.6332,-0.2722,-0.0675,0.00021348,0.00023029,0.00507878,0.00072695,-0.02095208,-0.01210697,0.0711,0.2569,-10.0284,0.006597,-0.027763,-0.00057,32.7728,6.2047,36.5217,-30.8776,0.263,173,0,0,0.007554,0.023262,-0.263193,-0.046749,-0.110908,0.015604,-0.6277,-0.2602,0.1524
29404,11.0,0.001028,0.001194,-0.264971,0.000178,-0.00287,-0.006726,-1.6384,-0.2081,-0.0733,0.00021225,9.528e-05,0.00507464,0.00123972,-0.02096892,-0.01170738,0.0618,0.2018,-10.0039,-0.009046,0.00468,-0.008568,32.7728,6.2047,36.5217,-30.8776,0.263,168,-1,0,0.002636,0.023005,-0.262908,-0.090703,-0.090023,0.012891,-0.5833,-0.2627,0.1925
29415,11.0,0.000942,0.001113,-0.26551,-0.000171,-0.003018,-0.013026,-1.6633,-0.1767,-0.0964,0.00022663,6.952e-05,0.00507398,0.00128216,-0.02103745,-0.00838802,0.0398,0.308,-9.8966,-0.029409,0.033123,-0.029814,32.7728,6.2047,36.5217,-30.8776,0.266,166,0,0,-0.002422,0.02284,-0.262857,-0.136654,-0.081859,0.010907,-0.5688,-0.2339,0.2079
29426,11.0,0.000828,0.001021,-0.265689,-0.000482,-0.002596,-0.012732,-1.691,-0.1375,-0.1123,0.00024369,3.909e-05,0.00507298,0.00139096,-0.02098578,-0.00808656,0.075,0.3741,-9.7396,-0.032496,0.042763,-0.020636,32.7728,6.2047,36.5217,-30.8776,0.266,172,0,0,-0.002635,0.022668,-0.264724,-0.12374,-0.07403,-0.010789,-0.5793,-0.2205,0.1963
29437,11.0,0.000845,0.000955,-0.265817,0.00103,-0.001792,-0.010544,-1.7109,-0.1435,-0.1147,0.00025764,4.014e-05,0.00507327,0.00131446,-0.02099229,-0.00808716,0.101,0.3875,-9.6115,-0.022191,-0.008816,0.004226,32.7728,6.2047,36.5217,-30.8776,0.266,178,0,0,-0.003033,0.022324,-0.264965,-0.100903,-0.059535,-0.008495,-0.608,-0.1917,0.1842
29448,11.0,0.000931,0.001404,-0.264835,0.002584,0.004542,0.003339,-1.6657,-0.1724,-0.1002,0.0001321,5.97e-05,0.00507316,0.00124255,-0.02118379,-0.01581801,0.0387,0.3261,-9.7194,-0.005773,-0.034319,0.018074,34.1309,6.2047,36.5217,-30.8776,0.264,175,0,1,-0.003123,0.027185,-0.265037,-0.090216,0.003779,-0.006094,-0.5046,-0.1873,0.2865
29459,11.0,0.001075,0.00141,-0.264796,0.004533,0.004206,0.003806,-1.6701,-0.2179,-0.0883,0.0001442,8.767e-05,0.00507448,0.00108197,-0.02113981,-0.015817,0.0258,0.2822,-9.7789,0.000425,-0.056289,0.029163,34.1309,6.2047,36.5217,-30.8776,0.264,181,0,0,-0.00316,0.032108,-0.264464,-0.080594,0.060589,0.002436,-0.4041,-0.1964,0.3864
29470,11.0,0.001202,0.001468,-0.264812,0.005903,0.003636,0.002332,-1.6564,-0.2557,-0.0705,0.00013981,0.00010858,0.0050752,0.00101434,-0.02116629,-0.01543513,0.0046,0.1977,-9.8992,0.019534,-0.048625,0.033469,34.1309,6.2047,36.5217,-30.8776,0.264,180,0,0,-0.00306,0.032217,-0.26445,-0.06239,0.050576,0.003424,-0.4364,-0.2709,0.389
29481,11.0,0.000859,0.001523,-0.2643,0.0012,0.002186,0.005963,-1.6268,-0.2423,-0.0637,9.138e-05,-1.305e-05,0.00507175,0.0012479,-0.02017251,-0.01886276,-0.0153,0.0891,-10.029,0.017588,-0.047083,0.012901,34.1309,6.2047,36.5217,-30.8776,0.264,180,-1,0,-0.003007,0.032299,-0.264417,-0.054534,0.046617,0.00308,-0.3758,-0.3248,0.3237
29492,11.0,0.000473,0.001564,-0.264292,-0.003243,5.4e-05,0.002351,-1.6169,-0.2248,-0.0714,8.252e-05,-0.00012851,0.00506889,0.00160573,-0.02020926,-0.01857431,-0.0029,0.0381,-10.1141,0.011053,-0.034181,-0.003937,34.1309,6.2047,36.5217,-30.8776,0.265,180,-1,0,-0.007898,0.032358,-0.264392,-0.102986,0.041579,0.001917,-0.3604,-0.3364,0.3413
29503,11.0,-4.5e-05,0.001589,-0.264283,-0.008606,-0.001086,-0.0007,-1.5983,-0.1663,-0.1062,4.45e-05,-0.00027819,0.00506599,0.00187027,-0.01962235,-0.01855882,0.0116,0.1117,-10.1058,0.007468,0.01524,-0.035526,34.1309,6.2047,36.5217,-30.8776,0.265,175,-1,0,-0.012989,0.032459,-0.264876,-0.132296,0.031597,-0.007501,-0.3567,-0.3613,0.3236
29515,12.0,-0.000224,0.001586,-0.263556,-0.008562,-0.001545,0.005873,-1.5977,-0.1177,-0.1333,4.045e-05,-0.00030134,0.00506549,0.00196118,-0.01949272,-0.02362126,0.059,0.2068,-10.0087,-0.001023,0.060918,-0.031107,34.1309,6.2047,36.5217,-30.8776,0.263,181,0,0,-0.018123,0.032481,-0.265021,-0.174825,0.027786,-0.010529,-0.3466,-0.3394,0.3121
29526,11.0,-0.000471,0.00157,-0.26349,-0.010384,-0.001685,0.006161,-1.6005,-0.0462,-0.155,3.776e-05,-0.00034663,0.00506448,0.00210818,-0.01944769,-0.02362096,-0.018,0.2376,-9.804,-0.00595,0.091978,-0.023832,34.1309,6.2047,36.5217,-30.9146,0.263,183,0,0,-0.018762,0.032519,-0.263931,-0.144435,0.022989,0.000455,-0.3726,-0.2834,0.2512
29537,11.0,-0.000661,0.001099,-0.263448,-0.011655,-0.007543,0.008258,-1.6409,0.0037,-0.1789,0.00017503,-0.00036894,0.00506444,0.00217473,-0.01904499,-0.02333767,-0.0409,0.205,-9.5968,0.000837,0.069,-0.022347,34.1309,6.2047,36.5217,-30.9146,0.263,178,0,-1,-0.019121,0.032515,-0.26396,-0.1328,0.020851,0.000947,-0.3885,-0.2382,0.2255
29548,11.0,-0.00023,0.001053,-0.263094,-0.005313,-0.006947,0.014084,-1.6457,-0.0405,-0.1924,0.00016299,-0.00019406,0.00506842,0.00168675,-0.01902731,-0.02497959,-0.0295,0.2683,-9.5633,-0.012808,0.010765,-0.027056,34.1309,5.8459,34.7332,-30.9146,0.263,190,1,0,-0.014692,0.027533,-0.263949,-0.056193,-0.033846,0.005692,-0.5481,-0.2264,0.0492
29560,12.0,-0.00018,0.001022,-0.262938,-0.004331,-0.005363,0.016775,-1.6448,-0.0673,-0.208,0.00014866,-0.00015777,0.00506938,0.00157642,-0.01907513,-0.02476538,-0.0387,0.3422,-9.5725,-0.004462,-0.023645,-0.019191,34.1309,5.8459,34.7332,-30.9146,0.265,184,0,0,-0.014744,0.027451,-0.264584,-0.050857,-0.030391,0.001129,-0.555,-0.2294,0.0343
29571,11.0,-9.2e-05,0.001001,-0.262742,-0.003083,-0.00453,0.018857,-1.6447,-0.102,-0.2183,0.0001376,-0.00011329,0.00507059,0.00147093,-0.01912009,-0.02476591,-0.044,0.2938,-9.6404,-0.004403,-0.035391,-0.012951,34.1309,5.8459,34.7332,-30.9146,0.265,184,0,0,-0.014736,0.027387,-0.264558,-0.045525,-0.026613,0.004114,-0.5575,-0.2454,0.0231
29582,11.0,-7e-06,0.000989,-0.263859,-0.002081,-0.004,0.004872,-1.6422,-0.1332,-0.2307,0.00012393,-7.593e-05,0.00507171,0.00133826,-0.01935233,-0.01609571,-0.0544,0.2658,-9.6848,-0.002167,-0.033948,-0.015224,34.1309,5.8459,34.7332,-30.9146,0.265,189,0,0,-0.014684,0.027294,-0.264475,-0.031611,-0.020031,0.008283,-0.5132,-0.6609,0.0756
29593,11.0,6.6e-05,0.000972,-0.263798,-0.001,-0.002599,0.006327,-1.6429,-0.1604,-0.2452,0.00011971,-4.454e-05,0.00507274,0.00124765,-0.01942113,-0.01609712,-0.0265,0.3643,-9.6868,-0.002584,-0.029655,-0.017353,34.1309,5.8459,34.7332,-30.9146,0.263,188,0,0,-0.014618,0.027253,-0.263548,-0.027312,-0.017681,0.019269,-0.5156,-0.6861,0.0653
29604,11.0,0.000148,0.000966,-0.263762,0.000386,-0.000874,0.006871,-1.6406,-0.1886,-0.2516,0.00011491,-1.47e-05,0.00507382,0.0011637,-0.01944097,-0.01583242,0.0029,0.4009,-9.7248,0.001845,-0.032806,-0.003655,34.1309,5.8459,34.7332,-30.9146,0.263,181,0,0,-0.014488,0.027186,-0.263124,-0.019325,-0.011804,0.022984,-0.5174,-0.7334,0.047
29615,11.0,0.000243,0.000909,-0.264347,0.001571,0.000565,-0.000946,-1.6576,-0.2194,-0.2607,0.00013798,1.515e-05,0.00507503,0.00107598,-0.01956178,-0.01161417,-0.0206,0.4565,-9.8246,-0.017955,-0.037164,-0.006338,34.1309,5.8459,34.7332,-30.9146,0.265,189,0,0,-0.014412,0.027149,-0.262939,-0.015628,-0.009027,0.023798,-0.5207,-0.7582,0.0423
29626,11.0,0.000298,0.000881,-0.264394,0.002104,0.001021,-0.002339,-1.6666,-0.2355,-0.2634,0.00015105,2.774e-05,0.00507553,0.00104363,-0.01953336,-0.01141408,-0.0279,0.3492,-9.9083,-0.009107,-0.020621,0.001789,34.1309,5.8459,34.7332,-30.9146,0.265,181,0,0,-0.014326,0.027079,-0.264058,-0.012299,-0.006544,0.00945,-0.5347,-0.7848,0.0348
29637,11.0,0.000293,0.000887,-0.264426,0.001816,0.001707,-0.003629,-1.666,-0.2315,-0.2652,0.00015648,1.789e-05,0.00507511,0.00106539,-0.01956313,-0.01141522,-0.0364,0.3425,-9.9323,0.003233,0.002852,0.000889,34.1309,5.8459,34.7332,-30.9146,0.265,183,0,0,-0.014232,0.026998,-0.263911,-0.007674,-0.003704,0.008188,-0.5506,-0.8155,0.0294
29649,12.0,0.000266,0.000959,-0.263618,0.001402,0.003958,0.006206,-1.6425,-0.2193,-0.2568,0.00014089,5.2e-07,0.00507437,0.0010971,-0.01942968,-0.01674905,-0.0258,0.4134,-9.8223,0.0292,0.011795,0.015154,33.7956,5.4723,35.6728,-30.9146,0.263,186,0,0,-0.014235,0.026991,-0.263831,-0.006287,-0.002168,0.007748,-0.5497,-0.8174,0.028
29660,11.0,0.000294,0.001091,-0.263544,0.002058,0.006477,0.007374,-1.6048,-0.226,-0.2424,0.00011626,2.45e-06,0.00507462,0.001064,-0.01956058,-0.01675246,0.0132,0.4057,-9.7126,0.051863,-0.010891,0.0293,33.7956,5.4723,35.6728,-30.9146,0.263,184,0,0,-0.014247,0.027111,-0.263169,-0.003621,0.003073,0.014224,-0.5141,-0.8189,0.0449
29671,11.0,0.000454,0.001258,-0.263502,0.004795,0.008369,0.006907,-1.5576,-0.2753,-0.2258,8.308e-05,4.957e-05,0.00507683,0.00095707,-0.01964675,-0.01649782,0.0728,0.3309,-9.8199,0.063712,-0.062996,0.038089,33.7956,5.4723,35.6728,-30.9146,0.263,181,0,0,-0.014185,0.027229,-0.263059,-0.001329,0.005862,0.015349,-0.4836,-0.836,0.0621
29682,11.0,0.000643,0.001365,-0.264243,0.007495,0.008512,-0.004867,-1.5331,-0.3288,-0.2247,7.896e-05,8.946e-05,0.00507909,0.00073339,-0.01983167,-0.0115517,0.0638,0.2506,-10.0402,0.03776,-0.072335,0.015991,33.7956,5.4723,35.6728,-30.9146,0.265,180,0,0,-0.01403,0.027373,-0.262903,0.001826,0.007261,0.015967,-0.52,-0.8512,0.1973
29693,11.0,0.000637,0.001376,-0.264347,0.007878,0.007729,-0.009035,-1.5393,-0.3192,-0.2312,0.00011044,5.323e-05,0.00507767,0.00080816,-0.01977413,-0.01135988,0.0798,0.2694,-10.1636,0.000587,0.003696,-0.008938,33.7956,5.4723,35.6728,-30.9146,0.265,180,0,0,-0.013706,0.027517,-0.264111,0.007907,0.007993,-0.002492,-0.492,-0.9321,0.2068
29704,11.0,0.000402,0.001283,-0.264458,0.005487,0.006285,-0.011041,-1.5783,-0.2351,-0.2476,0.0001815,-7.634e-05,0.00507295,0.00096294,-0.01966758,-0.01136247,0.076,0.3098,-9.9987,-0.038886,0.092122,-0.028866,33.7956,5.4723,35.6728,-30.9146,0.265,180,0,0,-0.013723,0.027499,-0.26415,0.008816,0.007471,-0.005269,-0.5001,-0.9281,0.1967
29715,11.0,3.6e-05,0.001165,-0.263676,0.001385,0.005982,0.001039,-1.622,-0.1125,-0.2566,0.00025499,-0.00023988,0.00506605,0.00128769,-0.01930098,-0.01678817,0.0418,0.4273,-9.6667,-0.046458,0.143785,-0.027195,33.7956,5.4723,35.6728,-30.9146,0.263,179,0,0,-0.013905,0.027406,-0.264261,0.007719,0.006464,-0.00736,-0.527,-0.8837,0.1757
29726,11.0,-0.000202,0.001104,-0.26363,-0.001109,0.007122,0.007305,-1.647,-0.035,-0.2522,0.00031022,-0.00033819,0.00506149,0.00149096,-0.01918526,-0.01678942,0.0245,0.4956,-9.2461,-0.022447,0.092612,-0.001914,33.7956,5.4723,35.6728,-30.9146,0.263,176,0,0,-0.014507,0.027165,-0.263463,0.002445,0.006783,0.006858,-0.5918,-0.736,0.1352
29737,11.0,-6.2e-05,0.001104,-0.263553,0.000928,0.009261,0.013432,-1.6529,-0.0809,-0.2466,0.0003475,-0.00027969,0.00506494,0.00136545,-0.01911431,-0.01654132,0.0212,0.5411,-9.2139,0.002311,-0.056262,0.0297,33.7956,5.4723,35.6728,-30.9146,0.263,174,0,0,-0.014688,0.0271,-0.263403,0.001049,0.008148,0.012689,-0.6098,-0.6923,0.1306
29748,11.0,0.000791,0.001172,-0.264208,0.011315,0.011527,0.008091,-1.6398,-0.2322,-0.2762,0.00036943,4.544e-05,0.00508426,0.00064813,-0.01928616,-0.01160397,0.053,0.5119,-9.4209,0.028029,-0.145358,0.048639,34.4726,6.1973,36.5445,-30.8565,0.265,174,1,0,-0.014631,0.027073,-0.263243,0.00228,0.010078,0.019384,-0.6194,-0.7072,0.1372
29759,11.0,0.001345,0.001285,-0.264176,0.018052,0.013252,0.005552,-1.6149,-0.3951,-0.2557,0.00037871,0.00021164,0.00509431,0.00031128,-0.01928058,-0.01131177,0.1323,0.4501,-9.9924,0.042791,-0.212342,0.08106,34.4726,6.1973,36.5445,-30.8565,0.265,180,0,0,-0.008816,0.027206,-0.264091,0.062733,0.013928,0.014046,-0.627,-0.9198,0.1582
29770,11.0,0.001755,0.001382,-0.26415,0.022602,0.012911,-0.00083,-1.5984,-0.5051,-0.2192,0.00039849,0.00029211,0.00509906,0.00016623,-0.01924389,-0.01130855,0.1339,0.2955,-10.398,0.03255,-0.153384,0.081927,34.4726,6.1973,36.5445,-30.8565,0.265,178,0,0,-0.00824,0.027302,-0.263955,0.064714,0.015477,0.013174,-0.6086,-1.0454,0.2008
29781,11.0,0.001776,0.001814,-0.264612,0.021377,0.014346,-0.013579,-1.5952,-0.4858,-0.1739,0.00027688,0.00019272,0.00509292,0.00030633,-0.01956399,-0.00891964,0.0446,0.0905,-10.547,-0.027837,0.001473,0.045096,34.4726,6.1973,36.5445,-30.8565,0.265,183,0,1,-0.012416,0.027393,-0.263877,0.008445,0.014319,0.001437,-0.5399,-1.0738,0.2272
29793,12.0,0.00147,0.001685,-0.264804,0.016119,0.009419,-0.018392,-1.6618,-0.3511,-0.161,0.00040092,-4.677e-05,0.00508439,0.0006614,-0.01937839,-0.00892904,0.0243,0.1353,-10.2195,-0.06483,0.134846,0.012188,34.4726,6.1973,36.5445,-30.8565,0.263,182,0,0,-0.01245,0.032266,-0.263324,0.008681,0.067075,0.000809,-0.3973,-1.0424,0.4124
29804,11.0,0.000558,0.002516,-0.265044,0.003989,0.016684,-0.018465,-1.6446,-0.1603,-0.1213,9.139e-05,-0.00051118,0.00506452,0.00133765,-0.01984989,-0.00871747,-0.0182,0.156,-9.7802,-0.056722,0.175638,0.005174,34.4726,6.1973,36.5445,-30.9146,0.263,175,-1,2,-0.018077,0.041921,-0.263379,-0.053021,0.162411,-0.004936,-0.1418,-0.8178,0.7566
29815,11.0,0.00027,0.002468,-0.26393,-0.000575,0.014055,0.002052,-1.6764,-0.0655,-0.1158,0.00018411,-0.00064437,0.00506025,0.00161847,-0.01936378,-0.0161059,-0.0989,0.2481,-9.3132,-0.026562,0.11462,0.012618,34.4726,6.1973,36.5445,-30.9146,0.263,184,0,0,-0.023596,0.051769,-0.263198,-0.108576,0.25714,-0.000311,0.148,-0.6554,1.0821
29826,11.0,0.000673,0.002914,-0.263901,0.006917,0.018327,0.008148,-1.5502,-0.4128,-2.0859,-0.00038787,0.00091343,0.00548508,0.02460735,-0.01241676,-0.01571243,-0.108,0.2343,-9.2373,-0.007421,0.017132,0.02424,34.4726,6.1973,36.5445,-30.9146,0.263,183,1,1,-0.023968,0.051968,-0.263175,-0.101182,0.231853,0.004974,0.0465,-0.6075,1.0042
29837,11.0,0.001445,0.003402,-0.263789,0.0133,0.021418,0.01206,-1.5352,-0.4803,-2.0543,-0.00047888,0.00102781,0.00548616,0.02103484,-0.01319388,-0.01571632,-0.1483,0.2302,-9.466,0.004236,-0.098576,0.034488,34.4726,6.1973,36.5445,-30.9146,0.263,178,1,1,-0.014393,0.062502,-0.262994,0.018181,0.297427,0.016309,0.1646,-0.6268,1.1521
29848,11.0,0.002303,0.003417,-0.262711,0.020683,0.018396,0.023817,-1.552,-0.5781,-2.0572,-0.00036261,0.00117117,0.00549437,0.01772794,-0.01329941,-0.02103301,-0.0889,0.2041,-9.753,0.005484,-0.138539,0.033308,34.133,6.1973,35.2029,-30.9146,0.262,181,1,0,-0.009193,0.062934,-0.262325,0.073117,0.269957,0.025594,0.0496,-0.7249,1.0514
29859,11.0,0.002652,0.003375,-0.262466,0.022162,0.01476,0.02068,-1.5831,-0.6619,-2.0584,-0.00025636,0.00120518,0.0054986,0.01730113,-0.01316307,-0.02102948,-0.068,0.1792,-10.1144,-0.02272,-0.126367,0.028514,34.133,6.1973,35.2029,-30.9146,0.262,184,0,0,-0.003861,0.063327,-0.262094,0.124261,0.244842,0.026647,-0.0563,-0.8395,0.9593
29870,11.0,0.002753,0.003776,-0.26231,0.020723,0.01524,0.014425,-1.59,-0.6727,-2.0363,-0.00037023,0.00116496,0.00549401,0.01782721,-0.01329118,-0.0208022,-0.0819,0.054,-10.3573,-0.039606,-0.022777,0.009771,34.133,6.1973,35.2029,-30.9146,0.262,184,0,1,-0.003147,0.068629,-0.261655,0.10717,0.253627,0.020545,-0.0481,-0.9626,1.0267
29881,11.0,0.002096,0.004248,-0.262561,0.011355,0.017551,0.005905,-1.5755,-0.6069,-2.0117,-0.00053374,0.00096417,0.00548277,0.0218576,-0.01300781,-0.01865728,-0.0772,0.1503,-10.1925,-0.021485,0.084093,-0.001312,34.133,6.1973,35.2029,-30.9146,0.263,187,-1,1,-0.003093,0.073718,-0.261472,0.097534,0.283442,0.015756,0.0964,-1.035,1.0084
29892,11.0,0.001371,0.004749,-0.262509,0.002009,0.020857,0.004425,-1.5541,-0.527,-1.9872,-0.00069607,0.00076538,0.00547171,0.02568746,-0.01268581,-0.01864296,-0.0974,0.2317,-9.9537,-0.009884,0.106794,0.000107,34.133,6.1973,35.2029,-31.0044,0.263,187,-1,1,-0.008166,0.078794,-0.262386,0.031549,0.310273,0.000659,0.2041,-0.9643,1.1376
29903,11.0,0.001169,0.005307,-0.262447,-0.000918,0.025047,0.006888,-1.5194,-0.4659,-1.9536,-0.0008459,0.00070189,0.0054656,0.02654466,-0.01283514,-0.01865014,-0.1103,0.2881,-9.599,0.018439,0.088008,0.023486,34.133,6.1973,35.2029,-31.0044,0.263,191,0,1,-0.013777,0.089198,-0.262399,-0.030661,0.359809,-0.000205,0.3833,-0.8073,1.3325
29914,11.0,0.001112,0.005397,-0.26211,-0.002224,0.023024,0.012982,-1.5172,-0.4517,-1.9487,-0.00076346,0.0007004,0.0054677,0.02684556,-0.0126144,-0.01998263,-0.1297,0.2445,-9.5286,0.021584,0.024643,0.033015,34.133,6.1973,35.2029,-31.0044,0.262,191,0,0,-0.01412,0.094545,-0.262397,-0.03157,0.382509,0.002191,0.4595,-0.75,1.4124
29925,11.0,0.001231,0.005413,-0.261955,-0.002266,0.01997,0.015262,-1.5356,-0.4839,-1.9533,-0.0006567,0.00074881,0.00547191,0.02626701,-0.01246377,-0.01997631,-0.204,0.2019,-9.619,-0.004927,-0.044173,0.022524,34.133,6.1973,35.2029,-31.0044,0.262,188,0,0,-0.014215,0.095384,-0.262029,-0.026981,0.313726,0.010867,0.2368,-0.781,1.2045
29936,11.0,0.001388,0.005894,-0.261791,0.00287,0.023832,0.015908,-1.381,-0.8605,-1.9471,-0.00185765,0.00363215,0.00581007,0.04507415,-0.00423651,-0.01968431,-0.118,0.1911,-9.7558,-0.001228,-0.067674,0.027858,34.133,6.1973,35.2029,-31.0044,0.262,193,0,1,-0.014115,0.095703,-0.261917,-0.02366,0.283386,0.013028,0.1277,-0.8293,1.1096
29947,11.0,0.001611,0.006363,-0.26177,0.003511,0.024342,0.012336,-1.3756,-0.9074,-1.9211,-0.00196356,0.00366019,0.00580758,0.04391235,-0.00440105,-0.01889587,-0.2325,0.0527,-9.9992,-0.016561,-0.073177,0.02112,33.4497,6.2121,36.4988,-31.0044,0.262,189,0,1,-0.014063,0.100919,-0.26178,-0.021027,0.311866,0.014165,0.2145,-0.8585,1.212
29958,11.0,0.002221,0.00633,-0.261661,0.010084,0.01947,0.008453,-1.411,-0.947,-1.9457,-0.00181225,0.00380055,0.00581729,0.04128038,-0.00457577,-0.01885247,-0.0723,0.1038,-10.1762,-0.021584,-0.047138,0.004354,33.4497,6.2121,36.4988,-31.0044,0.262,185,1,0,-0.008933,0.106582,-0.26174,0.038921,0.303168,0.009043,0.13,-0.9724,1.1583
29969,11.0,0.00231,0.006313,-0.261594,0.010423,0.015204,0.003695,-1.4359,-0.9696,-1.9692,-0.00171065,0.00380756,0.00582063,0.04154914,-0.00436352,-0.01885132,-0.0699,0.0897,-10.2619,-0.019827,-0.028156,-0.009978,33.4497,6.2121,36.4988,-30.9516,0.262,182,0,0,-0.008769,0.106848,-0.261666,0.037253,0.27229,0.005824,0.0131,-1.0188,1.0549
29980,11.0,0.002283,0.00578,-0.261213,0.009833,0.006175,0.002736,-1.4996,-0.973,-2.032,-0.00138809,0.00381374,0.00583059,0.04271961,-0.00364891,-0.02081519,-0.0455,0.1513,-10.3081,-0.035232,0.009521,-0.024244,33.4497,6.2121,36.4988,-30.9516,0.261,178,0,-1,-0.008633,0.107081,-0.261662,0.035493,0.244267,0.00156,-0.0943,-1.0577,0.9561
29991,11.0,0.0026,0.005711,-0.261204,0.013687,0.005254,-0.001046,-1.5255,-0.9367,-2.0551,-0.00131554,0.00386953,0.00583474,0.04183111,-0.00369493,-0.02080853,0.0225,0.3304,-10.1706,-0.026058,0.067006,-0.011838,33.4497,6.2121,36.4988,-30.9516,0.261,175,1,0,-0.008521,0.10245,-0.261259,0.029047,0.146229,-0.00242,-0.4452,-0.8511,0.447
30002,11.0,0.002384,0.0057,-0.261253,0.011288,0.004533,-0.003317,-1.5331,-0.879,-2.0553,-0.00129317,0.00378058,0.00583223,0.04372796,-0.00334522,-0.0206754,0.0269,0.2704,-10.0054,-0.011324,0.09152,0.00919,33.4497,6.2121,36.4988,-30.9516,0.261,176,0,0,-0.003729,0.102569,-0.2613,0.080082,0.131904,-0.005562,-0.549,-0.8444,0.3447
30014,12.0,0.002683,0.005729,-0.261064,0.014629,0.00491,-0.000456,-1.5284,-0.8379,-2.0576,-0.00127155,0.00382009,0.00583439,0.04297901,-0.00345936,-0.0218564,0.0321,0.325,-9.8082,0.011053,0.065722,0.00993,33.4497,6.2121,36.4988,-30.9516,0.261,175,1,0,-0.00398,0.102764,-0.261172,0.063626,0.107024,-0.005175,-0.6454,-0.7569,0.2614
30025,11.0,0.002621,0.005771,-0.261084,0.013753,0.006173,0.000302,-1.5179,-0.8182,-2.0509,-0.00126828,0.00376082,0.0058323,0.04412617,-0.0032567,-0.02175299,0.0424,0.3946,-9.7341,0.014404,0.031891,0.015571,33.4497,6.2121,36.4988,-30.9516,0.261,177,0,0,0.000844,0.10291,-0.261222,0.111144,0.097129,-0.004727,-0.7125,-0.7463,0.1889
30036,11.0,0.002626,0.006192,-0.26108,0.014296,0.011797,0.000538,-1.5092,-0.8093,-2.0278,-0.00143709,0.00369812,0.00582519,0.04467492,-0.00344058,-0.02176253,0.1053,0.4193,-9.8043,-0.022679,0.009684,0.007183,33.4497,6.2121,36.4988,-30.9516,0.261,174,0,1,0.000917,0.108004,-0.261321,0.091796,0.137379,-0.00261,-0.5597,-0.6866,0.3493
30047,11.0,0.002605,0.006121,-0.260426,0.006436,0.007782,0.007192,-1.7482,-0.166,-2.2936,-1.469e-05,-0.00590631,0.00675908,0.02222823,-0.01666117,-0.02545902,0.1047,0.2858,-9.9076,-0.043749,0.022193,0.009551,33.454,6.1973,37.4388,-31.0044,0.26,169,0,0,0.000995,0.108068,-0.261346,0.084872,0.124517,-0.002224,-0.6256,-0.6908,0.3018
30058,11.0,0.002448,0.005988,-0.260356,0.005295,0.004122,0.005645,-1.7939,-0.129,-2.3146,6.329e-05,-0.00595563,0.00676075,0.02348303,-0.01605698,-0.02545625,0.1226,0.1705,-9.9753,-0.060116,0.053419,-0.012915,33.454,6.1973,37.4388,-31.0044,0.26,176,0,0,0.00104,0.108088,-0.260462,0.078182,0.111503,0.007109,-0.6974,-0.6879,0.2579
30069,11.0,0.002198,0.006395,-0.260299,0.002837,0.00885,0.005987,-1.7881,-0.057,-2.3037,-0.00012145,-0.00605599,0.00674757,0.0247872,-0.01604662,-0.02542913,0.0833,0.3526,-9.7896,-0.031138,0.098677,-0.01298,33.454,6.1973,37.4388,-31.0044,0.26,169,0,1,0.000902,0.112906,-0.260343,0.063969,0.142296,0.005692,-0.6368,-0.597,0.3668
30080,11.0,0.001843,0.006429,-0.260573,-0.000997,0.011476,0.005663,-1.7832,0.033,-2.2971,-9.442e-05,-0.00615058,0.00674472,0.02677779,-0.01566738,-0.02359629,0.031,0.5989,-9.4665,0.009749,0.133166,0.022799,33.454,6.1973,37.4388,-31.0044,0.261,175,0,0,0.000736,0.112983,-0.260281,0.053656,0.129284,0.007122,-0.6769,-0.2835,0.2096
30091,11.0,0.001575,0.006497,-0.260482,-0.003603,0.014539,0.011926,-1.7708,0.1007,-2.2745,-6.367e-05,-0.00621233,0.00674337,0.02809476,-0.01536425,-0.02356894,0.0309,0.6303,-9.2424,0.023468,0.09826,0.049156,33.454,6.1973,37.4388,-31.0044,0.261,175,0,0,0.000483,0.11311,-0.26067,0.045719,0.11956,0.00573,-0.72,-0.2145,0.1708
30102,11.0,0.001666,0.0065,-0.260325,-0.003581,0.015661,0.016556,-1.7824,0.0767,-2.2574,2.631e-05,-0.00616478,0.00674979,0.02752622,-0.01535001,-0.02356455,-0.1013,0.5507,-9.3997,0.000525,-0.040862,0.051719,33.454,6.1973,37.4388,-30.9727,0.261,171,0,0,0.005124,0.113418,-0.260447,0.087966,0.103885,0.017289,-0.8191,-0.1584,0.0962
30113,11.0,0.002061,0.006357,-0.259461,0.001199,0.013995,0.023887,-1.8406,-0.0301,-2.2577,0.00019973,-0.00602524,0.00676443,0.02557262,-0.01539132,-0.02699338,0.0423,0.4776,-9.8838,-0.054306,-0.165146,0.038917,33.454,6.1973,37.4388,-30.9727,0.259,178,0,0,0.005341,0.113496,-0.259566,0.080172,0.095825,0.02926,-0.8593,-0.1936,0.0848
30124,11.0,0.002451,0.006174,-0.259234,0.005605,0.011267,0.017421,-1.9106,-0.1348,-2.2563,0.00038453,-0.00589951,0.00677896,0.02397185,-0.01549957,-0.0269871,0.0477,0.4276,-10.4155,-0.071178,-0.162154,0.042952,33.454,6.1973,37.4388,-30.9727,0.259,172,0,0,0.006251,0.113392,-0.258982,0.074294,0.077906,0.027286,-1.0068,-0.3911,0.0458
30135,11.0,0.00205,0.006006,-0.259118,0.000933,0.008286,0.007,-1.9733,-0.1524,-2.2507,0.00051958,-0.00601397,0.00677986,0.02642083,-0.014857,-0.02688069,0.0225,0.3696,-10.7558,-0.077069,-0.035714,0.034625,34.1309,5.4871,36.0745,-30.9727,0.259,174,-1,0,0.006654,0.113284,-0.258767,0.07155,0.068937,0.02019,-1.0887,-0.4781,0.0275
30147,12.0,0.001759,0.005885,-0.259504,-0.001241,0.005873,-0.007535,-2.0248,-0.0759,-2.231,0.00062659,-0.00609114,0.0067813,0.02808538,-0.01452036,-0.02485045,0.0906,0.3588,-10.6426,-0.057556,0.10339,0.05447,34.1309,5.4871,36.0745,-30.9727,0.26,174,0,0,0.001955,0.113157,-0.258608,0.013059,0.060634,0.011512,-1.1248,-0.4859,0.0578
30159,12.0,0.001147,0.006305,-0.259624,-0.00496,0.008413,-0.010068,-2.0913,-0.1114,-2.0479,0.0020499,-0.00191176,0.00430451,0.03381733,-0.01528512,-0.02482031,-0.0053,0.3185,-10.0253,-0.020038,0.237015,0.064146,34.1309,5.4871,36.0745,-30.9727,0.26,168,0,1,0.001408,0.117893,-0.259527,0.006054,0.102326,-0.011803,-1.0163,-0.3146,0.2802
30170,11.0,0.000516,0.006378,-0.259716,-0.011597,0.008353,-0.00675,-2.0762,0.0478,-2.0032,0.00203935,-0.00205934,0.0042951,0.03660603,-0.01470074,-0.02481491,-0.0313,0.3397,-9.5266,0.01874,0.242003,0.075869,34.1309,5.4871,36.0745,-30.9727,0.259,165,0,0,0.000881,0.117935,-0.259656,-0.000126,0.091483,-0.013863,-1.0723,-0.1889,0.269
30181,11.0,0.000163,0.006599,-0.259257,-0.015034,0.008014,0.006086,-2.0179,0.1394,-1.9372,0.00196107,-0.00212612,0.00428347,0.0375536,-0.0144674,-0.02720347,-0.0477,0.1387,-9.1892,0.076635,0.134622,0.096321,34.1309,5.4871,36.0745,-30.9727,0.259,175,0,0,0.009553,0.123151,-0.259374,0.09613,0.130445,-0.001449,-0.9589,-0.0915,0.4306
30193,12.0,0.000671,0.007596,-0.259142,-0.007823,0.01675,0.013018,-1.9408,0.1301,-1.852,0.00153851,-0.00199765,0.0042479,0.03365153,-0.01579696,-0.02723841,0.0604,0.1963,-9.2579,0.044453,-0.025167,0.061855,34.1309,5.4871,36.0745,-30.9727,0.259,177,1,2,0.009385,0.123453,-0.259374,0.083682,0.117949,0.005039,-0.9538,-0.029,0.4431
30204,11.0,0.00135,0.007627,-0.258997,0.000591,0.014452,0.01682,-1.9489,0.0741,-1.833,0.00163523,-0.0017806,0.00426924,0.03008424,-0.01638732,-0.02714562,0.0815,0.255,-9.4657,0.013967,-0.080622,0.057381,34.1309,5.4871,36.0745,-30.9727,0.259,180,1,0,0.019419,0.133845,-0.259147,0.17094,0.197352,0.016651,-0.6538,-0.0433,0.7622
30215,11.0,0.001502,0.007555,-0.259936,0.003044,0.011181,0.004603,-1.9841,0.0336,-1.8103,0.00174824,-0.00173081,0.00428335,0.02956756,-0.01650215,-0.02177421,0.1305,0.2511,-9.7578,-0.031408,-0.062477,0.06039,34.1309,5.4871,36.0745,-30.9727,0.261,187,0,0,0.024687,0.134124,-0.260257,0.211321,0.178346,0.006002,-0.7607,-0.1165,0.6794
30226,11.0,0.001585,0.00746,-0.259902,0.003728,0.007381,0.004124,-2.0238,0.0115,-1.7857,0.00185317,-0.00170428,0.00429529,0.02946593,-0.01639281,-0.02169563,0.052,0.1919,-9.8577,-0.040876,-0.034386,0.061509,34.1309,5.4871,36.0745,-30.9727,0.261,187,0,0,0.025048,0.134233,-0.260191,0.193929,0.159779,0.007238,-0.8403,-0.1596,0.649
30237,11.0,0.002126,0.007862,-0.259864,0.008595,0.008516,0.002688,-2.0112,0.0052,-1.7243,0.0016136,-0.00159385,0.00427542,0.02661251,-0.01584623,-0.0216766,0.001,0.0858,-9.9646,-0.029123,-0.017933,0.053119,34.1309,5.4871,36.0745,-30.9727,0.259,184,1,1,0.030443,0.139318,-0.260068,0.214065,0.182052,0.006681,-0.8064,-0.19,0.7949
30248,11.0,0.002178,0.008335,-0.259304,0.007369,0.010706,0.00761,-1.9931,0.0048,-1.6703,0.00141755,-0.00162809,0.00425413,0.0265404,-0.01601172,-0.02421972,-0.0376,0.1325,-9.9522,-0.006841,-0.01144,0.054689,33.7914,5.1283,37.4159,-30.9727,0.259,189,0,1,0.030633,0.144311,-0.259384,0.192957,0.217147,0.012436,-0.658,-0.1669,0.9918
30259,11.0,0.002263,0.008419,-0.259233,0.006818,0.008513,0.005362,-1.9721,-0.0113,-1.6387,0.00139633,-0.00162843,0.00425141,0.02642808,-0.01553803,-0.02420476,-0.0241,0.149,-10.0388,0.027088,-0.029832,0.045913,33.7914,5.1283,37.4159,-30.9727,0.259,185,0,0,0.030775,0.149383,-0.25928,0.173314,0.249678,0.01136,-0.5138,-0.1446,1.1741
30270,11.0,0.002325,0.008487,-0.259237,0.0024,0.003646,0.000845,-2.1054,0.2126,-1.5238,0.00477651,-0.007118,0.00144821,0.02787924,-0.01492899,-0.02399037,-0.0273,0.0909,-10.2059,0.023801,-0.026502,0.032603,33.7914,5.1283,37.4159,-30.9146,0.259,191,0,0,0.036125,0.150094,-0.259137,0.19607,0.202304,0.007158,-0.69,-0.2202,1.0114
30281,11.0,0.002319,0.008497,-0.259565,0.000995,0.001111,-0.007804,-2.1069,0.2161,-1.5205,0.00478244,-0.00712392,0.00144887,0.0280113,-0.0149371,-0.02254547,-0.0306,0.1455,-10.2938,0.003279,-0.001821,0.007742,33.7914,5.1283,37.4159,-30.9146,0.26,186,0,0,0.036397,0.150348,-0.259617,0.176256,0.18102,-0.002159,-0.7685,-0.0873,1.0105
30292,11.0,0.002072,0.008457,-0.2597,-0.003116,-0.001414,-0.011494,-2.1215,0.2793,-1.5231,0.00479535,-0.00718764,0.00144725,0.02921543,-0.01470751,-0.02238777,-0.0613,0.1642,-10.1344,-0.01773,0.09104,0.001096,33.7914,5.1283,37.4159,-30.9146,0.26,186,0,0,0.036679,0.150709,-0.259784,0.142911,0.14455,-0.010696,-0.8878,-0.0868,0.8912
30303,11.0,0.0017,0.008341,-0.259829,-0.008118,-0.003845,-0.011816,-2.1537,0.3718,-1.5343,0.00481769,-0.00726996,0.00144572,0.03078663,-0.01418709,-0.02237058,-0.056,0.2137,-9.8606,-0.04595,0.137211,-0.011346,33.7914,5.1283,37.4159,-30.9146,0.26,184,0,0,0.036601,0.150801,-0.259902,0.126285,0.128513,-0.01301,-0.9538,-0.0372,0.8335
30314,11.0,0.001805,0.008226,-0.259344,-0.008263,-0.006586,-0.001586,-2.1885,0.4601,-1.5514,0.00485702,-0.00721016,0.00145603,0.02986888,-0.0142567,-0.0251207,-0.1167,0.153,-9.5357,-0.040998,0.137197,-0.011127,33.7914,5.1283,37.4159,-30.9146,0.259,172,1,0,0.036424,0.150822,-0.259418,0.110271,0.113679,-0.006409,-1.0303,0.033,0.7724
30326,12.0,0.001545,0.008206,-0.259325,-0.012225,-0.0076,0.004718,-2.1887,0.5287,-1.5566,0.0048192,-0.00725423,0.00144702,0.03050741,-0.01419821,-0.02511927,-0.0916,0.1843,-9.3101,-0.002752,0.090324,-0.009588,33.7914,5.1283,37.4159,-30.9146,0.259,171,0,0,0.040963,0.150931,-0.259484,0.129754,0.088055,0.000635,-1.1875,0.1575,0.6339
30337,11.0,0.001543,0.008211,-0.259282,-0.012291,-0.006535,0.010384,-2.1814,0.5275,-1.559,0.00478012,-0.00721938,0.00144255,0.0297921,-0.01438762,-0.02493111,-0.0261,0.344,-9.2683,0.010208,-0.008508,-0.007941,33.7893,6.2121,36.4988,-30.9146,0.259,167,0,0,0.04091,0.151011,-0.259502,0.114037,0.078096,0.005688,-1.2171,0.2022,0.5972
30348,11.0,0.001637,0.008157,-0.259503,-0.011268,-0.005265,0.011416,-2.1918,0.5012,-1.5572,0.00477798,-0.00715262,0.00144634,0.02867046,-0.01461161,-0.02328935,-0.023,0.4422,-9.3466,-0.010499,-0.046138,0.004428,33.7893,6.2121,36.4988,-30.9146,0.26,167,0,0,0.041,0.15111,-0.259415,0.101799,0.070443,0.011648,-1.2358,0.2075,0.5651
30360,12.0,0.001789,0.008033,-0.259389,-0.008509,-0.004918,0.01255,-2.2256,0.4519,-1.5522,0.00481832,-0.00706582,0.00145873,0.02737169,-0.0147949,-0.0231462,0.0838,0.4482,-9.6956,-0.035524,-0.074694,0.014783,33.7893,6.2121,36.4988,-30.9146,0.26,169,0,0,0.041429,0.151155,-0.259585,0.084479,0.058333,0.016442,-1.3053,0.1465,0.5145
30371,11.0,0.001994,0.00786,-0.25926,-0.005209,-0.005495,0.010967,-2.2742,0.395,-1.5478,0.00488833,-0.00697231,0.00147674,0.02607608,-0.01496377,-0.02315327,0.1139,0.4468,-9.9662,-0.05689,-0.091681,0.019791,33.7893,6.2121,36.4988,-30.9146,0.259,169,0,0,0.041685,0.151117,-0.259411,0.078468,0.052631,0.01835,-1.3528,0.1017,0.4948
30383,12.0,0.002006,0.007725,-0.258974,-0.003041,-0.003215,0.008472,-2.0195,0.3063,-1.6688,-0.0006157,-0.004747,0.00727568,0.02248478,-0.01213778,-0.02388761,0.0818,0.2886,-10.2101,-0.049844,-0.012381,0.010992,33.7893,6.2121,36.4988,-30.9146,0.259,164,0,0,0.042194,0.150939,-0.2589,0.06889,0.040226,0.016972,-1.4694,0.0077,0.454
30394,11.0,0.001837,0.007568,-0.258897,-0.003124,-0.001888,0.005491,-2.0618,0.3439,-1.6596,-0.0005539,-0.00477598,0.00728985,0.02322973,-0.01196148,-0.02387652,0.1975,0.6049,-10.0887,-0.056801,0.054677,0.034284,33.7893,6.2121,36.4988,-30.9146,0.259,166,0,0,0.042304,0.150842,-0.258786,0.063616,0.035505,0.013199,-1.3792,-0.0412,0.2929
30405,11.0,0.001634,0.007939,-0.258893,-0.004485,0.003742,0.002368,-2.0653,0.3996,-1.6479,-0.00073822,-0.0048377,0.007235,0.02375775,-0.01209344,-0.02369664,0.1251,0.4739,-10.0613,-0.042612,0.075726,-0.0061,33.7893,6.2121,36.4988,-30.9146,0.26,161,0,1,0.042139,0.155524,-0.259369,0.051185,0.08432,-0.000434,-1.2328,0.0621,0.5191
30416,11.0,0.001391,0.008229,-0.259385,-0.005713,0.008448,-0.002759,-2.0978,0.4623,-1.6361,-0.00085395,-0.0048987,0.00719859,0.02448557,-0.01220307,-0.0214029,0.1669,0.5286,-9.7363,-0.07558,0.088421,0.007284,33.7893,6.2121,36.4988,-30.9516,0.26,164,0,1,0.041982,0.160333,-0.259397,0.044696,0.131006,-0.001243,-1.0673,0.1394,0.7274
30427,11.0,0.001189,0.008663,-0.259429,-0.007234,0.013492,-0.001595,-2.0913,0.5182,-1.5991,-0.00101441,-0.00495039,0.00715092,0.02489411,-0.01232033,-0.02131628,0.0975,0.4636,-9.6918,-0.022325,0.075458,0.03916,33.7893,6.2121,36.4988,-30.9516,0.26,158,0,1,0.041766,0.165161,-0.259405,0.038255,0.173419,-0.000206,-0.9305,0.2209,0.914
30438,11.0,0.001131,0.009253,-0.259439,-0.00752,0.016178,-0.000222,-2.0365,0.5422,-1.5366,-0.00126771,-0.00496971,0.00708011,0.02436786,-0.01204,-0.02131882,0.0743,0.1193,-9.7083,0.032354,0.021819,0.057597,33.7914,4.7695,36.5217,-30.9516,0.259,159,0,1,0.04134,0.175214,-0.259156,0.026134,0.24744,0.005795,-0.6291,0.3573,1.2873
30449,11.0,0.001175,0.009791,-0.259123,-0.006851,0.017056,0.002785,-2.0094,0.5367,-1.5118,-0.00144125,-0.00495309,0.00703502,0.02355199,-0.01235489,-0.0227435,0.0639,0.0384,-9.9023,0.009944,-0.018455,0.01694,33.7914,4.7695,36.5217,-30.9516,0.259,161,0,1,0.041211,0.180412,-0.259091,0.021495,0.277612,0.007219,-0.4697,0.3922,1.4619
30460,11.0,0.001178,0.00986,-0.259102,-0.005927,0.013753,0.001169,-2.0012,0.5331,-1.5226,-0.00141214,-0.00493164,0.00704395,0.02319929,-0.01198078,-0.02273168,0.1305,0.1406,-9.9798,0.014653,-0.008794,-0.007849,33.7914,4.7695,36.5217,-30.9516,0.259,169,0,0,0.041192,0.185964,-0.258979,0.017051,0.272668,0.006299,-0.4568,0.375,1.4711
30471,11.0,0.001045,0.00984,-0.25913,-0.006269,0.010394,-0.001637,-2.0211,0.5616,-1.5504,-0.00133687,-0.00494334,0.00706319,0.02361628,-0.01182013,-0.02259979,0.1557,0.1975,-10.0561,-0.019095,0.043002,-0.023166,33.7914,4.7695,36.5217,-30.9516,0.26,168,0,0,0.041205,0.186272,-0.258968,0.016078,0.244791,0.004256,-0.5713,0.3558,1.3388
30482,11.0,0.000811,0.009777,-0.259517,-0.007976,0.007039,-0.007043,-2.0486,0.6157,-1.5863,-0.00127332,-0.00498298,0.00707677,0.02441013,-0.01145468,-0.02101376,0.128,0.2,-9.9382,-0.035314,0.082087,-0.039075,33.7914,4.7695,36.5217,-30.9516,0.26,165,0,0,0.041122,0.18649,-0.259609,0.015024,0.218523,-0.004745,-0.7569,0.2987,1.251
30493,11.0,0.001014,0.00965,-0.259597,-0.001756,0.001949,-0.005515,-2.3408,0.5024,-1.5347,0.00264785,-0.00092702,0.00199182,0.02094762,-0.01673178,-0.02112095,0.1673,0.3988,-9.6712,-0.050947,0.101322,-0.032047,33.7914,4.7695,36.5217,-30.9833,0.26,172,1,0,0.040744,0.186723,-0.259737,0.009511,0.174004,-0.005727,-0.9939,0.3654,1.0038
30504,11.0,0.000815,0.009984,-0.259639,-0.003342,0.006765,-0.002039,-2.3587,0.5564,-1.5328,0.00250914,-0.00098241,0.0019338,0.02155482,-0.01683757,-0.0211257,0.133,0.5027,-9.5011,-0.053292,0.078638,-0.018233,33.7914,4.7695,36.5217,-30.9833,0.259,176,0,1,0.045421,0.18686,-0.259784,0.060388,0.156472,-0.003667,-1.1488,0.3889,0.8495
30515,11.0,0.001264,0.010279,-0.259173,0.002329,0.010173,0.006039,-2.3937,0.5622,-1.5336,0.00243004,-0.00087999,0.00191501,0.01934194,-0.01730336,-0.02318346,0.1646,0.4764,-9.5858,-0.064725,0.01112,-0.009171,33.7914,4.7695,36.5217,-30.9833,0.259,175,1,1,0.045231,0.19175,-0.259296,0.05185,0.196374,0.005123,-1.0049,0.4653,1.0158
30526,11.0,0.001428,0.010579,-0.259105,0.003459,0.01213,0.006219,-2.4296,0.5254,-1.5307,0.00234908,-0.00085527,0.0018872,0.01861133,-0.01753446,-0.0231994,0.0846,0.3795,-9.8087,-0.069172,-0.060144,-0.009486,33.7914,4.7695,36.5217,-30.9833,0.259,172,0,1,0.050098,0.201686,-0.25914,0.088957,0.264293,0.009942,-0.8299,0.4965,1.2562
30537,11.0,0.001568,0.010551,-0.259066,0.003997,0.010053,0.003603,-2.449,0.4899,-1.5323,0.00242411,-0.00082283,0.00191886,0.01825241,-0.01750847,-0.02312959,0.0572,0.3793,-10.0463,-0.013433,-0.053635,0.011433,33.7935,5.1209,36.5445,-30.9833,0.259,182,0,0,0.050231,0.206674,-0.259059,0.080362,0.29244,0.009994,-0.7414,0.4832,1.3808
30548,11.0,0.001655,0.011058,-0.259431,0.004808,0.013426,-0.004181,-2.4232,0.4769,-1.4994,0.002243,-0.00083027,0.00185013,0.01780721,-0.01787581,-0.02152258,0.145,0.3171,-10.1254,0.009034,-0.028276,0.021112,33.7935,5.1209,36.5445,-30.9833,0.26,180,0,1,0.050456,0.206918,-0.258966,0.074004,0.263334,0.008649,-0.8855,0.4278,1.2506
30559,11.0,0.001167,0.0112,-0.259508,-0.000237,0.012436,-0.007817,-2.3915,0.4861,-1.4749,0.00222625,-0.00096468,0.0018294,0.02015653,-0.01744064,-0.02144146,0.1722,0.3183,-10.1431,0.045063,0.004875,0.033351,33.7935,5.1209,36.5445,-30.9833,0.26,174,-1,0,0.045712,0.212335,-0.259626,0.007731,0.26393,-0.00389,-0.8112,0.4214,1.3294
30570,11.0,0.001074,0.011332,-0.259612,-0.000868,0.010841,-0.010946,-2.3638,0.5109,-1.4543,0.00222149,-0.00098808,0.00182512,0.02055348,-0.01736918,-0.0214366,0.142,0.2548,-10.1127,0.044469,0.035831,0.034344,33.7935,5.1209,36.5445,-31.0996,0.26,181,0,0,0.045711,0.21271,-0.259679,0.007645,0.238816,-0.006737,-0.9016,0.403,1.2257
30581,11.0,0.000913,0.011444,-0.259742,-0.00212,0.009303,-0.013043,-2.3403,0.5525,-1.4363,0.00221612,-0.00102703,0.001819,0.02121192,-0.01724847,-0.02143441,0.1482,0.2536,-10.0202,0.037029,0.061628,0.030682,33.7935,5.1209,36.5445,-31.0996,0.26,189,0,0,0.04566,0.21306,-0.259852,0.006798,0.215749,-0.010367,-0.9805,0.399,1.1355
30592,11.0,0.000699,0.011487,-0.259886,-0.003912,0.007407,-0.013108,-2.3349,0.6061,-1.434,0.00222714,-0.00107548,0.00181782,0.02204533,-0.01694868,-0.02141769,0.142,0.2616,-9.8335,0.010485,0.081328,0.008085,33.7935,5.1209,36.5445,-31.0996,0.26,185,0,0,0.045363,0.213627,-0.260068,0.004562,0.174577,-0.013085,-1.1277,0.3684,0.9555
30603,11.0,0.00092,0.010984,-0.259986,0.001394,0.000117,-0.00972,-2.4191,0.5035,-1.4587,0.0027591,0.00251786,0.00101697,0.01747176,-0.01968261,-0.02159625,0.1051,0.3439,-9.5469,-0.011977,0.095642,0.005179,33.7935,5.1209,36.5445,-31.0996,0.26,182,1,-1,0.049944,0.209164,-0.26032,0.055042,0.08482,-0.010857,-1.5755,0.3753,0.484
30615,12.0,0.001251,0.010457,-0.259896,0.00484,-0.006845,-0.002557,-2.4718,0.5221,-1.4917,0.00299424,0.00260519,0.00114083,0.01648163,-0.01953114,-0.02230254,0.1086,0.2801,-9.3993,-0.030295,0.040733,-0.003355,33.7935,5.1209,36.5445,-31.0996,0.26,178,1,-1,0.054735,0.204363,-0.260036,0.102071,0.019664,-0.003258,-1.9207,0.3535,0.1305
30626,11.0,0.001346,0.010333,-0.259906,0.005604,-0.008191,0.00099,-2.5034,0.4979,-1.5013,0.00301449,0.00261546,0.00115183,0.01634135,-0.0195296,-0.02229707,0.1355,0.3127,-9.5023,-0.04288,-0.03398,-0.011702,33.7935,5.1209,36.5445,-31.0203,0.26,178,0,0,0.059647,0.199432,-0.260047,0.145397,-0.040429,0.001285,-2.2426,0.3106,-0.1931
30637,11.0,0.001541,0.010292,-0.25989,0.006564,-0.008227,0.001933,-2.5081,0.4517,-1.4993,0.00299305,0.00264225,0.00114475,0.01573237,-0.01961841,-0.02230589,0.0591,0.3477,-9.7398,-0.008208,-0.070062,-0.002166,32.7728,4.7695,37.4159,-31.0203,0.26,182,0,0,0.060101,0.199157,-0.259951,0.121104,-0.037254,0.007817,-2.2431,0.2803,-0.1661
30648,11.0,0.001687,0.010286,-0.259803,0.007538,-0.008093,0.002023,-2.5035,0.4177,-1.4971,0.00295743,0.00265435,0.0011292,0.01538001,-0.01972163,-0.02259395,0.1146,0.3369,-9.8902,0.004018,-0.051573,-0.003652,32.7728,4.7695,37.4159,-31.0203,0.26,183,0,0,0.06039,0.19909,-0.259827,0.111036,-0.034892,0.009281,-2.2263,0.2459,-0.1467
30659,11.0,0.001768,0.010282,-0.259789,0.008292,-0.007088,0.000568,-2.4969,0.3998,-1.4979,0.00291995,0.00264873,0.00111056,0.01535597,-0.01976505,-0.02259815,0.1635,0.4222,-9.9542,0.006052,-0.026795,-0.008406,32.7728,4.7695,37.4159,-31.0203,0.26,176,0,0,0.060634,0.199053,-0.259737,0.101999,-0.032606,0.009056,-2.2033,0.2195,-0.1288
30670,11.0,0.001772,0.010223,-0.259792,0.008582,-0.005975,-0.000783,-2.507,0.4,-1.5027,0.00291106,0.00262729,0.00110355,0.01573694,-0.01970305,-0.02258713,0.1998,0.5028,-9.9392,-0.015391,0.001942,-0.008886,32.7728,4.7695,37.4159,-31.0203,0.26,176,0,0,0.060948,0.198972,-0.259577,0.086086,-0.027152,0.007033,-2.1641,0.2001,-0.1034
30681,11.0,0.001765,0.010174,-0.259771,0.00919,-0.004287,-0.000994,-2.5146,0.4032,-1.4931,0.00290538,0.00260155,0.00109756,0.01619486,-0.01963876,-0.02271465,0.2431,0.5606,-9.8693,-0.010839,0.005511,0.014698,32.7728,4.7695,37.4159,-31.0203,0.26,176,0,0,0.061047,0.198887,-0.259692,0.077118,-0.024705,0.00418,-2.1691,0.3693,-0.0482
30692,11.0,0.001757,0.010147,-0.259785,0.009511,-0.002626,-0.001496,-2.5169,0.4077,-1.4797,0.00289647,0.00257438,0.00108967,0.01667132,-0.01955333,-0.02270386,0.2251,0.555,-9.8601,-0.003359,0.006957,0.019965,32.7728,4.7695,37.4159,-31.0203,0.26,176,0,0,0.061113,0.198814,-0.259652,0.07093,-0.021881,0.00381,-2.1643,0.3749,-0.0331
30703,11.0,0.00173,0.010113,-0.259801,0.009256,-0.001298,-0.001404,-2.5226,0.4174,-1.4588,0.00289871,0.00254293,0.00108658,0.01724686,-0.01945809,-0.02269658,0.1929,0.5459,-9.8079,-0.006734,0.014764,0.034315,32.7728,4.7695,37.4159,-31.0203,0.26,180,0,0,0.061215,0.1987,-0.259579,0.05971,-0.0165,0.003911,-2.1521,0.3892,0.0082
