timestamp_ms,dt_ms,pos_x,pos_y,pos_z,vel_x,vel_y,vel_z,roll_deg,pitch_deg,yaw_deg,gyro_bias_x,gyro_bias_y,gyro_bias_z,accel_bias_x,accel_bias_y,accel_bias_z,raw_accel_x,raw_accel_y,raw_accel_z,raw_gyro_x,raw_gyro_y,raw_gyro_z,raw_baro_alt,raw_tof,raw_flow_squal,raw_flow_dx,raw_flow_dy,dev_pos_x,dev_pos_y,dev_pos_z,dev_vel_x,dev_vel_y,dev_vel_z,dev_roll_deg,dev_pitch_deg,dev_yaw_deg
11499,10.0,0.000011,0.000002,-0.037059,0.000176,0.000969,0.000630,-0.0023,-0.0014,-0.0010,0.00000000,0.00000000,-0.00190810,-0.00107619,0.00115980,0.00000000,-0.1818,0.1462,-9.7377,-0.003905,-0.001695,-0.003643,28.8695,0.0370,136,0,0,0.000090,0.000203,-0.036951,-0.000940,0.002369,-0.001818,-0.9760,-0.9147,-0.1100
11510,11.0,0.000011,0.000019,-0.037048,0.000050,0.001297,0.001301,-0.4709,-0.4824,0.0015,0.00000171,0.00000176,-0.00190810,-0.00107717,0.00116033,0.00000000,-0.1679,0.1636,-9.7438,-0.002645,-0.001243,-0.001172,28.8695,0.0360,132,0,0,0.000104,0.000218,-0.036375,-0.000840,0.002276,0.007282,-0.9651,-0.9287,-0.1095
11521,11.0,0.000023,0.000022,-0.038857,-0.000355,0.002088,-0.078414,-0.4730,-0.4866,0.0034,0.00000171,0.00000176,-0.00190810,-0.00107969,0.00116325,0.00004985,-0.1667,0.2075,-9.7448,-0.001551,-0.005178,0.001199,28.8695,0.0360,128,0,0,0.000111,0.000227,-0.036343,-0.000776,0.002217,0.008014,-0.9700,-0.9356,-0.1090
11532,11.0,0.000026,0.000041,-0.036048,-0.000255,0.002129,0.031710,-0.7615,-0.6374,0.0043,0.00000493,0.00000343,-0.00190810,-0.00108174,0.00116502,-0.00004242,-0.1611,0.2305,-9.7572,-0.002794,-0.002696,-0.003190,28.8695,0.0360,133,0,0,0.000119,0.000233,-0.036257,-0.000776,0.002542,0.009241,-0.9701,-0.9372,-0.1076
11543,11.0,0.000038,0.000048,-0.035807,-0.000612,0.002455,0.029355,-0.7652,-0.6398,0.0037,0.00000493,0.00000344,-0.00190810,-0.00108633,0.00117032,-0.00000378,-0.1736,0.1966,-9.7522,-0.004056,-0.002129,-0.002806,28.8695,0.0360,136,0,0,0.000135,0.000250,-0.036145,-0.000717,0.002683,0.010423,-0.9981,-0.9413,-0.1098
11554,11.0,0.000040,0.000063,-0.035481,-0.000522,0.002307,0.029898,-0.8560,-0.7499,0.0065,0.00000691,0.00000589,-0.00190810,-0.00108852,0.00117364,-0.00000372,-0.1851,0.1923,-9.7562,-0.003451,-0.001214,0.000046,28.7981,0.0360,137,0,0,0.000143,0.000259,-0.036005,-0.000660,0.002622,0.011822,-1.0058,-0.9446,-0.1105
11565,11.0,0.000051,0.000071,-0.035877,-0.000862,0.002266,0.017111,-0.8595,-0.7536,0.0080,0.00000692,0.00000590,-0.00190810,-0.00109277,0.00117680,0.00040854,-0.1859,0.1666,-9.7533,-0.002798,-0.003227,0.000442,28.7981,0.0360,138,0,0,0.000159,0.000276,-0.035776,-0.000719,0.002664,0.013754,-1.0112,-0.9536,-0.1078
11576,11.0,0.000056,0.000084,-0.035683,-0.000719,0.002150,0.018015,-0.9075,-0.8008,0.0081,0.00000869,0.00000759,-0.00190810,-0.00109730,0.00118031,0.00040856,-0.1681,0.1878,-9.7239,-0.000985,-0.002728,-0.002903,28.7981,0.0360,138,0,0,0.000168,0.000284,-0.035632,-0.000898,0.002497,0.014939,-1.0109,-0.9538,-0.1068
11587,11.0,0.000067,0.000092,-0.035537,-0.001024,0.002305,0.017815,-0.9095,-0.8032,0.0081,0.00000870,0.00000760,-0.00190810,-0.00110686,0.00118781,0.00049905,-0.1872,0.1877,-9.7468,-0.001354,-0.001858,-0.001904,28.7981,0.0360,137,0,0,0.000175,0.000293,-0.035813,-0.000849,0.002444,0.012669,-1.0145,-0.9588,-0.1077
11598,11.0,0.000072,0.000104,-0.035801,-0.000875,0.002178,0.011952,-0.9397,-0.8372,0.0112,0.00001029,0.00000930,-0.00190810,-0.00110344,0.00118186,0.00136527,-0.1691,0.1851,-9.7541,-0.001208,-0.004463,0.002132,28.7981,0.0360,135,0,0,0.000191,0.000310,-0.035568,-0.000930,0.002407,0.014538,-1.0207,-0.9588,-0.0280
11609,11.0,0.000081,0.000110,-0.035697,-0.000883,0.002523,0.012072,-0.9419,-0.8406,0.0092,0.00001032,0.00000932,-0.00190810,-0.00111408,0.00119273,0.00145276,-0.1617,0.2103,-9.7573,-0.001698,-0.003395,-0.005160,28.7981,0.0360,135,0,0,0.000199,0.000316,-0.035418,-0.000781,0.002719,0.015451,-1.0218,-0.9601,-0.0282
11620,11.0,0.000085,0.000123,-0.035559,-0.000812,0.002442,0.012877,-0.9886,-0.8877,0.0105,0.00001381,0.00001277,-0.00190810,-0.00111459,0.00119374,0.00145248,-0.1970,0.2150,-9.7308,-0.003685,-0.005512,-0.001160,28.7981,0.0360,135,0,0,0.000207,0.000325,-0.035703,-0.000723,0.002688,0.011532,-1.0326,-0.9617,-0.0296
11631,11.0,0.000095,0.000131,-0.035787,-0.001019,0.002525,0.008984,-0.9921,-0.8921,0.0115,0.00001384,0.00001280,-0.00190810,-0.00111091,0.00118715,0.00291446,-0.1880,0.1934,-9.7490,-0.002506,-0.004048,-0.000414,28.7612,0.0360,133,0,0,0.000222,0.000340,-0.035474,-0.000910,0.002866,0.013732,-1.0380,-0.9779,-0.0286
11641,10.0,0.000101,0.000139,-0.035694,-0.000890,0.002385,0.009463,-1.0010,-0.9177,0.0110,0.00001460,0.00001526,-0.00190810,-0.00111514,0.00119765,0.00291439,-0.1854,0.1797,-9.7556,-0.001954,-0.003095,-0.003533,28.7612,0.0360,132,0,0,0.000231,0.000347,-0.035352,-0.001022,0.002875,0.014602,-1.0390,-0.9783,-0.0283
11652,11.0,0.000109,0.000148,-0.035604,-0.000726,0.002339,0.009947,-1.0045,-0.9192,0.0100,0.00001464,0.00001530,-0.00190810,-0.00112768,0.00120953,0.00301674,-0.1547,0.1792,-9.7412,-0.004036,-0.000637,-0.003554,28.7612,0.0360,141,0,0,0.000246,0.000364,-0.035571,-0.000968,0.002739,0.011334,-1.0411,-0.9827,-0.0287
11663,11.0,0.000118,0.000158,-0.035779,-0.000596,0.002208,0.007227,-1.0042,-0.9200,0.0084,0.00001444,0.00001503,-0.00190810,-0.00111755,0.00119607,0.00483145,-0.1542,0.1693,-9.7449,-0.000064,-0.002560,-0.004387,28.7612,0.0360,138,0,0,0.000255,0.000373,-0.035468,-0.000875,0.002681,0.012225,-1.0422,-0.9772,-0.0291
11675,12.0,0.000126,0.000171,-0.035699,-0.000525,0.001695,0.008010,-1.0069,-0.9234,0.0088,0.00001447,0.00001508,-0.00190809,-0.00112977,0.00120403,0.00492791,-0.1606,0.1354,-9.7250,-0.002890,-0.003509,-0.001445,28.7612,0.0360,138,0,0,0.000262,0.000382,-0.035341,-0.000697,0.002521,0.013315,-1.0414,-0.9774,-0.0301
11686,11.0,0.000133,0.000177,-0.035609,-0.000451,0.001584,0.008474,-0.9971,-0.9349,0.0102,0.00001250,0.00001633,-0.00190810,-0.00113666,0.00122420,0.00492840,-0.1711,0.1522,-9.7602,-0.001385,-0.006316,-0.000162,28.7612,0.0360,133,0,0,0.000280,0.000396,-0.035594,-0.000710,0.002317,0.010015,-1.0354,-0.9745,0.0933
11697,11.0,0.000142,0.000185,-0.035785,-0.000382,0.001662,0.005724,-0.9996,-0.9380,0.0098,0.00001253,0.00001637,-0.00190809,-0.00111671,0.00119710,0.00720303,-0.1633,0.1851,-9.7620,-0.002527,-0.002975,-0.002561,28.7294,0.0360,137,0,0,0.000287,0.000403,-0.035489,-0.000673,0.002231,0.011022,-1.0316,-0.9775,0.0942
11708,11.0,0.000149,0.000195,-0.035719,-0.000330,0.001638,0.006289,-1.0127,-0.9487,0.0085,0.00001513,0.00001802,-0.00190809,-0.00112009,0.00119238,0.00720242,-0.1757,0.1949,-9.7480,-0.001368,-0.004251,-0.004167,28.7294,0.0350,134,0,0,0.000295,0.000411,-0.035379,-0.000622,0.002242,0.011869,-1.0317,-0.9778,0.0935
11719,11.0,0.000159,0.000202,-0.035650,-0.000512,0.001918,0.006763,-1.0155,-0.9504,0.0078,0.00001519,0.00001809,-0.00190809,-0.00113513,0.00120513,0.00723753,-0.1880,0.2066,-9.7519,-0.003362,-0.001370,-0.002981,28.7294,0.0350,133,0,0,0.000311,0.000426,-0.034947,-0.000763,0.002359,0.015450,-1.0359,-0.9823,0.0914
11730,11.0,0.000168,0.000213,-0.035248,-0.000434,0.001901,0.011111,-1.0311,-0.9541,0.0071,0.00001896,0.00001818,-0.00190809,-0.00119795,0.00124840,0.00410555,-0.1634,0.2050,-9.7548,-0.001979,-0.005094,-0.002838,28.7294,0.0350,138,0,0,0.000319,0.000435,-0.034787,-0.000742,0.002366,0.016424,-1.0417,-0.9848,0.0904
11741,11.0,0.000178,0.000220,-0.035124,-0.000611,0.002081,0.012005,-1.0347,-0.9570,0.0084,0.00001904,0.00001827,-0.00190809,-0.00121569,0.00126451,0.00413551,-0.1884,0.2010,-9.7176,-0.004394,-0.003236,0.000137,28.7294,0.0360,138,0,0,0.000327,0.000441,-0.034618,-0.000722,0.002650,0.017408,-1.0427,-0.9853,0.0900
11752,11.0,0.000186,0.000229,-0.034987,-0.000538,0.002006,0.012802,-1.0381,-0.9626,0.0088,0.00001938,0.00001928,-0.00190809,-0.00122688,0.00127868,0.00413572,-0.1713,0.1795,-9.7302,-0.002936,-0.002948,-0.001357,28.7294,0.0360,135,0,0,0.000343,0.000457,-0.035292,-0.000635,0.002455,0.008980,-1.0482,-0.9886,0.0886
11763,11.0,0.000195,0.000239,-0.035481,-0.000511,0.001783,0.005709,-1.0408,-0.9650,0.0079,0.00001946,0.00001939,-0.00190808,-0.00114168,0.00117968,0.01062317,-0.1719,0.1646,-9.7554,-0.002677,-0.001793,-0.003283,28.7294,0.0360,134,0,0,0.000351,0.000465,-0.035201,-0.000597,0.002392,0.010011,-1.0474,-0.9893,0.0894
11774,11.0,0.000203,0.000249,-0.035415,-0.000441,0.001756,0.006315,-1.0489,-0.9693,0.0083,0.00002160,0.00002025,-0.00190808,-0.00115330,0.00117760,0.01062293,-0.1709,0.1931,-9.7409,-0.003301,-0.002362,-0.001210,28.7294,0.0360,139,0,0,0.000367,0.000481,-0.035590,-0.000574,0.002150,0.005080,-1.0465,-0.9914,0.0894
11785,11.0,0.000212,0.000258,-0.035367,-0.000510,0.001643,0.006616,-1.0497,-0.9724,0.0086,0.00002167,0.00002036,-0.00190808,-0.00116739,0.00118539,0.01088537,-0.1803,0.1748,-9.7411,-0.000394,-0.003782,-0.001479,28.7849,0.0360,137,0,0,0.000375,0.000489,-0.035554,-0.000563,0.002241,0.005814,-1.0473,-0.9913,0.0895
11796,11.0,0.000220,0.000269,-0.035678,-0.000448,0.001644,0.002501,-1.0596,-0.9784,0.0082,0.00002527,0.00002191,-0.00190807,-0.00110977,0.00110058,0.01482928,-0.1762,0.2030,-9.7491,-0.002175,-0.002937,-0.002230,28.7849,0.0360,140,0,0,0.000383,0.000497,-0.035491,-0.000576,0.002174,0.006751,-1.0481,-0.9925,0.1350
11807,11.0,0.000230,0.000276,-0.035666,-0.000576,0.001775,0.002772,-1.0628,-0.9824,0.0081,0.00002537,0.00002205,-0.00190807,-0.00112727,0.00111223,0.01502728,-0.1879,0.1997,-9.7456,-0.004053,-0.005036,-0.002149,28.7849,0.0370,137,0,0,0.000400,0.000513,-0.036348,-0.000472,0.002321,-0.002959,-1.0531,-0.9939,0.1342
11818,11.0,0.000239,0.000287,-0.035634,-0.000478,0.001782,0.003146,-1.0723,-0.9842,0.0091,0.00002963,0.00002143,-0.00190806,-0.00115283,0.00109294,0.01502699,-0.1641,0.2077,-9.7575,-0.001300,-0.003918,0.000351,28.7849,0.0370,137,0,0,0.000409,0.000519,-0.036373,-0.000588,0.002543,-0.002175,-1.0544,-0.9946,0.1342
11829,11.0,0.000248,0.000297,-0.036381,-0.000458,0.001563,-0.005755,-1.0752,-0.9869,0.0092,0.00002979,0.00002164,-0.00190805,-0.00104156,0.00096337,0.02283755,-0.1753,0.1690,-9.7492,-0.003482,-0.002795,-0.001710,28.7849,0.0370,139,0,0,0.000425,0.000536,-0.036428,-0.000486,0.002502,-0.000838,-1.0607,-0.9969,0.1343
11841,12.0,0.000257,0.000307,-0.036448,-0.000372,0.001517,-0.005322,-1.0782,-0.9883,0.0071,0.00002975,0.00002142,-0.00190805,-0.00106320,0.00097565,0.02283810,-0.1671,0.1838,-9.7480,-0.004119,-0.001844,-0.004810,28.8087,0.0360,139,0,0,0.000433,0.000544,-0.036186,-0.000460,0.002472,0.002702,-1.0623,-0.9978,0.1340
11852,11.0,0.000265,0.000315,-0.036538,-0.000101,0.001413,-0.005326,-1.0803,-0.9919,0.0069,0.00002984,0.00002154,-0.00190805,-0.00107192,0.00098036,0.02317804,-0.1503,0.1794,-9.7468,-0.002717,-0.005003,-0.002266,28.8087,0.0360,137,0,0,0.000441,0.000552,-0.036155,-0.000386,0.002433,0.003527,-1.0634,-0.9976,0.1328
11863,11.0,0.000274,0.000325,-0.036256,-0.000028,0.001401,-0.000896,-1.0831,-0.9906,0.0065,0.00003110,0.00002070,-0.00190804,-0.00114863,0.00103774,0.01994681,-0.1648,0.1917,-9.7462,-0.001150,0.000532,-0.002096,28.8087,0.0360,137,0,0,0.000457,0.000569,-0.036111,-0.000167,0.002131,0.004674,-1.0636,-0.9953,0.1321
11874,11.0,0.000283,0.000333,-0.036288,0.000015,0.001527,-0.000653,-1.0865,-0.9937,0.0062,0.00003121,0.00002082,-0.00190804,-0.00115801,0.00104551,0.02019692,-0.1709,0.2013,-9.7359,-0.004840,-0.004113,-0.002355,28.8087,0.0370,137,0,0,0.000466,0.000578,-0.036060,-0.000110,0.002109,0.005487,-1.0641,-0.9932,0.1324
11885,11.0,0.000291,0.000341,-0.036293,-0.000017,0.001446,-0.000141,-1.0851,-1.0022,0.0079,0.00002914,0.00002554,-0.00190805,-0.00113039,0.00107584,0.02019676,-0.1939,0.1752,-9.7398,-0.001680,-0.003330,-0.000444,28.8087,0.0370,134,0,0,0.000474,0.000585,-0.036668,-0.000080,0.002217,-0.000790,-1.0647,-0.9937,0.1320
11896,11.0,0.000301,0.000349,-0.036697,-0.000108,0.001446,-0.004530,-1.0876,-1.0048,0.0083,0.00002929,0.00002572,-0.00190805,-0.00108182,0.00101716,0.02390834,-0.1857,0.1899,-9.7494,-0.003208,-0.003375,-0.001329,28.8087,0.0370,141,0,0,0.000491,0.000601,-0.036665,-0.000208,0.002096,0.001109,-1.0608,-0.9976,0.0807
11907,11.0,0.000309,0.000359,-0.036745,-0.000090,0.001450,-0.004253,-1.0935,-1.0099,0.0069,0.00003198,0.00002812,-0.00190805,-0.00107615,0.00100475,0.02390767,-0.1833,0.1991,-9.7573,-0.004104,-0.003209,-0.004186,28.8087,0.0360,138,0,0,0.000499,0.000609,-0.036299,-0.000207,0.002081,0.005780,-1.0617,-0.9993,0.0805
11918,11.0,0.000318,0.000367,-0.036797,-0.000046,0.001320,-0.004209,-1.0971,-1.0123,0.0062,0.00003208,0.00002828,-0.00190804,-0.00108994,0.00101311,0.02396396,-0.1747,0.1793,-9.7722,-0.005339,-0.003049,-0.003001,28.7374,0.0360,138,0,0,0.000516,0.000624,-0.036173,-0.000325,0.002237,0.007255,-1.0646,-1.0005,0.0786
11929,11.0,0.000328,0.000376,-0.036922,0.000019,0.001309,-0.004846,-1.1009,-1.0148,0.0063,0.00003349,0.00002770,-0.00190803,-0.00109843,0.00099682,0.02467327,-0.1704,0.1942,-9.7541,-0.003358,-0.004439,-0.001439,28.7374,0.0370,138,0,0,0.000524,0.000631,-0.036097,-0.000292,0.002318,0.007996,-1.0650,-1.0005,0.0777
11940,11.0,0.000337,0.000384,-0.036977,0.000047,0.001260,-0.004369,-1.1028,-1.0193,0.0072,0.00003360,0.00002785,-0.00190803,-0.00111118,0.00100562,0.02471498,-0.1759,0.1872,-9.7335,-0.002559,-0.006509,-0.000402,28.7374,0.0370,138,0,0,0.000533,0.000639,-0.036586,-0.000256,0.002295,0.002244,-1.0666,-1.0007,0.0776
11951,11.0,0.000347,0.000393,-0.037023,0.000108,0.001293,-0.003919,-1.1082,-1.0217,0.0068,0.00003715,0.00002704,-0.00190801,-0.00113288,0.00098221,0.02471477,-0.1709,0.2042,-9.7408,-0.003113,-0.004725,-0.001999,28.7374,0.0370,136,0,0,0.000550,0.000654,-0.036527,-0.000224,0.002163,0.004214,-1.0663,-1.0031,0.0795
11962,11.0,0.000355,0.000400,-0.035923,0.000247,0.001420,0.009989,-1.1099,-1.0254,0.0046,0.00003719,0.00002704,-0.00190801,-0.00131520,0.00118189,0.01497456,-0.1660,0.2055,-9.7443,-0.002330,-0.005315,-0.005509,28.7374,0.0350,138,0,0,0.000558,0.000661,-0.036489,-0.000151,0.002235,0.004932,-1.0669,-1.0041,0.0794
11973,11.0,0.000364,0.000408,-0.035810,0.000331,0.001379,0.010603,-1.1118,-1.0246,0.0044,0.00003697,0.00002427,-0.00190800,-0.00135119,0.00119582,0.01497554,-0.1638,0.1888,-9.7361,-0.002931,-0.002210,-0.001754,28.7612,0.0350,137,0,0,0.000574,0.000676,-0.035409,0.000077,0.002336,0.016422,-1.0698,-1.0037,0.0792
11984,11.0,0.000373,0.000417,-0.035706,0.000288,0.001428,0.010894,-1.1131,-1.0256,0.0047,0.00003711,0.00002439,-0.00190800,-0.00135767,0.00120402,0.01510864,-0.1827,0.1985,-9.7478,-0.001662,-0.001266,-0.001477,28.7612,0.0350,135,0,0,0.000582,0.000684,-0.035256,0.000081,0.002345,0.017114,-1.0714,-1.0041,0.0790
11995,11.0,0.000382,0.000425,-0.035256,0.000369,0.001396,0.015235,-1.1153,-1.0258,0.0053,0.00003763,0.00002180,-0.00190799,-0.00143984,0.00126424,0.01238942,-0.1653,0.1925,-9.7499,-0.002536,-0.003148,-0.000462,28.7612,0.0350,144,0,0,0.000590,0.000691,-0.035081,0.000041,0.002459,0.017923,-1.0701,-1.0045,0.0060
12006,11.0,0.000392,0.000434,-0.035098,0.000323,0.001299,0.015435,-1.1186,-1.0290,0.0041,0.00003777,0.00002194,-0.00190799,-0.00144749,0.00127198,0.01249124,-0.1836,0.1858,-9.7627,-0.004742,-0.004645,-0.003969,28.7612,0.0370,140,0,0,0.000607,0.000707,-0.036204,0.000079,0.002455,0.003535,-1.0726,-1.0031,0.0068
12017,11.0,0.000402,0.000442,-0.034924,0.000346,0.001269,0.016179,-1.1203,-1.0318,0.0033,0.00003767,0.00002238,-0.00190799,-0.00145332,0.00128287,0.01249151,-0.1778,0.1909,-9.7265,-0.002587,-0.003655,-0.003376,28.7612,0.0370,134,0,0,0.000615,0.000715,-0.036166,0.000070,0.002434,0.004198,-1.0745,-1.0045,0.0061
12028,11.0,0.000411,0.000450,-0.035987,0.000397,0.001337,0.002087,-1.1228,-1.0343,0.0032,0.00003798,0.00002256,-0.00190800,-0.00128104,0.00109552,0.02252478,-0.1745,0.2011,-9.7386,-0.003577,-0.003753,-0.002110,28.7612,0.0370,140,0,0,0.000624,0.000722,-0.036136,0.000030,0.002492,0.004916,-1.0746,-1.0053,0.0057
12039,11.0,0.000421,0.000459,-0.035962,0.000513,0.001292,0.002397,-1.1243,-1.0324,0.0027,0.00003741,0.00001793,-0.00190798,-0.00133295,0.00111094,0.02252610,-0.1598,0.1899,-9.7562,-0.002665,-0.001560,-0.002052,28.7612,0.0360,142,0,0,0.000641,0.000738,-0.036011,0.000099,0.002489,0.006588,-1.0763,-1.0072,0.0058
12050,11.0,0.000430,0.000468,-0.035948,0.000655,0.001144,0.002743,-1.1269,-1.0342,0.0005,0.00003752,0.00001799,-0.00190798,-0.00133420,0.00111497,0.02265116,-0.1654,0.1811,-9.7360,-0.004002,-0.002546,-0.005506,28.7612,0.0360,139,0,0,0.000649,0.000746,-0.035941,0.000202,0.002470,0.007317,-1.0773,-1.0048,0.0056
12061,11.0,0.000438,0.000476,-0.035955,0.000589,0.001111,0.002505,-1.1295,-1.0395,0.0013,0.00003726,0.00002259,-0.00190801,-0.00128901,0.00111931,0.02295542,-0.1936,0.1920,-9.7637,-0.004175,-0.004172,-0.001725,28.7612,0.0360,139,0,0,0.000657,0.000753,-0.035864,0.000254,0.002570,0.008111,-1.0773,-1.0049,0.0047
12072,11.0,0.000448,0.000485,-0.035938,0.000669,0.001008,0.002651,-1.1324,-1.0417,0.0013,0.00003733,0.00002266,-0.00190801,-0.00129102,0.00112172,0.02305003,-0.1726,0.1858,-9.7576,-0.004426,-0.003310,-0.001830,28.7612,0.0370,136,0,0,0.000674,0.000769,-0.035711,0.000213,0.002411,0.009261,-1.0800,-1.0071,0.0054
12083,11.0,0.000457,0.000494,-0.035908,0.000735,0.000920,0.002702,-1.1320,-1.0413,0.0015,0.00003358,0.00002026,-0.00190801,-0.00131736,0.00116062,0.02305135,-0.1701,0.1811,-9.7792,-0.002424,-0.001404,-0.001751,28.7612,0.0370,139,0,0,0.000683,0.000777,-0.036520,0.000229,0.002335,0.000321,-1.0805,-1.0069,0.0056
12094,11.0,0.000468,0.000503,-0.036495,0.000625,0.000779,-0.004147,-1.1341,-1.0436,0.0029,0.00003362,0.00002034,-0.00190801,-0.00123521,0.00106656,0.02781557,-0.1899,0.1812,-9.7418,-0.003211,-0.003539,0.000131,28.7612,0.0370,142,0,0,0.000700,0.000794,-0.036503,0.000270,0.002198,0.001410,-1.0798,-1.0063,-0.0324
12105,11.0,0.000478,0.000510,-0.036538,0.000699,0.000756,-0.003644,-1.1377,-1.0439,0.0031,0.00003218,0.00001709,-0.00190800,-0.00127057,0.00108118,0.02781655,-0.1680,0.1901,-9.7332,-0.006756,-0.002844,-0.001122,28.7612,0.0360,136,0,0,0.000709,0.000802,-0.036506,0.000129,0.002122,0.001927,-1.0800,-1.0064,-0.0318
12116,11.0,0.000486,0.000519,-0.036598,0.000840,0.000675,-0.003377,-1.1393,-1.0460,0.0059,0.00003216,0.00001709,-0.00190800,-0.00126755,0.00107666,0.02799574,-0.1664,0.1872,-9.7295,-0.002559,-0.003443,0.002439,28.7823,0.0360,143,0,0,0.000718,0.000810,-0.036180,0.000135,0.002101,0.005969,-1.0820,-1.0068,-0.0314
12127,11.0,0.000496,0.000527,-0.036278,0.000794,0.000693,0.001224,-1.1429,-1.0493,0.0060,0.00003296,0.00001997,-0.00190801,-0.00129005,0.00112128,0.02532096,-0.1885,0.1981,-9.7407,-0.005054,-0.003176,-0.002168,28.7823,0.0360,138,0,0,0.000735,0.000825,-0.036064,0.000190,0.002092,0.007321,-1.0837,-1.0078,-0.0284
12138,11.0,0.000505,0.000534,-0.036281,0.000784,0.000794,0.001298,-1.1450,-1.0518,0.0070,0.00003298,0.00001999,-0.00190801,-0.00128880,0.00111978,0.02545750,-0.1817,0.2058,-9.7546,-0.003231,-0.003814,-0.000350,28.7823,0.0360,133,0,0,0.000744,0.000832,-0.035988,0.000081,0.002157,0.007998,-1.0851,-1.0074,-0.0282
12150,12.0,0.000515,0.000542,-0.036261,0.000763,0.000633,0.002029,-1.1447,-1.0555,0.0089,0.00002521,0.00002099,-0.00190805,-0.00128153,0.00119346,0.02545887,-0.1836,0.1725,-9.7205,-0.004253,-0.004867,-0.000477,28.7823,0.0360,138,0,0,0.000760,0.000848,-0.035888,0.000193,0.002208,0.008463,-1.0888,-1.0070,-0.0275
12161,11.0,0.000556,0.000552,-0.036112,0.000757,0.000602,0.003756,-1.1463,-1.0566,0.0081,0.00002513,0.00002215,-0.00190799,-0.00134698,0.00120831,0.02454109,-0.1969,0.1927,-9.7573,-0.002650,-0.000141,-0.002250,28.7823,0.0360,136,0,-1,0.000769,0.000856,-0.035823,0.000156,0.002143,0.009122,-1.0892,-1.0085,-0.0273
12172,11.0,0.000565,0.000560,-0.036068,0.000863,0.000659,0.004196,-1.1493,-1.0548,0.0075,0.00002767,0.00001684,-0.00190795,-0.00139752,0.00118111,0.02454150,-0.1650,0.2044,-9.7420,-0.003228,-0.000421,-0.001601,28.7823,0.0360,138,0,0,0.000806,0.000864,-0.035728,0.000052,0.002168,0.009770,-1.0894,-1.0075,-0.0277
12183,11.0,0.000574,0.000570,-0.036043,0.000887,0.000464,0.004260,-1.1502,-1.0570,0.0062,0.00002756,0.00001682,-0.00190794,-0.00139363,0.00117320,0.02471528,-0.1791,0.1782,-9.7508,-0.001485,-0.003433,-0.003933,28.7823,0.0360,136,0,0,0.000822,0.000880,-0.035777,0.000209,0.002175,0.008762,-1.0911,-1.0067,-0.0282
12194,11.0,0.000584,0.000578,-0.035990,0.001130,0.000499,0.004750,-1.1526,-1.0540,0.0054,0.00002865,0.00000318,-0.00190785,-0.00151809,0.00115906,0.02468833,-0.1419,0.2007,-9.7420,-0.003321,-0.003296,-0.000674,28.8404,0.0360,135,0,0,0.000830,0.000888,-0.035686,0.000213,0.002100,0.009455,-1.0905,-1.0071,-0.0366
12205,11.0,0.000563,0.000586,-0.035971,0.001193,0.000407,0.004595,-1.1546,-1.0546,0.0072,0.00002850,0.00000178,-0.00190791,-0.00146173,0.00114815,0.02494247,-0.1602,0.1879,-9.7583,-0.003183,-0.002429,0.000109,28.8404,0.0360,144,0,1,0.000838,0.000895,-0.035645,0.000432,0.002169,0.009563,-1.0918,-1.0078,-0.0361
12216,11.0,0.000572,0.000594,-0.035918,0.001171,0.000231,0.005013,-1.1528,-1.0567,0.0075,0.00001745,0.00000210,-0.00190797,-0.00145281,0.00124193,0.02494420,-0.1822,0.1674,-9.7441,-0.003271,-0.003354,-0.003196,28.8404,0.0360,136,0,0,0.000827,0.000912,-0.035735,0.000411,0.001736,0.008022,-1.0915,-1.0065,-0.0362
12227,11.0,0.000582,0.000602,-0.035956,0.001139,0.000072,0.004408,-1.1539,-1.0589,0.0075,0.00001714,0.00000196,-0.00190796,-0.00143566,0.00121780,0.02562223,-0.1830,0.1799,-9.7341,-0.002030,-0.003571,-0.001898,28.8404,0.0360,135,0,0,0.000835,0.000920,-0.035697,0.000386,0.001652,0.008218,-1.0909,-1.0068,-0.0370
12238,11.0,0.000592,0.000610,-0.035905,0.001204,0.000041,0.004802,-1.1547,-1.0605,0.0082,0.00001339,-0.00000256,-0.00190795,-0.00147087,0.00123972,0.02562334,-0.1698,0.1884,-9.7453,-0.003328,-0.004871,-0.000570,28.8404,0.0360,135,0,0,0.000845,0.000928,-0.035611,0.000209,0.001621,0.008919,-1.0914,-1.0065,-0.0379
12249,11.0,0.000601,0.000618,-0.035895,0.001298,-0.000188,0.004571,-1.1567,-1.0634,0.0090,0.00001296,-0.00000277,-0.00190794,-0.00145799,0.00121940,0.02594576,-0.1719,0.1733,-9.7530,-0.003580,-0.004968,-0.000648,28.8404,0.0360,136,0,0,0.000861,0.000942,-0.035764,0.000363,0.001704,0.006730,-1.0914,-1.0077,-0.0371
12260,11.0,0.000611,0.000626,-0.035922,0.001374,-0.000266,0.004070,-1.1559,-1.0632,0.0091,0.00000537,-0.00000838,-0.00190794,-0.00148923,0.00125772,0.02649403,-0.1680,0.1794,-9.7422,-0.002546,-0.002497,-0.001741,28.8061,0.0360,136,0,0,0.000869,0.000949,-0.035694,0.000380,0.001625,0.007312,-1.0915,-1.0083,-0.0367
12271,11.0,0.000620,0.000634,-0.035900,0.001446,-0.000307,0.004050,-1.1566,-1.0657,0.0090,0.00000485,-0.00000869,-0.00190794,-0.00147658,0.00123819,0.02666845,-0.1736,0.1900,-9.7548,-0.001540,-0.004209,-0.002149,28.8061,0.0360,137,0,0,0.000886,0.000965,-0.035825,0.000480,0.001336,0.005405,-1.0901,-1.0084,-0.0358
12282,11.0,0.000629,0.000642,-0.035853,0.001414,-0.000308,0.004524,-1.1562,-1.0669,0.0093,0.00000130,-0.00000858,-0.00190795,-0.00146410,0.00124853,0.02666844,-0.1837,0.1903,-9.7368,-0.001240,-0.001990,-0.001866,28.8061,0.0360,137,0,0,0.000895,0.000973,-0.035794,0.000467,0.001304,0.005659,-1.0899,-1.0088,-0.0358
12293,11.0,0.000639,0.000650,-0.035921,0.001432,-0.000452,0.003672,-1.1569,-1.0701,0.0076,0.00000065,-0.00000892,-0.00190794,-0.00143979,0.00121442,0.02749191,-0.1787,0.1795,-9.7280,-0.001532,-0.005211,-0.004527,28.8061,0.0360,140,0,0,0.000912,0.000987,-0.035667,0.000298,0.001431,0.007124,-1.0888,-1.0097,-0.1015
12304,11.0,0.000648,0.000657,-0.035878,0.001525,-0.000432,0.004107,-1.1573,-1.0694,0.0069,-0.00000220,-0.00001601,-0.00190789,-0.00149019,0.00121603,0.02749288,-0.1663,0.1926,-9.7397,-0.002154,-0.002141,-0.002165,28.8061,0.0360,138,0,0,0.000920,0.000995,-0.035850,0.000268,0.001398,0.005051,-1.0887,-1.0108,-0.1023
12315,11.0,0.000657,0.000665,-0.035862,0.001760,-0.000389,0.004264,-1.1599,-1.0700,0.0063,-0.00000287,-0.00001652,-0.00190789,-0.00147238,0.00119360,0.02771371,-0.1581,0.1967,-9.7298,-0.004523,-0.001312,-0.002785,28.8061,0.0360,141,0,0,0.000929,0.001002,-0.035796,0.000316,0.001447,0.005761,-1.0890,-1.0102,-0.1024
12326,11.0,0.000667,0.000672,-0.035908,0.001835,-0.000356,0.003598,-1.1617,-1.0710,0.0052,-0.00000474,-0.00002392,-0.00190785,-0.00150683,0.00117627,0.02834989,-0.1667,0.1959,-9.7377,-0.003925,-0.004819,-0.002800,28.8061,0.0360,134,0,0,0.000945,0.001017,-0.035704,0.000506,0.001594,0.006528,-1.0903,-1.0089,-0.1029
12337,11.0,0.000677,0.000680,-0.035880,0.001859,-0.000267,0.003972,-1.1620,-1.0728,0.0059,-0.00000533,-0.00002451,-0.00190785,-0.00148946,0.00115881,0.02845002,-0.1769,0.2024,-9.7278,-0.000806,-0.003207,-0.000897,28.7717,0.0360,137,0,0,0.000954,0.001024,-0.035847,0.000511,0.001617,0.004917,-1.0915,-1.0095,-0.1024
12348,11.0,0.000686,0.000687,-0.035834,0.001879,-0.000274,0.004380,-1.1617,-1.0740,0.0065,-0.00000903,-0.00002897,-0.00190785,-0.00150779,0.00117116,0.02845060,-0.1747,0.1915,-9.7410,-0.001110,-0.003922,-0.000840,28.7717,0.0360,139,0,0,0.000962,0.001031,-0.035809,0.000474,0.001694,0.005510,-1.0907,-1.0094,-0.1019
12359,11.0,0.000697,0.000696,-0.035906,0.001780,-0.000452,0.003176,-1.1627,-1.0745,0.0066,-0.00000982,-0.00002957,-0.00190784,-0.00147913,0.00113643,0.02924721,-0.1897,0.1776,-9.7576,-0.002185,-0.001245,-0.001832,28.7717,0.0360,138,0,0,0.000980,0.001047,-0.035708,0.000361,0.001493,0.006669,-1.0913,-1.0102,-0.1016
12370,11.0,0.000707,0.000704,-0.035869,0.001817,-0.000492,0.003538,-1.1639,-1.0741,0.0068,-0.00001652,-0.00003451,-0.00190785,-0.00150308,0.00116909,0.02924827,-0.1738,0.1855,-9.7446,-0.004591,-0.001269,-0.001622,28.7717,0.0360,134,0,0,0.000988,0.001055,-0.035639,0.000276,0.001419,0.007156,-1.0906,-1.0112,-0.1014
12381,11.0,0.000716,0.000712,-0.035849,0.001770,-0.000451,0.003451,-1.1644,-1.0753,0.0054,-0.00001730,-0.00003510,-0.00190784,-0.00148690,0.00114836,0.02937523,-0.1851,0.1982,-9.7639,-0.001282,-0.002354,-0.004060,28.7717,0.0360,134,0,0,0.000997,0.001062,-0.035839,0.000254,0.001484,0.004886,-1.0910,-1.0110,-0.1009
12392,11.0,0.000726,0.000720,-0.035906,0.001796,-0.000509,0.002727,-1.1646,-1.0750,0.0046,-0.00002525,-0.00003950,-0.00190785,-0.00149425,0.00117776,0.03000134,-0.1755,0.1832,-9.7394,-0.003351,-0.001149,-0.003474,28.8510,0.0360,138,0,0,0.001014,0.001078,-0.035749,0.000205,0.001431,0.005693,-1.0905,-1.0116,-0.0976
12403,11.0,0.000737,0.000729,-0.035912,0.001743,-0.000694,0.002480,-1.1667,-1.0768,0.0033,-0.00002621,-0.00004010,-0.00190784,-0.00147668,0.00115173,0.03024718,-0.1859,0.1768,-9.7580,-0.003981,-0.003145,-0.003984,28.8510,0.0360,145,0,0,0.001022,0.001086,-0.035755,0.000190,0.001388,0.005560,-1.0902,-1.0114,-0.0985
12414,11.0,0.000747,0.000736,-0.035882,0.001671,-0.000672,0.002931,-1.1684,-1.0787,0.0033,-0.00003005,-0.00003853,-0.00190786,-0.00144701,0.00115543,0.03024671,-0.1894,0.1936,-9.7350,-0.004209,-0.002606,-0.002462,28.8510,0.0360,144,0,0,0.001040,0.001102,-0.035830,-0.000013,0.001146,0.004837,-1.0890,-1.0118,-0.0980
12425,11.0,0.000757,0.000745,-0.035952,0.001545,-0.000747,0.002045,-1.1705,-1.0801,0.0013,-0.00003111,-0.00003902,-0.00190784,-0.00142476,0.00112037,0.03090256,-0.1938,0.1867,-9.7456,-0.003875,-0.002538,-0.005029,28.8510,0.0360,138,0,0,0.001049,0.001109,-0.035827,-0.000086,0.001099,0.005003,-1.0897,-1.0118,-0.0977
12436,11.0,0.000767,0.000752,-0.035929,0.001648,-0.000766,0.002180,-1.1706,-1.0803,-0.0000,-0.00003722,-0.00004733,-0.00190780,-0.00147858,0.00114141,0.03090391,-0.1680,0.1893,-9.7636,-0.002417,-0.003202,-0.003432,28.8510,0.0360,135,0,0,0.001057,0.001117,-0.035775,-0.000130,0.001052,0.005571,-1.0897,-1.0125,-0.0990
12447,11.0,0.000776,0.000759,-0.035952,0.001753,-0.000692,0.001886,-1.1732,-1.0827,-0.0004,-0.00003824,-0.00004796,-0.00190779,-0.00145992,0.00111495,0.03121547,-0.1724,0.2013,-9.7489,-0.004741,-0.004096,-0.002428,28.8510,0.0360,139,0,0,0.001074,0.001132,-0.035869,-0.000053,0.001194,0.004414,-1.0914,-1.0133,-0.1006
12458,11.0,0.000786,0.000767,-0.035961,0.001825,-0.000794,0.001583,-1.1725,-1.0826,-0.0009,-0.00004938,-0.00005498,-0.00190780,-0.00149529,0.00117230,0.03140341,-0.1718,0.1792,-9.7712,-0.002645,-0.002262,-0.003022,28.8510,0.0360,138,0,0,0.001082,0.001138,-0.035822,0.000005,0.001281,0.005041,-1.0925,-1.0140,-0.1008
12469,11.0,0.000795,0.000777,-0.035979,0.001836,-0.001029,0.001527,-1.1742,-1.0821,-0.0007,-0.00005078,-0.00005571,-0.00190778,-0.00147682,0.00114093,0.03164002,-0.1808,0.1713,-9.7395,-0.003421,0.000525,-0.001383,28.8510,0.0360,138,0,0,0.001099,0.001153,-0.035875,-0.000073,0.001346,0.004442,-1.0920,-1.0136,-0.1024
12480,11.0,0.000805,0.000783,-0.035960,0.001899,-0.001063,0.001976,-1.1734,-1.0840,-0.0007,-0.00005907,-0.00006324,-0.00190776,-0.00151738,0.00117387,0.03164135,-0.1714,0.1862,-9.7343,-0.001498,-0.005537,-0.001756,28.9646,0.0360,137,0,0,0.001108,0.001162,-0.035912,-0.000044,0.001268,0.004124,-1.0913,-1.0124,-0.1022
12491,11.0,0.000814,0.000790,-0.036017,0.002059,-0.000966,0.001291,-1.1757,-1.0855,-0.0439,-0.00006044,-0.00006416,-0.00190039,-0.00146658,0.00116249,0.03213074,-0.1684,0.2010,-9.7513,-0.005136,-0.001883,-0.003398,28.9646,0.0360,137,0,0,0.001116,0.001169,-0.035867,0.000016,0.001268,0.004854,-1.0908,-1.0140,-0.1356
12502,11.0,0.000824,0.000799,-0.036002,0.002169,-0.001142,0.001354,-1.1747,-1.0819,-0.0442,-0.00007802,-0.00007453,-0.00190041,-0.00152471,0.00126441,0.03213369,-0.1659,0.1680,-9.7694,-0.003854,0.002290,-0.002749,28.9646,0.0360,137,0,0,0.001132,0.001184,-0.035967,0.000097,0.001397,0.003490,-1.0939,-1.0130,-0.1347
12513,11.0,0.000834,0.000807,-0.036076,0.002219,-0.001266,0.000667,-1.1768,-1.0836,-0.0441,-0.00007966,-0.00007563,-0.00190040,-0.00149518,0.00122522,0.03269561,-0.1755,0.1814,-9.7374,-0.004109,-0.003191,-0.001729,28.9646,0.0360,138,0,0,0.001141,0.001192,-0.035931,0.000159,0.001294,0.003851,-1.0934,-1.0108,-0.1347
12524,11.0,0.000844,0.000814,-0.036023,0.002256,-0.001273,0.001328,-1.1775,-1.0847,-0.0432,-0.00008713,-0.00008254,-0.00190038,-0.00152748,0.00125044,0.03242775,-0.1739,0.1896,-9.7618,-0.003447,-0.003858,-0.000319,28.9646,0.0360,137,0,0,0.001149,0.001200,-0.035987,0.000180,0.001254,0.003330,-1.0936,-1.0110,-0.1345
12536,12.0,0.000855,0.000821,-0.036084,0.002439,-0.001298,0.000561,-1.1780,-1.0872,-0.0446,-0.00008884,-0.00008388,-0.00190038,-0.00149635,0.00121289,0.03290773,-0.1652,0.1922,-9.7592,-0.001451,-0.004126,-0.004030,28.9884,0.0360,139,0,0,0.001165,0.001215,-0.035956,0.000351,0.001094,0.004072,-1.0942,-1.0110,-0.1341
12547,11.0,0.000865,0.000828,-0.036076,0.002429,-0.001347,0.000895,-1.1767,-1.0886,-0.0451,-0.00009945,-0.00008900,-0.00190039,-0.00150480,0.00125463,0.03290863,-0.1788,0.1837,-9.7434,-0.001212,-0.003858,-0.003155,28.9884,0.0360,143,0,0,0.001174,0.001223,-0.035995,0.000400,0.001108,0.003659,-1.0941,-1.0114,-0.1353
12558,11.0,0.000874,0.000836,-0.036080,0.002523,-0.001349,0.001005,-1.1787,-1.0898,-0.0454,-0.00010124,-0.00009042,-0.00190039,-0.00148035,0.00122408,0.03299867,-0.1714,0.1926,-9.7472,-0.003820,-0.002569,-0.002295,28.9884,0.0360,137,0,0,0.001190,0.001237,-0.036039,0.000439,0.001007,0.003181,-1.0918,-1.0130,-0.1353
12570,12.0,0.000887,0.000842,-0.036067,0.002488,-0.001425,0.001198,-1.1780,-1.0904,-0.0446,-0.00011286,-0.00009367,-0.00190042,-0.00147263,0.00126970,0.03299934,-0.1831,0.1826,-9.7576,-0.002156,-0.001783,-0.001520,28.9884,0.0360,136,0,0,0.001199,0.001244,-0.035994,0.000510,0.001063,0.003943,-1.0924,-1.0125,-0.1359
12581,11.0,0.000897,0.000851,-0.036156,0.002366,-0.001474,0.000062,-1.1782,-1.0907,-0.0449,-0.00011493,-0.00009506,-0.00190040,-0.00144050,0.00122666,0.03360924,-0.1922,0.1882,-9.7646,-0.001049,-0.001171,-0.002173,28.9884,0.0360,136,0,0,0.001216,0.001260,-0.036008,0.000462,0.001076,0.003727,-1.0925,-1.0118,-0.1356
12592,11.0,0.000907,0.000858,-0.036061,0.002348,-0.001538,0.001242,-1.1780,-1.0919,-0.0457,-0.00012725,-0.00009905,-0.00190043,-0.00145163,0.00128659,0.03307233,-0.1818,0.1817,-9.7650,-0.003242,-0.003092,-0.003849,28.9884,0.0360,138,0,0,0.001224,0.001268,-0.035969,0.000427,0.001128,0.004101,-1.0921,-1.0125,-0.1954
12603,11.0,0.000917,0.000866,-0.036123,0.002498,-0.001561,0.000663,-1.1804,-1.0932,0.0479,-0.00012936,-0.00010058,-0.00191862,-0.00148285,0.00118993,0.03352744,-0.1636,0.1932,-9.7418,-0.002869,-0.004594,-0.001309,28.9884,0.0360,141,0,0,0.001233,0.001275,-0.036085,0.000373,0.001094,0.002703,-1.0927,-1.0124,-0.1964
12614,11.0,0.000926,0.000874,-0.036115,0.002647,-0.001634,0.000687,-1.1786,-1.0915,0.0470,-0.00014288,-0.00011617,-0.00191859,-0.00156524,0.00124411,0.03352985,-0.1604,0.1803,-9.7714,-0.000916,-0.001386,-0.002755,28.9303,0.0360,138,0,0,0.001250,0.001291,-0.035973,0.000299,0.000796,0.004176,-1.0927,-1.0134,-0.1963
12625,11.0,0.000935,0.000880,-0.036086,0.002729,-0.001451,0.001351,-1.1806,-1.0941,0.0464,-0.00014487,-0.00011790,-0.00191859,-0.00154260,0.00121794,0.03341772,-0.1720,0.2094,-9.7332,-0.003928,-0.004779,-0.003028,28.9303,0.0360,136,0,0,0.001258,0.001299,-0.036014,0.000381,0.000750,0.003623,-1.0914,-1.0125,-0.1966
12636,11.0,0.000946,0.000888,-0.036069,0.002653,-0.001470,0.001759,-1.1811,-1.0953,0.0466,-0.00015485,-0.00011988,-0.00191862,-0.00152144,0.00124814,0.03341785,-0.1870,0.1874,-9.7360,-0.003645,-0.002681,-0.002305,28.9303,0.0360,137,0,0,0.001267,0.001305,-0.035975,0.000329,0.000902,0.004152,-1.0925,-1.0131,-0.1969
12647,11.0,0.000955,0.000895,-0.036126,0.002752,-0.001569,0.001162,-1.1809,-1.0985,0.0454,-0.00015705,-0.00012175,-0.00191861,-0.00148790,0.00120962,0.03386775,-0.1710,0.1839,-9.7423,-0.000475,-0.005746,-0.003794,28.9303,0.0360,142,0,0,0.001284,0.001321,-0.035976,0.000325,0.000780,0.004345,-1.0929,-1.0134,-0.1973
12659,12.0,0.000968,0.000902,-0.036041,0.002766,-0.001741,0.002261,-1.1804,-1.0982,0.0439,-0.00017610,-0.00012901,-0.00191866,-0.00151121,0.00130812,0.03348887,-0.1780,0.1714,-9.7480,-0.003810,-0.001346,-0.004963,28.9303,0.0360,141,0,0,0.001293,0.001327,-0.035930,0.000342,0.000770,0.004894,-1.0921,-1.0148,-0.1985
12670,11.0,0.000977,0.000911,-0.036072,0.002954,-0.001908,0.001681,-1.1816,-1.0985,0.0449,-0.00017881,-0.00013112,-0.00191865,-0.00147786,0.00126656,0.03381107,-0.1631,0.1762,-9.7645,-0.002883,-0.001144,-0.000373,28.9170,0.0360,145,0,0,0.001309,0.001343,-0.035939,0.000416,0.000605,0.004707,-1.0910,-1.0135,-0.1967
12681,11.0,0.000986,0.000918,-0.036053,0.003066,-0.001951,0.001887,-1.1820,-1.0986,0.0452,-0.00019223,-0.00014691,-0.00191862,-0.00154974,0.00131194,0.03381310,-0.1633,0.1828,-9.7545,-0.004122,-0.004176,-0.000975,28.9170,0.0360,140,0,0,0.001317,0.001352,-0.035958,0.000502,0.000453,0.004228,-1.0912,-1.0129,-0.1962
12692,11.0,0.000996,0.000927,-0.036049,0.003001,-0.002262,0.002058,-1.1813,-1.1017,0.0449,-0.00019522,-0.00014912,-0.00191860,-0.00151993,0.00127207,0.03391566,-0.1855,0.1618,-9.7375,0.000146,-0.005602,-0.002418,28.9170,0.0360,134,0,0,0.001335,0.001367,-0.035864,0.000521,0.000261,0.005352,-1.0914,-1.0130,-0.1594
12703,11.0,0.001007,0.000933,-0.036024,0.002960,-0.002182,0.002370,-1.1811,-1.1036,0.0464,-0.00020159,-0.00015483,-0.00191858,-0.00151879,0.00126019,0.03391531,-0.1826,0.1961,-9.7441,-0.001499,-0.004635,0.000663,28.9170,0.0360,134,0,0,0.001343,0.001374,-0.035972,0.000454,0.000203,0.004134,-1.0897,-1.0147,-0.1585
12713,10.0,0.001014,0.000943,-0.036071,0.002921,-0.002218,0.001684,-1.1834,-1.1041,0.1327,-0.00020470,-0.00015700,-0.00193768,-0.00154963,0.00115531,0.03431479,-0.1810,0.1885,-9.7552,-0.003335,-0.003626,-0.004180,28.9170,0.0360,140,0,0,0.001351,0.001382,-0.035928,0.000541,0.000170,0.004618,-1.0897,-1.0140,-0.1575
12724,11.0,0.001024,0.000951,-0.036016,0.002967,-0.002174,0.002225,-1.1845,-1.1028,0.1315,-0.00021383,-0.00016771,-0.00193764,-0.00158856,0.00116580,0.03412052,-0.1736,0.1920,-9.7613,-0.004181,-0.000593,-0.003442,28.9170,0.0360,133,0,0,0.001368,0.001396,-0.035915,0.000519,0.000167,0.004557,-1.0899,-1.0142,-0.1585
12735,11.0,0.001034,0.000958,-0.036046,0.003086,-0.002021,0.001721,-1.1865,-1.1037,0.1295,-0.00021685,-0.00017006,-0.00193763,-0.00155523,0.00112455,0.03442950,-0.1698,0.2054,-9.7569,-0.004073,-0.002100,-0.004948,28.9170,0.0370,132,0,0,0.001377,0.001404,-0.036549,0.000553,0.000204,-0.002479,-1.0902,-1.0123,-0.1592
12746,11.0,0.001045,0.000966,-0.036025,0.002961,-0.001999,0.002148,-1.1885,-1.1035,0.1293,-0.00022746,-0.00016984,-0.00193766,-0.00151262,0.00114330,0.03442899,-0.1932,0.1901,-9.7331,-0.005885,0.000078,-0.003041,28.9170,0.0370,140,0,0,0.001386,0.001412,-0.036632,0.000548,0.000328,-0.002779,-1.0906,-1.0117,-0.1603
12757,11.0,0.001024,0.000974,-0.036579,0.002844,-0.002047,-0.004365,-1.1904,-1.1039,0.1295,-0.00023099,-0.00017551,-0.00193772,-0.00139357,0.00104625,0.03752622,-0.1793,0.1873,-9.7464,-0.004108,-0.002140,-0.001914,28.9170,0.0370,142,0,1,0.001375,0.001427,-0.036770,0.000375,0.000291,-0.002807,-1.0925,-1.0126,-0.1603
12768,11.0,0.001034,0.000981,-0.036626,0.002919,-0.001981,-0.004091,-1.1914,-1.1032,0.1306,-0.00023812,-0.00018864,-0.00193767,-0.00144520,0.00104203,0.03752693,-0.1699,0.1968,-9.7441,-0.003432,-0.002075,0.000479,28.9170,0.0360,136,0,0,0.001384,0.001434,-0.036312,0.000365,0.000335,0.003015,-1.0932,-1.0121,-0.1605
12779,11.0,0.001044,0.000988,-0.036743,0.003006,-0.001866,-0.004861,-1.1919,-1.1044,0.1319,-0.00024108,-0.00019107,-0.00193766,-0.00141127,0.00100196,0.03792075,-0.1730,0.2040,-9.7594,-0.001617,-0.002662,0.000067,28.9170,0.0360,143,0,0,0.001392,0.001441,-0.036279,0.000382,0.000466,0.003563,-1.0933,-1.0115,-0.1593
12790,11.0,0.001053,0.000995,-0.036353,0.003181,-0.001823,0.000563,-1.1927,-1.1043,0.1323,-0.00024848,-0.00021193,-0.00193759,-0.00155668,0.00105315,0.03559988,-0.1572,0.1958,-9.7459,-0.003287,-0.004744,-0.000022,28.9170,0.0360,135,0,0,0.001409,0.001456,-0.036281,0.000381,0.000577,0.003572,-1.0959,-1.0111,-0.1211
12801,11.0,0.001063,0.001003,-0.036402,0.003180,-0.001876,-0.000053,-1.1918,-1.1058,0.1322,-0.00025151,-0.00021460,-0.00193758,-0.00152278,0.00101490,0.03590057,-0.1807,0.1890,-9.7655,0.000568,-0.003168,-0.002110,28.9170,0.0370,137,0,0,0.001418,0.001463,-0.036734,0.000450,0.000612,-0.001335,-1.0962,-1.0109,-0.1207
12813,12.0,0.001077,0.001009,-0.036401,0.003234,-0.002198,0.000314,-1.1882,-1.1073,0.1339,-0.00028256,-0.00022701,-0.00193766,-0.00156228,0.00117149,0.03590408,-0.1731,0.1563,-9.7409,-0.001268,-0.005000,-0.000750,28.9170,0.0370,135,0,0,0.001435,0.001479,-0.036753,0.000451,0.000667,-0.000454,-1.0963,-1.0095,-0.1215
12823,10.0,0.001085,0.001019,-0.036753,0.003126,-0.002256,-0.003527,-1.1903,-1.1079,0.2175,-0.00028626,-0.00022984,-0.00195762,-0.00156645,0.00103665,0.03775006,-0.1878,0.1866,-9.7373,-0.002935,-0.003884,0.000671,28.8827,0.0370,137,0,0,0.001444,0.001487,-0.036832,0.000488,0.000505,-0.000864,-1.0956,-1.0102,-0.1208
12835,12.0,0.001098,0.001024,-0.036794,0.003135,-0.002246,-0.003290,-1.1916,-1.1098,0.2183,-0.00029741,-0.00023902,-0.00195761,-0.00158425,0.00105455,0.03775057,-0.1790,0.1910,-9.7491,-0.004335,-0.004700,-0.000923,28.8827,0.0360,137,0,0,0.001453,0.001494,-0.036330,0.000435,0.000504,0.005266,-1.0955,-1.0120,-0.1194
12846,11.0,0.001108,0.001031,-0.036890,0.003189,-0.002161,-0.003813,-1.1923,-1.1100,0.2178,-0.00030095,-0.00024182,-0.00195760,-0.00155033,0.00101284,0.03807120,-0.1764,0.1997,-9.7494,-0.002254,-0.001293,-0.002732,28.8827,0.0360,137,0,0,0.001470,0.001508,-0.036267,0.000328,0.000397,0.005781,-1.0955,-1.0132,-0.1191
12857,11.0,0.001118,0.001038,-0.036961,0.003243,-0.002164,-0.003857,-1.1912,-1.1105,0.2186,-0.00031380,-0.00025554,-0.00195758,-0.00159336,0.00103907,0.03822543,-0.1720,0.1883,-9.7408,-0.001142,-0.003864,-0.000345,28.8827,0.0370,138,0,0,0.001479,0.001516,-0.036207,0.000295,0.000451,0.006217,-1.0952,-1.0128,-0.1190
12868,11.0,0.001129,0.001047,-0.037049,0.003143,-0.002243,-0.004379,-1.1944,-1.1119,0.2189,-0.00031744,-0.00025826,-0.00195756,-0.00156243,0.00099891,0.03846578,-0.1913,0.1850,-9.7650,-0.006274,-0.003051,-0.001453,28.8827,0.0370,138,0,0,0.001496,0.001531,-0.036676,0.000242,0.000466,0.001257,-1.0943,-1.0135,-0.1180
12879,11.0,0.001170,0.001053,-0.037097,0.003338,-0.002064,-0.004285,-1.1962,-1.1129,0.2162,-0.00031721,-0.00026881,-0.00195738,-0.00164301,0.00094220,0.03846605,-0.1720,0.2108,-9.7593,-0.003098,-0.004058,-0.004703,28.8827,0.0370,134,0,-1,0.001505,0.001538,-0.036723,0.000180,0.000491,0.000760,-1.0961,-1.0146,-0.1181
12890,11.0,0.001180,0.001062,-0.037092,0.003406,-0.002115,-0.003590,-1.1981,-1.1127,0.2148,-0.00032079,-0.00027185,-0.00195738,-0.00161861,0.00091313,0.03820759,-0.1753,0.1884,-9.7595,-0.004081,-0.000514,-0.004126,28.8827,0.0370,135,0,0,0.001543,0.001544,-0.036714,0.000286,0.000699,0.001106,-1.0968,-1.0153,-0.0804
12901,11.0,0.001190,0.001070,-0.037130,0.003495,-0.002177,-0.003416,-1.1982,-1.1113,0.2149,-0.00033826,-0.00028887,-0.00195737,-0.00168046,0.00097148,0.03820962,-0.1677,0.1825,-9.7529,-0.004124,-0.001570,-0.001648,28.9408,0.0360,135,0,0,0.001552,0.001552,-0.036701,0.000325,0.000688,0.001498,-1.0972,-1.0148,-0.0810
12912,11.0,0.001199,0.001077,-0.037247,0.003611,-0.002261,-0.004057,-1.1981,-1.1138,0.2166,-0.00034202,-0.00029237,-0.00195737,-0.00164064,0.00092874,0.03862398,-0.1691,0.1852,-9.7382,-0.000846,-0.004888,0.000594,28.9408,0.0360,142,0,0,0.001568,0.001567,-0.036227,0.000329,0.000586,0.006639,-1.0981,-1.0164,-0.0807
12923,11.0,0.001210,0.001085,-0.037124,0.003702,-0.002237,-0.001847,-1.1990,-1.1125,0.2165,-0.00035386,-0.00031042,-0.00195733,-0.00172121,0.00096543,0.03780060,-0.1666,0.1920,-9.7441,-0.004080,-0.002024,-0.001585,28.9408,0.0370,138,0,0,0.001577,0.001574,-0.036246,0.000315,0.000566,0.006164,-1.0972,-1.0171,-0.0798
12934,11.0,0.001219,0.001094,-0.037205,0.003803,-0.002610,-0.002329,-1.1985,-1.1158,0.0952,-0.00035813,-0.00031417,-0.00192477,-0.00157738,0.00101751,0.03811641,-0.1740,0.1541,-9.7451,-0.002806,-0.003583,-0.003148,28.9408,0.0370,141,0,0,0.001594,0.001590,-0.036610,0.000501,0.000478,0.002367,-1.0994,-1.0159,-0.0809
12945,11.0,0.001229,0.001102,-0.037228,0.003884,-0.002641,-0.001886,-1.1980,-1.1144,0.0941,-0.00037600,-0.00033299,-0.00192475,-0.00164215,0.00106743,0.03811830,-0.1666,0.1833,-9.7285,-0.003151,-0.001935,-0.003414,28.9408,0.0370,135,0,0,0.001602,0.001598,-0.036661,0.000471,0.000321,0.001961,-1.0974,-1.0167,-0.0809
12956,11.0,0.001239,0.001109,-0.036612,0.004023,-0.002657,0.005515,-1.1980,-1.1165,0.0931,-0.00037978,-0.00033651,-0.00192475,-0.00166502,0.00109262,0.03501045,-0.1668,0.1907,-9.7715,-0.001196,-0.004323,-0.003486,28.9620,0.0360,142,0,0,0.001611,0.001606,-0.036638,0.000493,0.000272,0.002550,-1.0976,-1.0165,-0.0814
12967,11.0,0.001249,0.001115,-0.036549,0.004050,-0.002414,0.005863,-1.1984,-1.1174,0.0917,-0.00037646,-0.00035261,-0.00192467,-0.00170645,0.00100999,0.03500944,-0.1722,0.2170,-9.7395,-0.000302,-0.004905,-0.002997,28.9620,0.0360,137,0,0,0.001628,0.001621,-0.036239,0.000527,0.000288,0.006666,-1.0963,-1.0155,-0.0829
12980,13.0,0.001267,0.001117,-0.036565,0.004010,-0.002560,0.005017,-1.2005,-1.1209,0.0926,-0.00038082,-0.00035685,-0.00192468,-0.00166243,0.00096416,0.03547032,-0.1844,0.1829,-9.7507,-0.003893,-0.005655,-0.000715,28.9620,0.0360,137,0,0,0.001637,0.001627,-0.036169,0.000521,0.000421,0.007186,-1.0977,-1.0163,-0.0835
12991,11.0,0.001277,0.001124,-0.036217,0.003998,-0.002327,0.008628,-1.2014,-1.1205,0.0908,-0.00037788,-0.00036945,-0.00192462,-0.00170910,0.00091426,0.03408144,-0.1780,0.2165,-9.7485,-0.001211,-0.002203,-0.003853,28.9620,0.0360,136,0,0,0.001654,0.001641,-0.036141,0.000532,0.000471,0.006913,-1.0982,-1.0184,-0.1541
13002,11.0,0.001288,0.001132,-0.036189,0.004007,-0.002285,0.008195,-1.2037,-1.1206,0.0916,-0.00038208,-0.00037367,-0.00192463,-0.00166806,0.00087273,0.03442294,-0.1789,0.1965,-9.7357,-0.004763,-0.001213,-0.000588,28.9620,0.0370,138,0,0,0.001663,0.001648,-0.036725,0.000458,0.000729,0.000396,-1.0979,-1.0180,-0.1549
13013,11.0,0.001298,0.001140,-0.036099,0.003868,-0.002335,0.008300,-1.2030,-1.1221,0.0913,-0.00039974,-0.00037665,-0.00192470,-0.00162893,0.00092478,0.03442305,-0.1938,0.1846,-9.7624,-0.002658,-0.003380,-0.003567,28.9620,0.0370,134,0,0,0.001681,0.001663,-0.036708,0.000267,0.000858,0.001236,-1.0991,-1.0173,-0.1557
13024,11.0,0.001307,0.001149,-0.035498,0.004019,-0.002567,0.014654,-1.2030,-1.1235,0.0912,-0.00040380,-0.00038048,-0.00192470,-0.00163881,0.00093765,0.03203580,-0.1660,0.1710,-9.7288,-0.001146,-0.003211,-0.002119,28.9620,0.0350,137,0,0,0.001690,0.001671,-0.036815,0.000197,0.000838,0.000238,-1.0986,-1.0183,-0.1559
13035,11.0,0.001317,0.001155,-0.035334,0.003996,-0.002482,0.015141,-1.2019,-1.1241,0.0905,-0.00041258,-0.00039344,-0.00192469,-0.00165898,0.00093101,0.03203584,-0.1789,0.1988,-9.7301,-0.000328,-0.003820,-0.002627,28.9276,0.0350,137,0,0,0.001698,0.001679,-0.035700,0.000255,0.000702,0.012636,-1.0981,-1.0184,-0.1560
13046,11.0,0.001327,0.001164,-0.035242,0.003945,-0.002698,0.014673,-1.2037,-1.1251,0.1249,-0.00041733,-0.00039775,-0.00193471,-0.00164908,0.00085728,0.03240693,-0.1840,0.1727,-9.7334,-0.003377,-0.003468,-0.000595,28.9276,0.0350,142,0,0,0.001714,0.001692,-0.035506,0.000235,0.000797,0.013092,-1.0987,-1.0198,-0.1560
13057,11.0,0.001338,0.001171,-0.036121,0.003958,-0.002788,0.002783,-1.2033,-1.1254,0.1239,-0.00044161,-0.00041362,-0.00193473,-0.00159168,0.00083647,0.03726269,-0.1760,0.1770,-9.7552,-0.004441,-0.003814,-0.003928,28.9276,0.0370,137,0,0,0.001723,0.001700,-0.035373,0.000209,0.000718,0.013636,-1.0978,-1.0207,-0.1543
13068,11.0,0.001347,0.001180,-0.036149,0.004018,-0.002968,0.002093,-1.2027,-1.1261,0.1234,-0.00044689,-0.00041804,-0.00193472,-0.00155219,0.00078997,0.03754425,-0.1756,0.1746,-9.7680,-0.000402,-0.002253,-0.002774,28.9276,0.0370,140,0,0,0.001731,0.001707,-0.036332,0.000206,0.000655,0.002121,-1.0990,-1.0212,-0.1554
13080,12.0,0.001361,0.001185,-0.036122,0.004165,-0.003027,0.002439,-1.2023,-1.1247,0.1237,-0.00046775,-0.00044153,-0.00193469,-0.00163598,0.00084699,0.03754657,-0.1632,0.1817,-9.7407,-0.003545,-0.002503,-0.001099,28.9276,0.0370,139,0,0,0.001749,0.001723,-0.036363,0.000219,0.000602,0.001691,-1.0964,-1.0189,-0.1551
13091,11.0,0.001370,0.001224,-0.035529,0.004295,-0.003111,0.009092,-1.2001,-1.1264,0.1236,-0.00047650,-0.00044594,-0.00193459,-0.00164811,0.00082891,0.03494867,-0.1678,0.1712,-9.7612,0.001636,-0.003822,-0.001916,28.9276,0.0350,139,-1,0,0.001757,0.001731,-0.036344,0.000297,0.000558,0.002119,-1.0965,-1.0173,-0.1403
13102,11.0,0.001380,0.001260,-0.035427,0.004270,-0.003032,0.009488,-1.1986,-1.1268,0.1234,-0.00050218,-0.00046004,-0.00193452,-0.00166948,0.00086204,0.03494935,-0.1786,0.1798,-9.7358,-0.002829,-0.003713,-0.002377,28.8563,0.0350,139,-1,0,0.001773,0.001800,-0.035452,0.000397,0.000589,0.011232,-1.0923,-1.0177,-0.1397
13113,11.0,0.001389,0.001268,-0.035371,0.004330,-0.003195,0.009246,-1.2005,-1.1286,0.1220,-0.00050777,-0.00046503,-0.00193452,-0.00162795,0.00081592,0.03518653,-0.1740,0.1743,-9.7387,-0.004539,-0.004051,-0.004178,28.8563,0.0350,135,0,0,0.001782,0.001808,-0.035338,0.000321,0.000619,0.011602,-1.0929,-1.0173,-0.1418
13124,11.0,0.001399,0.001276,-0.036208,0.004445,-0.003183,-0.001511,-1.2004,-1.1259,0.1209,-0.00052754,-0.00049064,-0.00193446,-0.00163101,0.00076858,0.03944995,-0.1625,0.1857,-9.7578,-0.004059,-0.000985,-0.002999,28.8563,0.0370,141,0,0,0.001799,0.001823,-0.035168,0.000285,0.000553,0.011869,-1.0936,-1.0169,-0.1436
13135,11.0,0.001409,0.001285,-0.036263,0.004511,-0.003306,-0.001930,-1.2013,-1.1265,0.1213,-0.00053348,-0.00049589,-0.00193445,-0.00158944,0.00072189,0.03962879,-0.1732,0.1778,-9.7634,-0.002909,-0.002217,-0.001273,28.8563,0.0370,139,0,0,0.001807,0.001830,-0.036304,0.000397,0.000562,-0.001047,-1.0940,-1.0151,-0.1437
13146,11.0,0.001420,0.001292,-0.036284,0.004523,-0.003295,-0.001911,-1.2002,-1.1265,0.1212,-0.00055177,-0.00051337,-0.00193444,-0.00162723,0.00075683,0.03962987,-0.1741,0.1863,-9.7654,-0.002049,-0.003821,-0.002092,28.8563,0.0370,139,0,0,0.001816,0.001838,-0.036356,0.000443,0.000530,-0.001290,-1.0944,-1.0149,-0.1432
13157,11.0,0.001430,0.001300,-0.036704,0.004420,-0.003236,-0.006191,-1.2004,-1.1277,0.0984,-0.00055814,-0.00051895,-0.00192621,-0.00153165,0.00070202,0.04143092,-0.1890,0.1933,-9.7308,-0.002460,-0.002795,0.001504,28.8563,0.0370,141,0,0,0.001833,0.001853,-0.036446,0.000566,0.000649,-0.001486,-1.0945,-1.0133,-0.1423
13168,11.0,0.001441,0.001307,-0.036772,0.004298,-0.003256,-0.006011,-1.1987,-1.1284,0.0985,-0.00057884,-0.00052579,-0.00192625,-0.00150759,0.00075177,0.04143120,-0.1904,0.1825,-9.7488,-0.001573,-0.002785,-0.002433,28.8563,0.0360,137,0,0,0.001842,0.001861,-0.036172,0.000506,0.000667,0.002122,-1.0950,-1.0137,-0.1413
13180,12.0,0.001456,0.001312,-0.036880,0.004117,-0.003289,-0.006247,-1.1988,-1.1291,0.0990,-0.00058486,-0.00053062,-0.00192623,-0.00147043,0.00070633,0.04160369,-0.1969,0.1873,-9.7465,-0.001580,-0.002364,-0.001208,28.8219,0.0360,136,0,0,0.001851,0.001869,-0.036148,0.000381,0.000649,0.002532,-1.0949,-1.0135,-0.1413
13191,11.0,0.001466,0.001318,-0.036417,0.004076,-0.003203,0.000105,-1.1987,-1.1303,0.0984,-0.00059654,-0.00054199,-0.00192621,-0.00152624,0.00075329,0.03926188,-0.1826,0.1951,-9.7466,-0.002564,-0.004328,-0.002733,28.8219,0.0360,140,0,0,0.001868,0.001883,-0.036132,0.000191,0.000708,0.002985,-1.0931,-1.0152,-0.1582
13202,11.0,0.001476,0.001327,-0.036444,0.004146,-0.003394,0.000034,-1.1994,-1.1312,0.0976,-0.00060276,-0.00054685,-0.00192618,-0.00149023,0.00070795,0.03939189,-0.1747,0.1706,-9.7427,-0.002774,-0.002743,-0.003185,28.8219,0.0370,140,0,0,0.001877,0.001890,-0.036655,0.000204,0.000746,-0.002674,-1.0933,-1.0163,-0.1586
13213,11.0,0.001486,0.001335,-0.036442,0.004180,-0.003381,0.000247,-1.1992,-1.1313,0.0973,-0.00062194,-0.00056486,-0.00192615,-0.00153695,0.00074594,0.03939317,-0.1737,0.1854,-9.7480,-0.003787,-0.004053,-0.002216,28.8219,0.0370,140,0,0,0.001894,0.001906,-0.036701,0.000202,0.000669,-0.001894,-1.0935,-1.0160,-0.1596
13224,11.0,0.001495,0.001342,-0.035666,0.004274,-0.003407,0.009425,-1.1989,-1.1329,0.0975,-0.00062706,-0.00056932,-0.00192614,-0.00156746,0.00077116,0.03602148,-0.1722,0.1865,-9.7481,-0.000866,-0.003797,-0.001663,28.8219,0.0350,143,0,0,0.001902,0.001914,-0.036765,0.000257,0.000667,-0.002060,-1.0937,-1.0163,-0.1595
13235,11.0,0.001505,0.001349,-0.035561,0.004346,-0.003410,0.009672,-1.1978,-1.1320,0.0971,-0.00064745,-0.00059121,-0.00192611,-0.00163323,0.00081602,0.03602321,-0.1685,0.1835,-9.7484,-0.002492,-0.003061,-0.002225,28.8457,0.0350,143,0,0,0.001910,0.001921,-0.035713,0.000311,0.000675,0.010097,-1.0933,-1.0159,-0.1594
13246,11.0,0.001514,0.001356,-0.035499,0.004471,-0.003446,0.009423,-1.1980,-1.1337,0.0960,-0.00065374,-0.00059672,-0.00192610,-0.00159256,0.00077015,0.03622937,-0.1684,0.1847,-9.7428,-0.002091,-0.004175,-0.003713,28.8457,0.0350,140,0,0,0.001927,0.001935,-0.035545,0.000334,0.000625,0.010437,-1.0927,-1.0170,-0.1585
13257,11.0,0.001524,0.001363,-0.036262,0.004515,-0.003355,-0.000507,-1.1980,-1.1330,0.0975,-0.00066839,-0.00061794,-0.00192603,-0.00157398,0.00069897,0.03997430,-0.1713,0.1940,-9.7564,-0.003161,-0.003391,0.000947,28.8457,0.0370,140,0,0,0.001935,0.001942,-0.035439,0.000375,0.000609,0.010832,-1.0928,-1.0178,-0.1582
13268,11.0,0.001534,0.001371,-0.036301,0.004525,-0.003377,-0.000546,-1.1982,-1.1337,0.0738,-0.00067473,-0.00062349,-0.00191759,-0.00151054,0.00067655,0.04013047,-0.1795,0.1851,-9.7314,-0.002448,-0.002039,-0.002505,28.8457,0.0370,138,0,0,0.001953,0.001957,-0.036347,0.000300,0.000656,0.000263,-1.0951,-1.0186,-0.1576
13279,11.0,0.001545,0.001379,-0.036307,0.004404,-0.003566,-0.000517,-1.1954,-1.1350,0.0732,-0.00070962,-0.00063081,-0.00191769,-0.00148843,0.00080456,0.04013222,-0.1913,0.1617,-9.7642,-0.002549,-0.003762,-0.004151,28.8457,0.0370,136,0,0,0.001962,0.001965,-0.036389,0.000277,0.000656,0.000252,-1.0952,-1.0187,-0.1578
13290,11.0,0.001554,0.001387,-0.035616,0.004546,-0.003604,0.007684,-1.1959,-1.1351,0.0738,-0.00071539,-0.00063576,-0.00191768,-0.00150927,0.00082083,0.03716144,-0.1675,0.1839,-9.7571,-0.002370,-0.001721,-0.001000,28.8457,0.0350,146,0,0,0.001971,0.001973,-0.036385,0.000190,0.000487,0.000543,-1.0949,-1.0191,-0.1778
13301,11.0,0.001565,0.001394,-0.035530,0.004501,-0.003674,0.008057,-1.1949,-1.1353,0.0731,-0.00074235,-0.00064997,-0.00191771,-0.00152583,0.00089969,0.03716293,-0.1813,0.1739,-9.7358,-0.004093,-0.003437,-0.003467,28.8457,0.0350,146,0,0,0.001988,0.001987,-0.035483,0.000180,0.000374,0.010147,-1.0962,-1.0205,-0.1768
13312,11.0,0.001574,0.001401,-0.035463,0.004655,-0.003697,0.008258,-1.1957,-1.1359,0.0728,-0.00074918,-0.00065584,-0.00191769,-0.00148632,0.00085405,0.03727014,-0.1653,0.1840,-9.7244,-0.003052,-0.002484,-0.002382,28.7876,0.0350,135,0,0,0.001996,0.001995,-0.035379,0.000208,0.000342,0.010603,-1.0959,-1.0202,-0.1775
13323,11.0,0.001585,0.001408,-0.036250,0.004512,-0.003576,-0.001703,-1.1947,-1.1367,0.0739,-0.00076277,-0.00066364,-0.00191769,-0.00138692,0.00077235,0.04097813,-0.1927,0.1959,-9.7442,-0.001486,-0.003151,-0.000331,28.7876,0.0370,135,0,0,0.002003,0.002002,-0.035303,0.000320,0.000341,0.010797,-1.0956,-1.0200,-0.1776
13334,11.0,0.001594,0.001415,-0.036286,0.004765,-0.003435,-0.001617,-1.1961,-1.1383,0.0736,-0.00076921,-0.00066962,-0.00191769,-0.00134770,0.00073017,0.04105879,-0.1564,0.2002,-9.7372,-0.003857,-0.004101,-0.002383,28.7876,0.0370,141,0,0,0.002021,0.002016,-0.036265,0.000190,0.000525,0.000014,-1.0955,-1.0201,-0.1775
13345,11.0,0.001604,0.001422,-0.036302,0.004769,-0.003356,-0.001311,-1.1934,-1.1370,0.0738,-0.00078354,-0.00068873,-0.00191765,-0.00138814,0.00073745,0.04105937,-0.1749,0.1924,-9.7377,0.000985,-0.002046,-0.001250,28.7876,0.0370,136,0,0,0.002030,0.002024,-0.036288,0.000265,0.000589,0.000118,-1.0972,-1.0193,-0.1781
13356,11.0,0.001614,0.001429,-0.035061,0.004831,-0.003174,0.013359,-1.1950,-1.1369,0.0732,-0.00078806,-0.00069353,-0.00191767,-0.00145056,0.00080427,0.03582840,-0.1742,0.2058,-9.7590,-0.004029,-0.001278,-0.002959,28.7876,0.0340,134,0,0,0.002038,0.002032,-0.036285,0.000268,0.000590,0.000541,-1.0960,-1.0188,-0.1782
13367,11.0,0.001623,0.001436,-0.034913,0.004872,-0.003136,0.013533,-1.1939,-1.1349,0.0735,-0.00080410,-0.00071580,-0.00191765,-0.00150705,0.00082721,0.03582955,-0.1701,0.1892,-9.7552,-0.001882,-0.001495,-0.000988,28.7876,0.0340,142,0,0,0.002054,0.002046,-0.034771,0.000438,0.000603,0.015896,-1.0966,-1.0188,-0.1787
13378,11.0,0.001634,0.001444,-0.034809,0.004791,-0.003219,0.013334,-1.1958,-1.1337,0.1664,-0.00081041,-0.00072200,-0.00195453,-0.00156583,0.00069159,0.03602664,-0.1837,0.1829,-9.7380,-0.002831,-0.001744,-0.002595,28.8457,0.0340,137,0,0,0.002062,0.002053,-0.034610,0.000481,0.000613,0.016247,-1.0965,-1.0179,-0.1789
13389,11.0,0.001644,0.001451,-0.035927,0.004840,-0.003179,-0.001218,-1.1952,-1.1314,0.1666,-0.00082869,-0.00074607,-0.00195452,-0.00152589,0.00061225,0.04123800,-0.1689,0.1883,-9.7556,-0.003040,-0.001358,-0.001228,28.8457,0.0370,136,0,0,0.002070,0.002061,-0.034505,0.000455,0.000525,0.016037,-1.0965,-1.0175,-0.1797
13401,12.0,0.001659,0.001454,-0.035977,0.004867,-0.002964,-0.001422,-1.1965,-1.1333,0.1674,-0.00083453,-0.00075235,-0.00195454,-0.00148512,0.00057389,0.04139057,-0.1775,0.2086,-9.7455,-0.003506,-0.004300,-0.000893,28.8457,0.0370,137,0,0,0.002087,0.002075,-0.035927,0.000542,0.000540,-0.000562,-1.0978,-1.0192,-0.1261
13412,11.0,0.001670,0.001462,-0.035991,0.004777,-0.002915,-0.001113,-1.1957,-1.1334,0.1687,-0.00084925,-0.00076440,-0.00195457,-0.00148364,0.00059211,0.04139064,-0.1851,0.1912,-9.7369,-0.001997,-0.003075,-0.000165,28.8457,0.0370,137,0,0,0.002105,0.002089,-0.035983,0.000509,0.000682,-0.000266,-1.0990,-1.0193,-0.1268
13423,11.0,0.001679,0.001469,-0.035470,0.004872,-0.002919,0.005426,-1.1963,-1.1348,0.1696,-0.00085451,-0.00077011,-0.00195459,-0.00148690,0.00060213,0.03923791,-0.1698,0.1892,-9.7301,-0.002616,-0.003836,-0.000558,28.8457,0.0350,137,0,0,0.002105,0.002089,-0.035983,0.000509,0.000682,-0.000266,-1.0990,-1.0198,-0.1263
13434,11.0,0.001689,0.001477,-0.035409,0.004926,-0.002989,0.005555,-1.1951,-1.1336,0.1700,-0.00087809,-0.00079359,-0.00195462,-0.00155014,0.00067281,0.03924006,-0.1682,0.1777,-9.7561,-0.003122,-0.003083,-0.001348,28.8457,0.0350,141,0,0,0.002121,0.002104,-0.035354,0.000462,0.000667,0.006797,-1.0984,-1.0189,-0.1272
13445,11.0,0.001699,0.001484,-0.035394,0.004949,-0.003044,0.005086,-1.1951,-1.1345,0.1714,-0.00088408,-0.00080015,-0.00195465,-0.00150791,0.00063346,0.03943235,-0.1764,0.1844,-9.7593,-0.001786,-0.003293,0.000287,28.8457,0.0350,135,0,0,0.002138,0.002119,-0.035264,0.000458,0.000618,0.006921,-1.0975,-1.0185,-0.1271
13456,11.0,0.001709,0.001492,-0.036238,0.005046,-0.003087,-0.005466,-1.1940,-1.1328,0.1712,-0.00090677,-0.00082810,-0.00195465,-0.00152075,0.00061765,0.04303666,-0.1632,0.1803,-9.7799,-0.003223,-0.003048,-0.002159,28.8457,0.0370,140,0,0,0.002147,0.002127,-0.036262,0.000403,0.000624,-0.004459,-1.0980,-1.0189,-0.1269
13467,11.0,0.001720,0.001499,-0.036340,0.005012,-0.003022,-0.005932,-1.1939,-1.1343,0.1701,-0.00091277,-0.00083470,-0.00195468,-0.00147913,0.00057910,0.04320657,-0.1814,0.1952,-9.7605,-0.001698,-0.004139,-0.003652,28.8668,0.0370,136,0,0,0.002155,0.002135,-0.036350,0.000494,0.000594,-0.004864,-1.0981,-1.0192,-0.1269
13478,11.0,0.001731,0.001507,-0.036404,0.004914,-0.003164,-0.005645,-1.1917,-1.1346,0.1700,-0.00094292,-0.00084674,-0.00195481,-0.00147617,0.00068461,0.04320823,-0.1857,0.1676,-9.7376,-0.002836,-0.003334,-0.003019,28.8668,0.0370,137,0,0,0.002172,0.002149,-0.036510,0.000555,0.000706,-0.004961,-1.0975,-1.0192,-0.1278
13489,11.0,0.001740,0.001514,-0.035690,0.005000,-0.003195,0.003548,-1.1940,-1.1360,0.1848,-0.00094843,-0.00085234,-0.00196173,-0.00151476,0.00069522,0.04013504,-0.1705,0.1860,-9.7447,-0.005078,-0.004272,-0.004078,28.8668,0.0350,139,0,0,0.002181,0.002129,-0.035622,0.000507,0.000525,0.005720,-1.0965,-1.0200,-0.1201
13501,12.0,0.001755,0.001519,-0.035648,0.005129,-0.003322,0.003580,-1.1935,-1.1325,0.1835,-0.00097588,-0.00087945,-0.00196175,-0.00159602,0.00078137,0.04013778,-0.1630,0.1725,-9.7644,-0.004762,-0.000194,-0.003696,28.8668,0.0350,139,0,0,0.002189,0.002136,-0.035563,0.000552,0.000484,0.006121,-1.0974,-1.0208,-0.1211
13513,12.0,0.001769,0.001524,-0.035648,0.005312,-0.003329,0.003039,-1.1938,-1.1325,0.1836,-0.00098257,-0.00088661,-0.00196177,-0.00155200,0.00073973,0.04031136,-0.1634,0.1887,-9.7689,-0.002324,-0.001790,-0.001839,28.8325,0.0370,136,0,0,0.002204,0.002151,-0.035497,0.000818,0.000371,0.005944,-1.0973,-1.0195,-0.1222
13524,11.0,0.001780,0.001532,-0.036376,0.005284,-0.003309,-0.005469,-1.1925,-1.1315,0.1834,-0.00100240,-0.00090700,-0.00196180,-0.00152862,0.00071620,0.04327932,-0.1749,0.1851,-9.7414,-0.002386,-0.002892,-0.002323,28.8325,0.0370,142,0,0,0.002222,0.002166,-0.036430,0.000835,0.000413,-0.004080,-1.0959,-1.0206,-0.1211
13535,11.0,0.001790,0.001540,-0.036467,0.005215,-0.003386,-0.005666,-1.1931,-1.1334,0.1834,-0.00100903,-0.00091398,-0.00196182,-0.00148678,0.00067614,0.04340688,-0.1833,0.1805,-9.7464,-0.003084,-0.004898,-0.002130,28.8325,0.0370,138,0,0,0.002231,0.002173,-0.036469,0.000835,0.000367,-0.003696,-1.0957,-1.0206,-0.1212
13546,11.0,0.001801,0.001546,-0.036529,0.005116,-0.003270,-0.005580,-1.1913,-1.1344,0.1861,-0.00101978,-0.00092704,-0.00196183,-0.00148520,0.00066549,0.04340639,-0.1847,0.1973,-9.7552,0.000216,-0.004821,0.002429,28.8325,0.0370,132,0,0,0.002240,0.002181,-0.036557,0.000758,0.000293,-0.003980,-1.0957,-1.0204,-0.1211
13557,11.0,0.001810,0.001554,-0.035735,0.005238,-0.003290,0.004360,-1.1926,-1.1354,0.1852,-0.00102525,-0.00093297,-0.00196185,-0.00150815,0.00069548,0.04010868,-0.1667,0.1863,-9.7567,-0.004010,-0.003367,-0.003433,28.8325,0.0350,138,0,0,0.002249,0.002188,-0.036595,0.000721,0.000334,-0.003658,-1.0956,-1.0214,-0.1196
13568,11.0,0.001820,0.001561,-0.035685,0.005312,-0.003259,0.004655,-1.1918,-1.1334,0.1844,-0.00104290,-0.00095994,-0.00196181,-0.00158523,0.00072640,0.04011032,-0.1637,0.1868,-9.7400,-0.002743,-0.002543,-0.002741,28.8325,0.0350,139,0,0,0.002265,0.002202,-0.035521,0.000746,0.000354,0.007853,-1.0966,-1.0226,-0.1197
13579,11.0,0.001829,0.001569,-0.035675,0.005438,-0.003351,0.004263,-1.1905,-1.1343,0.1857,-0.00104950,-0.00096741,-0.00196185,-0.00154076,0.00068649,0.04027316,-0.1650,0.1793,-9.7575,-0.000029,-0.003648,-0.000087,28.8325,0.0350,137,0,0,0.002273,0.002210,-0.035441,0.000805,0.000361,0.008254,-1.0964,-1.0226,-0.1203
