timestamp_ms,dt_ms,pos_x,pos_y,pos_z,vel_x,vel_y,vel_z,roll_deg,pitch_deg,yaw_deg,gyro_bias_x,gyro_bias_y,gyro_bias_z,accel_bias_x,accel_bias_y,accel_bias_z,raw_accel_x,raw_accel_y,raw_accel_z,raw_gyro_x,raw_gyro_y,raw_gyro_z,raw_baro_alt,raw_tof,raw_flow_squal,raw_flow_dx,raw_flow_dy,dev_pos_x,dev_pos_y,dev_pos_z,dev_vel_x,dev_vel_y,dev_vel_z,dev_roll_deg,dev_pitch_deg,dev_yaw_deg
11499,10.0,0.000009,-0.000007,-0.037059,-0.000040,-0.000004,0.000630,-0.0026,-0.0014,-0.0010,0.00000000,0.00000000,-0.00190810,-0.00107611,0.00116019,0.00000000,-0.1818,0.1462,-9.7377,-0.003905,-0.001695,-0.003643,28.8695,0.0370,136,0,0,0.000090,0.000203,-0.036951,-0.000940,0.002369,-0.001818,-0.9760,-0.9147,-0.1100
11510,11.0,0.000000,0.000000,-0.037048,-0.000467,0.000421,0.001301,-0.4723,-0.4836,0.0015,0.00000171,0.00000176,-0.00190810,-0.00108134,0.00116517,0.00000000,-0.1679,0.1636,-9.7438,-0.002645,-0.001243,-0.001172,28.8695,0.0360,132,0,0,0.000104,0.000218,-0.036375,-0.000840,0.002276,0.007282,-0.9651,-0.9287,-0.1095
11521,11.0,0.000005,-0.000007,-0.038857,-0.000907,0.001141,-0.078415,-0.4796,-0.4915,0.0035,0.00000172,0.00000177,-0.00190810,-0.00109669,0.00118665,0.00005002,-0.1667,0.2075,-9.7448,-0.001551,-0.005178,0.001199,28.8695,0.0360,128,0,0,0.000111,0.000227,-0.036343,-0.000776,0.002217,0.008014,-0.9700,-0.9356,-0.1090
11532,11.0,-0.000002,0.000005,-0.036048,-0.000873,0.001227,0.031710,-0.7688,-0.6428,0.0044,0.00000493,0.00000343,-0.00190810,-0.00111010,0.00120325,-0.00004201,-0.1611,0.2305,-9.7572,-0.002794,-0.002696,-0.003190,28.8695,0.0360,133,0,0,0.000119,0.000233,-0.036257,-0.000776,0.002542,0.009241,-0.9701,-0.9372,-0.1076
11543,11.0,0.000000,0.000002,-0.035807,-0.001204,0.001481,0.029355,-0.7794,-0.6506,0.0039,0.00000497,0.00000347,-0.00190810,-0.00114305,0.00124478,-0.00000277,-0.1736,0.1966,-9.7522,-0.004056,-0.002129,-0.002806,28.8695,0.0360,136,0,0,0.000135,0.000250,-0.036145,-0.000717,0.002683,0.010423,-0.9981,-0.9413,-0.1098
11554,11.0,-0.000008,0.000009,-0.035481,-0.001144,0.001325,0.029898,-0.8700,-0.7600,0.0068,0.00000692,0.00000590,-0.00190810,-0.00115875,0.00127123,-0.00000223,-0.1851,0.1923,-9.7562,-0.003451,-0.001214,0.000046,28.7981,0.0360,137,0,0,0.000143,0.000259,-0.036005,-0.000660,0.002622,0.011822,-1.0058,-0.9446,-0.1105
11565,11.0,-0.000006,0.000009,-0.035876,-0.001421,0.001212,0.017113,-0.8793,-0.7700,0.0084,0.00000698,0.00000597,-0.00190810,-0.00120679,0.00131419,0.00041091,-0.1859,0.1666,-9.7533,-0.002798,-0.003227,0.000442,28.7981,0.0360,138,0,0,0.000159,0.000276,-0.035776,-0.000719,0.002664,0.013754,-1.0112,-0.9536,-0.1078
11576,11.0,-0.000012,0.000013,-0.035683,-0.001270,0.001087,0.018017,-0.9257,-0.8168,0.0084,0.00000866,0.00000761,-0.00190810,-0.00123597,0.00133812,0.00041159,-0.1681,0.1878,-9.7239,-0.000985,-0.002728,-0.002903,28.7981,0.0360,138,0,0,0.000168,0.000284,-0.035632,-0.000898,0.002497,0.014939,-1.0109,-0.9538,-0.1068
11587,11.0,-0.000011,0.000013,-0.035537,-0.001486,0.001161,0.017816,-0.9327,-0.8254,0.0084,0.00000877,0.00000774,-0.00190809,-0.00129939,0.00138933,0.00050336,-0.1872,0.1877,-9.7468,-0.001354,-0.001858,-0.001904,28.7981,0.0360,137,0,0,0.000175,0.000293,-0.035813,-0.000849,0.002444,0.012669,-1.0145,-0.9588,-0.1077
11598,11.0,-0.000016,0.000016,-0.035801,-0.001321,0.001020,0.011954,-0.9612,-0.8584,0.0114,0.00001024,0.00000933,-0.00190809,-0.00132383,0.00140582,0.00137023,-0.1691,0.1851,-9.7541,-0.001208,-0.004463,0.002132,28.7981,0.0360,135,0,0,0.000191,0.000310,-0.035568,-0.000930,0.002407,0.014538,-1.0207,-0.9588,-0.0280
11609,11.0,-0.000017,0.000014,-0.035696,-0.001241,0.001262,0.012073,-0.9686,-0.8665,0.0095,0.00001042,0.00000949,-0.00190809,-0.00138355,0.00147051,0.00145917,-0.1617,0.2103,-9.7573,-0.001698,-0.003395,-0.005160,28.7981,0.0360,135,0,0,0.000199,0.000316,-0.035418,-0.000781,0.002719,0.015451,-1.0218,-0.9601,-0.0282
11620,11.0,-0.000023,0.000019,-0.035559,-0.001204,0.001202,0.012879,-1.0115,-0.9094,0.0107,0.00001379,0.00001281,-0.00190809,-0.00137817,0.00147093,0.00145913,-0.1970,0.2150,-9.7308,-0.003685,-0.005512,-0.001160,28.7981,0.0360,135,0,0,0.000207,0.000325,-0.035703,-0.000723,0.002688,0.011532,-1.0326,-0.9617,-0.0296
11631,11.0,-0.000023,0.000019,-0.035786,-0.001310,0.001181,0.008985,-1.0192,-0.9182,0.0117,0.00001402,0.00001304,-0.00190809,-0.00142794,0.00151669,0.00292239,-0.1880,0.1934,-9.7490,-0.002506,-0.004048,-0.000414,28.7612,0.0360,133,0,0,0.000222,0.000340,-0.035474,-0.000910,0.002866,0.013732,-1.0380,-0.9779,-0.0286
11641,10.0,-0.000026,0.000019,-0.035694,-0.001193,0.001005,0.009465,-1.0276,-0.9412,0.0116,0.00001458,0.00001536,-0.00190810,-0.00144091,0.00156601,0.00292325,-0.1854,0.1797,-9.7556,-0.001954,-0.003095,-0.003533,28.7612,0.0360,132,0,0,0.000231,0.000347,-0.035352,-0.001022,0.002875,0.014602,-1.0390,-0.9783,-0.0283
11652,11.0,-0.000028,0.000021,-0.035603,-0.000949,0.000880,0.009949,-1.0337,-0.9455,0.0105,0.00001478,0.00001558,-0.00190809,-0.00149246,0.00161376,0.00302678,-0.1547,0.1792,-9.7412,-0.004036,-0.000637,-0.003554,28.7612,0.0360,141,0,0,0.000246,0.000364,-0.035571,-0.000968,0.002739,0.011334,-1.0411,-0.9827,-0.0287
11663,11.0,-0.000029,0.000021,-0.035778,-0.000772,0.000702,0.007230,-1.0330,-0.9463,0.0089,0.00001428,0.00001505,-0.00190809,-0.00152678,0.00164416,0.00484262,-0.1542,0.1693,-9.7449,-0.000064,-0.002560,-0.004387,28.7612,0.0360,138,0,0,0.000255,0.000373,-0.035468,-0.000875,0.002681,0.012225,-1.0422,-0.9772,-0.0291
11675,12.0,-0.000031,0.000024,-0.035699,-0.000639,0.000157,0.008012,-1.0360,-0.9512,0.0091,0.00001436,0.00001525,-0.00190809,-0.00156262,0.00165733,0.00493954,-0.1606,0.1354,-9.7250,-0.002890,-0.003509,-0.001445,28.7612,0.0360,138,0,0,0.000262,0.000382,-0.035341,-0.000697,0.002521,0.013315,-1.0414,-0.9774,-0.0301
11686,11.0,-0.000033,0.000021,-0.035608,-0.000579,-0.000013,0.008477,-1.0266,-0.9604,0.0110,0.00001190,0.00001618,-0.00190810,-0.00157646,0.00173337,0.00494108,-0.1711,0.1522,-9.7602,-0.001385,-0.006316,-0.000162,28.7612,0.0360,133,0,0,0.000280,0.000396,-0.035594,-0.000710,0.002317,0.010015,-1.0354,-0.9745,0.0933
11697,11.0,-0.000034,0.000020,-0.035784,-0.000471,0.000052,0.005727,-1.0288,-0.9641,0.0105,0.00001193,0.00001634,-0.00190809,-0.00156876,0.00170241,0.00721597,-0.1633,0.1851,-9.7620,-0.002527,-0.002975,-0.002561,28.7294,0.0360,137,0,0,0.000287,0.000403,-0.035489,-0.000673,0.002231,0.011022,-1.0316,-0.9775,0.0942
11708,11.0,-0.000035,0.000020,-0.035718,-0.000452,0.000115,0.006292,-1.0373,-0.9721,0.0088,0.00001406,0.00001764,-0.00190808,-0.00156476,0.00166021,0.00721499,-0.1757,0.1949,-9.7480,-0.001368,-0.004251,-0.004167,28.7294,0.0350,134,0,0,0.000295,0.000411,-0.035379,-0.000622,0.002242,0.011869,-1.0317,-0.9778,0.0935
11719,11.0,-0.000035,0.000018,-0.035650,-0.000582,0.000359,0.006766,-1.0406,-0.9747,0.0081,0.00001424,0.00001790,-0.00190808,-0.00159839,0.00168257,0.00725059,-0.1880,0.2066,-9.7519,-0.003362,-0.001370,-0.002981,28.7294,0.0350,133,0,0,0.000311,0.000426,-0.034947,-0.000763,0.002359,0.015450,-1.0359,-0.9823,0.0914
11730,11.0,-0.000035,0.000019,-0.035248,-0.000478,0.000430,0.011112,-1.0520,-0.9778,0.0066,0.00001772,0.00001765,-0.00190806,-0.00168983,0.00168227,0.00411993,-0.1634,0.2050,-9.7548,-0.001979,-0.005094,-0.002838,28.7294,0.0350,138,0,0,0.000319,0.000435,-0.034787,-0.000742,0.002366,0.016424,-1.0417,-0.9848,0.0904
11741,11.0,-0.000035,0.000018,-0.035123,-0.000604,0.000553,0.012005,-1.0566,-0.9816,0.0079,0.00001806,0.00001797,-0.00190806,-0.00172483,0.00171833,0.00415054,-0.1884,0.2010,-9.7176,-0.004394,-0.003236,0.000137,28.7294,0.0360,138,0,0,0.000327,0.000441,-0.034618,-0.000722,0.002650,0.017408,-1.0427,-0.9853,0.0900
11752,11.0,-0.000036,0.000018,-0.034987,-0.000535,0.000455,0.012803,-1.0593,-0.9857,0.0085,0.00001811,0.00001865,-0.00190806,-0.00174553,0.00175500,0.00415147,-0.1713,0.1795,-9.7302,-0.002936,-0.002948,-0.001357,28.7294,0.0360,135,0,0,0.000343,0.000457,-0.035292,-0.000635,0.002455,0.008980,-1.0482,-0.9886,0.0886
11763,11.0,-0.000036,0.000019,-0.035480,-0.000477,0.000216,0.005709,-1.0619,-0.9883,0.0075,0.00001827,0.00001893,-0.00190805,-0.00166522,0.00165372,0.01063952,-0.1719,0.1646,-9.7554,-0.002677,-0.001793,-0.003283,28.7294,0.0360,134,0,0,0.000351,0.000465,-0.035201,-0.000597,0.002392,0.010011,-1.0474,-0.9893,0.0894
11774,11.0,-0.000037,0.000019,-0.035414,-0.000414,0.000242,0.006315,-1.0676,-0.9912,0.0076,0.00002003,0.00001941,-0.00190804,-0.00168375,0.00162962,0.01063929,-0.1709,0.1931,-9.7409,-0.003301,-0.002362,-0.001210,28.7294,0.0360,139,0,0,0.000367,0.000481,-0.035590,-0.000574,0.002150,0.005080,-1.0465,-0.9914,0.0894
11785,11.0,-0.000037,0.000018,-0.035366,-0.000453,0.000114,0.006616,-1.0683,-0.9946,0.0078,0.00002018,0.00001972,-0.00190804,-0.00170378,0.00163653,0.01090187,-0.1803,0.1748,-9.7411,-0.000394,-0.003782,-0.001479,28.7849,0.0360,137,0,0,0.000375,0.000489,-0.035554,-0.000563,0.002241,0.005814,-1.0473,-0.9913,0.0895
11796,11.0,-0.000038,0.000018,-0.035677,-0.000420,0.000210,0.002500,-1.0751,-0.9988,0.0070,0.00002343,0.00002088,-0.00190802,-0.00163815,0.00150186,0.01484605,-0.1762,0.2030,-9.7491,-0.002175,-0.002937,-0.002230,28.7849,0.0360,140,0,0,0.000383,0.000497,-0.035491,-0.000576,0.002174,0.006751,-1.0481,-0.9925,0.1350
11807,11.0,-0.000038,0.000016,-0.035666,-0.000514,0.000306,0.002772,-1.0786,-1.0031,0.0069,0.00002379,0.00002130,-0.00190801,-0.00166342,0.00152242,0.01504440,-0.1879,0.1997,-9.7456,-0.004053,-0.005036,-0.002149,28.7849,0.0370,137,0,0,0.000400,0.000513,-0.036348,-0.000472,0.002321,-0.002959,-1.0531,-0.9939,0.1342
11818,11.0,-0.000038,0.000016,-0.035633,-0.000385,0.000398,0.003145,-1.0853,-1.0046,0.0071,0.00002794,0.00002028,-0.00190798,-0.00171749,0.00145470,0.01504400,-0.1641,0.2077,-9.7575,-0.001300,-0.003918,0.000351,28.7849,0.0370,137,0,0,0.000409,0.000519,-0.036373,-0.000588,0.002543,-0.002175,-1.0544,-0.9946,0.1342
11829,11.0,-0.000039,0.000017,-0.036381,-0.000353,0.000166,-0.005756,-1.0882,-1.0072,0.0072,0.00002821,0.00002064,-0.00190798,-0.00160246,0.00132328,0.02285486,-0.1753,0.1690,-9.7492,-0.003482,-0.002795,-0.001710,28.7849,0.0370,139,0,0,0.000425,0.000536,-0.036428,-0.000486,0.002502,-0.000838,-1.0607,-0.9969,0.1343
11841,12.0,-0.000039,0.000017,-0.036448,-0.000252,0.000112,-0.005323,-1.0907,-1.0080,0.0050,0.00002785,0.00001993,-0.00190797,-0.00164080,0.00134506,0.02285592,-0.1671,0.1838,-9.7480,-0.004119,-0.001844,-0.004810,28.8087,0.0360,139,0,0,0.000433,0.000544,-0.036186,-0.000460,0.002472,0.002702,-1.0623,-0.9978,0.1340
11852,11.0,-0.000040,0.000016,-0.036538,0.000006,0.000003,-0.005327,-1.0927,-1.0112,0.0049,0.00002800,0.00001994,-0.00190797,-0.00163567,0.00134613,0.02319562,-0.1503,0.1794,-9.7468,-0.002717,-0.005003,-0.002266,28.8087,0.0360,137,0,0,0.000441,0.000552,-0.036155,-0.000386,0.002433,0.003527,-1.0634,-0.9976,0.1328
11863,11.0,-0.000040,0.000016,-0.036255,0.000075,0.000031,-0.000897,-1.0943,-1.0092,0.0042,0.00002884,0.00001833,-0.00190796,-0.00172475,0.00138803,0.01996456,-0.1648,0.1917,-9.7462,-0.001150,0.000532,-0.002096,28.8087,0.0360,137,0,0,0.000457,0.000569,-0.036111,-0.000167,0.002131,0.004674,-1.0636,-0.9953,0.1321
11874,11.0,-0.000040,0.000014,-0.036288,0.000096,0.000141,-0.000655,-1.0978,-1.0117,0.0041,0.00002913,0.00001827,-0.00190797,-0.00171757,0.00139671,0.02021447,-0.1709,0.2013,-9.7359,-0.004840,-0.004113,-0.002355,28.8087,0.0370,137,0,0,0.000466,0.000578,-0.036060,-0.000110,0.002109,0.005487,-1.0641,-0.9932,0.1324
11885,11.0,-0.000040,0.000013,-0.036292,-0.000059,0.000012,-0.000143,-1.0968,-1.0174,0.0067,0.00002670,0.00002236,-0.00190802,-0.00162956,0.00146024,0.02021410,-0.1939,0.1752,-9.7398,-0.001680,-0.003330,-0.000444,28.8087,0.0370,134,0,0,0.000474,0.000585,-0.036668,-0.000080,0.002217,-0.000790,-1.0647,-0.9937,0.1320
11896,11.0,-0.000039,0.000012,-0.036697,-0.000150,0.000011,-0.004531,-1.0991,-1.0198,0.0071,0.00002686,0.00002257,-0.00190802,-0.00157328,0.00139557,0.02392550,-0.1857,0.1899,-9.7494,-0.003208,-0.003375,-0.001329,28.8087,0.0370,141,0,0,0.000491,0.000601,-0.036665,-0.000208,0.002096,0.001109,-1.0608,-0.9976,0.0807
11907,11.0,-0.000039,0.000011,-0.036745,-0.000184,0.000071,-0.004255,-1.1036,-1.0235,0.0056,0.00002924,0.00002456,-0.00190801,-0.00154492,0.00135555,0.02392422,-0.1833,0.1991,-9.7573,-0.004104,-0.003209,-0.004186,28.8087,0.0360,138,0,0,0.000499,0.000609,-0.036299,-0.000207,0.002081,0.005780,-1.0617,-0.9993,0.0805
11918,11.0,-0.000039,0.000011,-0.036797,-0.000138,-0.000054,-0.004211,-1.1070,-1.0257,0.0049,0.00002931,0.00002479,-0.00190801,-0.00155227,0.00135678,0.02398032,-0.1747,0.1793,-9.7722,-0.005339,-0.003049,-0.003001,28.7374,0.0360,138,0,0,0.000516,0.000624,-0.036173,-0.000325,0.002237,0.007255,-1.0646,-1.0005,0.0786
11929,11.0,-0.000039,0.000010,-0.036922,-0.000069,-0.000035,-0.004847,-1.1099,-1.0278,0.0048,0.00003038,0.00002368,-0.00190799,-0.00157057,0.00132789,0.02468964,-0.1704,0.1942,-9.7541,-0.003358,-0.004439,-0.001439,28.7374,0.0370,138,0,0,0.000524,0.000631,-0.036097,-0.000292,0.002318,0.007996,-1.0650,-1.0005,0.0777
11940,11.0,-0.000039,0.000008,-0.036977,-0.000050,-0.000085,-0.004370,-1.1117,-1.0319,0.0058,0.00003053,0.00002378,-0.00190799,-0.00157306,0.00133187,0.02473112,-0.1759,0.1872,-9.7335,-0.002559,-0.006509,-0.000402,28.7374,0.0370,138,0,0,0.000533,0.000639,-0.036586,-0.000256,0.002295,0.002244,-1.0666,-1.0007,0.0776
11951,11.0,-0.000039,0.000006,-0.037023,0.000011,0.000013,-0.003921,-1.1158,-1.0341,0.0049,0.00003385,0.00002235,-0.00190796,-0.00160336,0.00127499,0.02473058,-0.1709,0.2042,-9.7408,-0.003113,-0.004725,-0.001999,28.7374,0.0370,136,0,0,0.000550,0.000654,-0.036527,-0.000224,0.002163,0.004214,-1.0663,-1.0031,0.0795
11962,11.0,-0.000039,0.000005,-0.035923,0.000128,0.000128,0.009988,-1.1176,-1.0373,0.0029,0.00003421,0.00002214,-0.00190798,-0.00177134,0.00147437,0.01499013,-0.1660,0.2055,-9.7443,-0.002330,-0.005315,-0.005509,28.7374,0.0350,138,0,0,0.000558,0.000661,-0.036489,-0.000151,0.002235,0.004932,-1.0669,-1.0041,0.0794
11973,11.0,-0.000039,0.000004,-0.035810,0.000232,0.000082,0.010602,-1.1192,-1.0366,0.0026,0.00003377,0.00001846,-0.00190797,-0.00182912,0.00149453,0.01499154,-0.1638,0.1888,-9.7361,-0.002931,-0.002210,-0.001754,28.7612,0.0350,137,0,0,0.000574,0.000676,-0.035409,0.000077,0.002336,0.016422,-1.0698,-1.0037,0.0792
11984,11.0,-0.000038,0.000004,-0.035706,0.000165,0.000128,0.010893,-1.1205,-1.0372,0.0030,0.00003404,0.00001822,-0.00190799,-0.00182013,0.00149922,0.01512435,-0.1827,0.1985,-9.7478,-0.001662,-0.001266,-0.001477,28.7612,0.0350,135,0,0,0.000582,0.000684,-0.035256,0.000081,0.002345,0.017114,-1.0714,-1.0041,0.0790
11995,11.0,-0.000038,0.000003,-0.035255,0.000257,0.000101,0.015234,-1.1224,-1.0373,0.0034,0.00003442,0.00001468,-0.00190798,-0.00191906,0.00155882,0.01240520,-0.1653,0.1925,-9.7499,-0.002536,-0.003148,-0.000462,28.7612,0.0350,144,0,0,0.000590,0.000691,-0.035081,0.000041,0.002459,0.017923,-1.0701,-1.0045,0.0060
12006,11.0,-0.000037,0.000002,-0.035098,0.000186,0.000002,0.015434,-1.1255,-1.0401,0.0023,0.00003468,0.00001443,-0.00190799,-0.00191094,0.00156316,0.01250671,-0.1836,0.1858,-9.7627,-0.004742,-0.004645,-0.003969,28.7612,0.0370,140,0,0,0.000607,0.000707,-0.036204,0.000079,0.002455,0.003535,-1.0726,-1.0031,0.0068
12017,11.0,-0.000037,0.000001,-0.034924,0.000175,-0.000028,0.016178,-1.1270,-1.0422,0.0016,0.00003428,0.00001398,-0.00190801,-0.00190779,0.00157669,0.01250691,-0.1778,0.1909,-9.7265,-0.002587,-0.003655,-0.003376,28.7612,0.0370,134,0,0,0.000615,0.000715,-0.036166,0.000070,0.002434,0.004198,-1.0745,-1.0045,0.0061
12028,11.0,-0.000036,-0.000001,-0.035987,0.000203,0.000035,0.002086,-1.1295,-1.0443,0.0017,0.00003463,0.00001362,-0.00190803,-0.00172175,0.00138646,0.02253970,-0.1745,0.2011,-9.7386,-0.003577,-0.003753,-0.002110,28.7612,0.0370,140,0,0,0.000624,0.000722,-0.036136,0.000030,0.002492,0.004916,-1.0746,-1.0053,0.0057
12039,11.0,-0.000036,-0.000001,-0.035962,0.000350,-0.000011,0.002396,-1.1308,-1.0427,0.0009,0.00003370,0.00000783,-0.00190801,-0.00180137,0.00140663,0.02254149,-0.1598,0.1899,-9.7562,-0.002665,-0.001560,-0.002052,28.7612,0.0360,142,0,0,0.000641,0.000738,-0.036011,0.000099,0.002489,0.006588,-1.0763,-1.0072,0.0058
12050,11.0,-0.000036,-0.000001,-0.035948,0.000448,-0.000144,0.002743,-1.1332,-1.0440,-0.0011,0.00003358,0.00000703,-0.00190804,-0.00178197,0.00140162,0.02266602,-0.1654,0.1811,-9.7360,-0.004002,-0.002546,-0.005506,28.7612,0.0360,139,0,0,0.000649,0.000746,-0.035941,0.000202,0.002470,0.007317,-1.0773,-1.0048,0.0056
12061,11.0,-0.000035,-0.000003,-0.035955,0.000289,-0.000168,0.002504,-1.1356,-1.0480,0.0000,0.00003282,0.00001058,-0.00190809,-0.00169540,0.00140556,0.02296953,-0.1936,0.1920,-9.7637,-0.004175,-0.004172,-0.001725,28.7612,0.0360,139,0,0,0.000657,0.000753,-0.035864,0.000254,0.002570,0.008111,-1.0773,-1.0049,0.0047
12072,11.0,-0.000035,-0.000003,-0.035938,0.000337,-0.000253,0.002650,-1.1382,-1.0498,0.0002,0.00003253,0.00000997,-0.00190810,-0.00168149,0.00139784,0.02306367,-0.1726,0.1858,-9.7576,-0.004426,-0.003310,-0.001830,28.7612,0.0370,136,0,0,0.000674,0.000769,-0.035711,0.000213,0.002411,0.009261,-1.0800,-1.0071,0.0054
12083,11.0,-0.000034,-0.000004,-0.035908,0.000396,-0.000357,0.002702,-1.1380,-1.0493,0.0005,0.00002783,0.00000635,-0.00190812,-0.00171449,0.00145421,0.02306531,-0.1701,0.1811,-9.7792,-0.002424,-0.001404,-0.001751,28.7612,0.0370,139,0,0,0.000683,0.000777,-0.036520,0.000229,0.002335,0.000321,-1.0805,-1.0069,0.0056
12094,11.0,-0.000033,-0.000005,-0.036495,0.000262,-0.000466,-0.004148,-1.1397,-1.0513,0.0018,0.00002706,0.00000579,-0.00190811,-0.00161979,0.00134633,0.02782891,-0.1899,0.1812,-9.7418,-0.003211,-0.003539,0.000131,28.7612,0.0370,142,0,0,0.000700,0.000794,-0.036503,0.000270,0.002198,0.001410,-1.0798,-1.0063,-0.0324
12105,11.0,-0.000032,-0.000007,-0.036538,0.000346,-0.000470,-0.003644,-1.1431,-1.0515,0.0019,0.00002452,0.00000146,-0.00190809,-0.00166852,0.00136038,0.02783002,-0.1680,0.1901,-9.7332,-0.006756,-0.002844,-0.001122,28.7612,0.0360,136,0,0,0.000709,0.000802,-0.036506,0.000129,0.002122,0.001927,-1.0800,-1.0064,-0.0318
12116,11.0,-0.000032,-0.000008,-0.036598,0.000449,-0.000514,-0.003378,-1.1444,-1.0533,0.0047,0.00002360,0.00000049,-0.00190809,-0.00164848,0.00134072,0.02800860,-0.1664,0.1872,-9.7295,-0.002559,-0.003443,0.002439,28.7823,0.0360,143,0,0,0.000718,0.000810,-0.036180,0.000135,0.002101,0.005969,-1.0820,-1.0068,-0.0314
12127,11.0,-0.000031,-0.000010,-0.036278,0.000341,-0.000453,0.001223,-1.1475,-1.0559,0.0049,0.00002337,0.00000228,-0.00190811,-0.00164597,0.00137089,0.02533314,-0.1885,0.1981,-9.7407,-0.005054,-0.003176,-0.002168,28.7823,0.0360,138,0,0,0.000735,0.000825,-0.036064,0.000190,0.002092,0.007321,-1.0837,-1.0078,-0.0284
12138,11.0,-0.000030,-0.000012,-0.036280,0.000307,-0.000331,0.001298,-1.1494,-1.0580,0.0060,0.00002286,0.00000162,-0.00190812,-0.00163264,0.00135985,0.02546927,-0.1817,0.2058,-9.7546,-0.003231,-0.003814,-0.000350,28.7823,0.0360,133,0,0,0.000744,0.000832,-0.035988,0.000081,0.002157,0.007998,-1.0851,-1.0074,-0.0282
12150,12.0,-0.000029,-0.000013,-0.036261,0.000257,-0.000540,0.002028,-1.1496,-1.0614,0.0083,0.00001395,0.00000168,-0.00190818,-0.00161515,0.00146668,0.02547099,-0.1836,0.1725,-9.7205,-0.004253,-0.004867,-0.000477,28.7823,0.0360,138,0,0,0.000760,0.000848,-0.035888,0.000193,0.002208,0.008463,-1.0888,-1.0070,-0.0275
12161,11.0,-0.000000,-0.000014,-0.036112,0.000424,-0.000528,0.003756,-1.1509,-1.0634,0.0068,0.00001269,0.00000785,-0.00190797,-0.00172593,0.00146554,0.02455380,-0.1969,0.1927,-9.7573,-0.002650,-0.000141,-0.002250,28.7823,0.0360,136,0,-1,0.000769,0.000856,-0.035823,0.000156,0.002143,0.009122,-1.0892,-1.0085,-0.0273
12172,11.0,0.000000,-0.000015,-0.036068,0.000534,-0.000413,0.004195,-1.1533,-1.0616,0.0058,0.00001404,0.00000091,-0.00190790,-0.00179056,0.00141635,0.02455396,-0.1650,0.2044,-9.7420,-0.003228,-0.000421,-0.001601,28.7823,0.0360,138,0,0,0.000806,0.000864,-0.035728,0.000052,0.002168,0.009770,-1.0894,-1.0075,-0.0277
12183,11.0,0.000001,-0.000016,-0.036043,0.000513,-0.000572,0.004260,-1.1539,-1.0634,0.0046,0.00001281,-0.00000039,-0.00190791,-0.00176855,0.00139510,0.02472712,-0.1791,0.1782,-9.7508,-0.001485,-0.003433,-0.003933,28.7823,0.0360,136,0,0,0.000822,0.000880,-0.035777,0.000209,0.002175,0.008762,-1.0911,-1.0067,-0.0282
12194,11.0,0.000001,-0.000017,-0.035990,0.000815,-0.000496,0.004750,-1.1559,-1.0610,0.0032,0.00001274,-0.00001626,-0.00190780,-0.00193938,0.00136772,0.02470044,-0.1419,0.2007,-9.7420,-0.003321,-0.003296,-0.000674,28.8404,0.0360,135,0,0,0.000830,0.000888,-0.035686,0.000213,0.002100,0.009455,-1.0905,-1.0071,-0.0366
12205,11.0,-0.000027,-0.000018,-0.035970,0.000621,-0.000554,0.004595,-1.1577,-1.0600,0.0057,0.00001145,-0.00002562,-0.00190804,-0.00180674,0.00134449,0.02495277,-0.1602,0.1879,-9.7583,-0.003183,-0.002429,0.000109,28.8404,0.0360,144,0,1,0.000838,0.000895,-0.035645,0.000432,0.002169,0.009563,-1.0918,-1.0078,-0.0361
12216,11.0,-0.000026,-0.000019,-0.035918,0.000558,-0.000777,0.005012,-1.1563,-1.0618,0.0065,-0.00000130,-0.00002695,-0.00190813,-0.00178611,0.00147342,0.02495481,-0.1822,0.1674,-9.7441,-0.003271,-0.003354,-0.003196,28.8404,0.0360,136,0,0,0.000827,0.000912,-0.035735,0.000411,0.001736,0.008022,-1.0915,-1.0065,-0.0362
12227,11.0,-0.000025,-0.000020,-0.035956,0.000493,-0.000881,0.004408,-1.1571,-1.0637,0.0064,-0.00000349,-0.00002830,-0.00190811,-0.00175632,0.00143176,0.02563225,-0.1830,0.1799,-9.7341,-0.002030,-0.003571,-0.001898,28.8404,0.0360,135,0,0,0.000835,0.000920,-0.035697,0.000386,0.001652,0.008218,-1.0909,-1.0068,-0.0370
12238,11.0,-0.000025,-0.000023,-0.035905,0.000558,-0.000889,0.004802,-1.1578,-1.0652,0.0070,-0.00000921,-0.00003441,-0.00190808,-0.00180027,0.00145446,0.02563339,-0.1698,0.1884,-9.7453,-0.003328,-0.004871,-0.000570,28.8404,0.0360,135,0,0,0.000845,0.000928,-0.035611,0.000209,0.001621,0.008919,-1.0914,-1.0065,-0.0379
12249,11.0,-0.000024,-0.000024,-0.035895,0.000613,-0.001057,0.004570,-1.1594,-1.0679,0.0078,-0.00001186,-0.00003612,-0.00190806,-0.00177331,0.00141548,0.02595512,-0.1719,0.1733,-9.7530,-0.003580,-0.004968,-0.000648,28.8404,0.0360,136,0,0,0.000861,0.000942,-0.035764,0.000363,0.001704,0.006730,-1.0914,-1.0077,-0.0371
12260,11.0,-0.000024,-0.000026,-0.035922,0.000686,-0.001120,0.004070,-1.1586,-1.0676,0.0079,-0.00002210,-0.00004366,-0.00190805,-0.00181416,0.00146329,0.02650361,-0.1680,0.1794,-9.7422,-0.002546,-0.002497,-0.001741,28.8061,0.0360,136,0,0,0.000869,0.000949,-0.035694,0.000380,0.001625,0.007312,-1.0915,-1.0083,-0.0367
12271,11.0,-0.000023,-0.000028,-0.035900,0.000713,-0.001099,0.004050,-1.1589,-1.0698,0.0077,-0.00002505,-0.00004577,-0.00190803,-0.00178608,0.00142516,0.02667730,-0.1736,0.1900,-9.7548,-0.001540,-0.004209,-0.002149,28.8061,0.0360,137,0,0,0.000886,0.000965,-0.035825,0.000480,0.001336,0.005405,-1.0901,-1.0084,-0.0358
12282,11.0,-0.000022,-0.000030,-0.035853,0.000639,-0.001059,0.004524,-1.1583,-1.0707,0.0080,-0.00003119,-0.00004756,-0.00190803,-0.00176223,0.00143009,0.02667687,-0.1837,0.1903,-9.7368,-0.001240,-0.001990,-0.001866,28.8061,0.0360,137,0,0,0.000895,0.000973,-0.035794,0.000467,0.001304,0.005659,-1.0899,-1.0088,-0.0358
12293,11.0,-0.000021,-0.000031,-0.035921,0.000622,-0.001143,0.003672,-1.1586,-1.0736,0.0063,-0.00003434,-0.00004949,-0.00190800,-0.00172590,0.00137919,0.02749977,-0.1787,0.1795,-9.7280,-0.001532,-0.005211,-0.004527,28.8061,0.0360,140,0,0,0.000912,0.000987,-0.035667,0.000298,0.001431,0.007124,-1.0888,-1.0097,-0.1015
12304,11.0,-0.000021,-0.000033,-0.035878,0.000718,-0.001079,0.004106,-1.1588,-1.0729,0.0054,-0.00003981,-0.00005856,-0.00190793,-0.00178848,0.00137333,0.02750066,-0.1663,0.1926,-9.7397,-0.002154,-0.002141,-0.002165,28.8061,0.0360,138,0,0,0.000920,0.000995,-0.035850,0.000268,0.001398,0.005051,-1.0887,-1.0108,-0.1023
12315,11.0,-0.000021,-0.000035,-0.035862,0.000901,-0.000985,0.004263,-1.1610,-1.0732,0.0049,-0.00004281,-0.00006135,-0.00190793,-0.00175448,0.00133676,0.02772083,-0.1581,0.1967,-9.7298,-0.004523,-0.001312,-0.002785,28.8061,0.0360,141,0,0,0.000929,0.001002,-0.035796,0.000316,0.001447,0.005761,-1.0890,-1.0102,-0.1024
12326,11.0,-0.000020,-0.000038,-0.035908,0.000964,-0.000921,0.003598,-1.1627,-1.0742,0.0036,-0.00004668,-0.00007135,-0.00190790,-0.00179668,0.00131413,0.02835692,-0.1667,0.1959,-9.7377,-0.003925,-0.004819,-0.002800,28.8061,0.0360,134,0,0,0.000945,0.001017,-0.035704,0.000506,0.001594,0.006528,-1.0903,-1.0089,-0.1029
12337,11.0,-0.000019,-0.000040,-0.035880,0.000933,-0.000798,0.003971,-1.1628,-1.0756,0.0044,-0.00004903,-0.00007442,-0.00190793,-0.00176318,0.00128782,0.02845649,-0.1769,0.2024,-9.7278,-0.000806,-0.003207,-0.000897,28.7717,0.0360,137,0,0,0.000954,0.001024,-0.035847,0.000511,0.001617,0.004917,-1.0915,-1.0095,-0.1024
12348,11.0,-0.000018,-0.000042,-0.035834,0.000924,-0.000794,0.004380,-1.1624,-1.0766,0.0051,-0.00005443,-0.00008146,-0.00190794,-0.00178010,0.00130214,0.02845696,-0.1747,0.1915,-9.7410,-0.001110,-0.003922,-0.000840,28.7717,0.0360,139,0,0,0.000962,0.001031,-0.035809,0.000474,0.001694,0.005510,-1.0907,-1.0094,-0.1019
12359,11.0,-0.000016,-0.000042,-0.035906,0.000785,-0.000928,0.003176,-1.1632,-1.0769,0.0051,-0.00005750,-0.00008413,-0.00190794,-0.00173976,0.00125651,0.02925307,-0.1897,0.1776,-9.7576,-0.002185,-0.001245,-0.001832,28.7717,0.0360,138,0,0,0.000980,0.001047,-0.035708,0.000361,0.001493,0.006669,-1.0913,-1.0102,-0.1016
12370,11.0,-0.000015,-0.000044,-0.035869,0.000807,-0.000958,0.003537,-1.1644,-1.0763,0.0054,-0.00006646,-0.00009123,-0.00190794,-0.00176639,0.00129516,0.02925416,-0.1738,0.1855,-9.7446,-0.004591,-0.001269,-0.001622,28.7717,0.0360,134,0,0,0.000988,0.001055,-0.035639,0.000276,0.001419,0.007156,-1.0906,-1.0112,-0.1014
12381,11.0,-0.000014,-0.000045,-0.035849,0.000726,-0.000880,0.003451,-1.1647,-1.0774,0.0041,-0.00006931,-0.00009375,-0.00190794,-0.00174012,0.00126549,0.02938068,-0.1851,0.1982,-9.7639,-0.001282,-0.002354,-0.004060,28.7717,0.0360,134,0,0,0.000997,0.001062,-0.035839,0.000254,0.001484,0.004886,-1.0910,-1.0110,-0.1009
12392,11.0,-0.000013,-0.000046,-0.035906,0.000738,-0.000936,0.002726,-1.1649,-1.0769,0.0033,-0.00007948,-0.00010016,-0.00190795,-0.00174976,0.00130401,0.03000691,-0.1755,0.1832,-9.7394,-0.003351,-0.001149,-0.003474,28.8510,0.0360,138,0,0,0.001014,0.001078,-0.035749,0.000205,0.001431,0.005693,-1.0905,-1.0116,-0.0976
12403,11.0,-0.000012,-0.000048,-0.035912,0.000659,-0.001074,0.002479,-1.1668,-1.0785,0.0019,-0.00008301,-0.00010244,-0.00190792,-0.00172441,0.00126695,0.03025230,-0.1859,0.1768,-9.7580,-0.003981,-0.003145,-0.003984,28.8510,0.0360,145,0,0,0.001022,0.001086,-0.035755,0.000190,0.001388,0.005560,-1.0902,-1.0114,-0.0985
12414,11.0,-0.000011,-0.000050,-0.035882,0.000556,-0.001024,0.002931,-1.1683,-1.0801,0.0020,-0.00008926,-0.00010240,-0.00190793,-0.00168534,0.00126782,0.03025153,-0.1894,0.1936,-9.7350,-0.004209,-0.002606,-0.002462,28.8510,0.0360,144,0,0,0.001040,0.001102,-0.035830,-0.000013,0.001146,0.004837,-1.0890,-1.0118,-0.0980
12425,11.0,-0.000010,-0.000051,-0.035952,0.000421,-0.001056,0.002045,-1.1701,-1.0815,-0.0001,-0.00009290,-0.00010389,-0.00190788,-0.00166032,0.00122310,0.03090708,-0.1938,0.1867,-9.7456,-0.003875,-0.002538,-0.005029,28.8510,0.0360,138,0,0,0.001049,0.001109,-0.035827,-0.000086,0.001099,0.005003,-1.0897,-1.0118,-0.0977
12436,11.0,-0.000009,-0.000053,-0.035929,0.000545,-0.001058,0.002180,-1.1701,-1.0818,-0.0016,-0.00010141,-0.00011354,-0.00190780,-0.00172810,0.00124654,0.03090861,-0.1680,0.1893,-9.7636,-0.002417,-0.003202,-0.003432,28.8510,0.0360,135,0,0,0.001057,0.001117,-0.035775,-0.000130,0.001052,0.005571,-1.0897,-1.0125,-0.0990
12447,11.0,-0.000009,-0.000056,-0.035952,0.000626,-0.000953,0.001886,-1.1726,-1.0840,-0.0020,-0.00010456,-0.00011579,-0.00190778,-0.00170312,0.00121369,0.03121986,-0.1724,0.2013,-9.7489,-0.004741,-0.004096,-0.002428,28.8510,0.0360,139,0,0,0.001074,0.001132,-0.035869,-0.000053,0.001194,0.004414,-1.0914,-1.0133,-0.1006
12458,11.0,-0.000009,-0.000057,-0.035961,0.000699,-0.001059,0.001583,-1.1720,-1.0839,-0.0024,-0.00011808,-0.00012465,-0.00190778,-0.00174592,0.00128364,0.03140809,-0.1718,0.1792,-9.7712,-0.002645,-0.002262,-0.003022,28.8510,0.0360,138,0,0,0.001082,0.001138,-0.035822,0.000005,0.001281,0.005041,-1.0925,-1.0140,-0.1008
12469,11.0,-0.000008,-0.000057,-0.035979,0.000682,-0.001235,0.001527,-1.1734,-1.0831,-0.0023,-0.00012290,-0.00012722,-0.00190773,-0.00172030,0.00123940,0.03164421,-0.1808,0.1713,-9.7395,-0.003421,0.000525,-0.001383,28.8510,0.0360,138,0,0,0.001099,0.001153,-0.035875,-0.000073,0.001346,0.004442,-1.0920,-1.0136,-0.1024
12480,11.0,-0.000007,-0.000059,-0.035960,0.000744,-0.001252,0.001976,-1.1725,-1.0850,-0.0024,-0.00013395,-0.00013673,-0.00190769,-0.00176756,0.00127620,0.03164562,-0.1714,0.1862,-9.7343,-0.001498,-0.005537,-0.001756,28.9646,0.0360,137,0,0,0.001108,0.001162,-0.035912,-0.000044,0.001268,0.004124,-1.0913,-1.0124,-0.1022
12491,11.0,-0.000007,-0.000062,-0.036017,0.000853,-0.001123,0.001291,-1.1747,-1.0862,-0.0453,-0.00013817,-0.00014000,-0.00190035,-0.00170173,0.00126149,0.03213463,-0.1684,0.2010,-9.7513,-0.005136,-0.001883,-0.003398,28.9646,0.0360,137,0,0,0.001116,0.001169,-0.035867,0.000016,0.001268,0.004854,-1.0908,-1.0140,-0.1356
12502,11.0,-0.000006,-0.000062,-0.036002,0.000959,-0.001305,0.001354,-1.1737,-1.0826,-0.0455,-0.00015906,-0.00015288,-0.00190036,-0.00176824,0.00138035,0.03213790,-0.1659,0.1680,-9.7694,-0.003854,0.002290,-0.002749,28.9646,0.0360,137,0,0,0.001132,0.001184,-0.035967,0.000097,0.001397,0.003490,-1.0939,-1.0130,-0.1347
12513,11.0,-0.000005,-0.000063,-0.036076,0.000965,-0.001370,0.000667,-1.1755,-1.0840,-0.0455,-0.00016427,-0.00015672,-0.00190034,-0.00172831,0.00132937,0.03269930,-0.1755,0.1814,-9.7374,-0.004109,-0.003191,-0.001729,28.9646,0.0360,138,0,0,0.001141,0.001192,-0.035931,0.000159,0.001294,0.003851,-1.0934,-1.0108,-0.1347
12524,11.0,-0.000004,-0.000066,-0.036023,0.000981,-0.001348,0.001328,-1.1761,-1.0849,-0.0446,-0.00017490,-0.00016627,-0.00190031,-0.00176121,0.00135364,0.03243135,-0.1739,0.1896,-9.7618,-0.003447,-0.003858,-0.000319,28.9646,0.0360,137,0,0,0.001149,0.001200,-0.035987,0.000180,0.001254,0.003330,-1.0936,-1.0110,-0.1345
12536,12.0,-0.000003,-0.000069,-0.036084,0.001110,-0.001321,0.000561,-1.1763,-1.0871,-0.0460,-0.00018001,-0.00017092,-0.00190031,-0.00171773,0.00130631,0.03291080,-0.1652,0.1922,-9.7592,-0.001451,-0.004126,-0.004030,28.9884,0.0360,139,0,0,0.001165,0.001215,-0.035956,0.000351,0.001094,0.004072,-1.0942,-1.0110,-0.1341
12547,11.0,-0.000002,-0.000071,-0.036076,0.001065,-0.001352,0.000895,-1.1749,-1.0883,-0.0464,-0.00019371,-0.00017905,-0.00190033,-0.00172174,0.00135210,0.03291158,-0.1788,0.1837,-9.7434,-0.001212,-0.003858,-0.003155,28.9884,0.0360,143,0,0,0.001174,0.001223,-0.035995,0.000400,0.001108,0.003659,-1.0941,-1.0114,-0.1353
12558,11.0,-0.000001,-0.000073,-0.036080,0.001109,-0.001304,0.001005,-1.1766,-1.0893,-0.0467,-0.00019893,-0.00018367,-0.00190033,-0.00168647,0.00131240,0.03300120,-0.1714,0.1926,-9.7472,-0.003820,-0.002569,-0.002295,28.9884,0.0360,137,0,0,0.001190,0.001237,-0.036039,0.000439,0.001007,0.003181,-1.0918,-1.0130,-0.1353
12570,12.0,0.000001,-0.000076,-0.036067,0.001035,-0.001362,0.001198,-1.1759,-1.0896,-0.0458,-0.00021379,-0.00018981,-0.00190036,-0.00167199,0.00136203,0.03300171,-0.1831,0.1826,-9.7576,-0.002156,-0.001783,-0.001520,28.9884,0.0360,136,0,0,0.001199,0.001244,-0.035994,0.000510,0.001063,0.003943,-1.0924,-1.0125,-0.1359
12581,11.0,0.000003,-0.000077,-0.036156,0.000881,-0.001355,0.000062,-1.1757,-1.0898,-0.0461,-0.00021964,-0.00019370,-0.00190032,-0.00163366,0.00130930,0.03361121,-0.1922,0.1882,-9.7646,-0.001049,-0.001171,-0.002173,28.9884,0.0360,136,0,0,0.001216,0.001260,-0.036008,0.000462,0.001076,0.003727,-1.0925,-1.0118,-0.1356
12592,11.0,0.000004,-0.000079,-0.036061,0.000844,-0.001404,0.001241,-1.1755,-1.0908,-0.0469,-0.00023509,-0.00019977,-0.00190033,-0.00164304,0.00137410,0.03307436,-0.1818,0.1817,-9.7650,-0.003242,-0.003092,-0.003849,28.9884,0.0360,138,0,0,0.001224,0.001268,-0.035969,0.000427,0.001128,0.004101,-1.0921,-1.0125,-0.1954
12603,11.0,0.000004,-0.000081,-0.036123,0.000983,-0.001357,0.000663,-1.1775,-1.0921,0.0466,-0.00024062,-0.00020407,-0.00191852,-0.00167941,0.00125915,0.03352910,-0.1636,0.1932,-9.7418,-0.002869,-0.004594,-0.001309,28.9884,0.0360,141,0,0,0.001233,0.001275,-0.036085,0.000373,0.001094,0.002703,-1.0927,-1.0124,-0.1964
12614,11.0,0.000004,-0.000082,-0.036115,0.001132,-0.001417,0.000687,-1.1756,-1.0903,0.0457,-0.00025735,-0.00022238,-0.00191848,-0.00177198,0.00131888,0.03353168,-0.1604,0.1803,-9.7714,-0.000916,-0.001386,-0.002755,28.9303,0.0360,138,0,0,0.001250,0.001291,-0.035973,0.000299,0.000796,0.004176,-1.0927,-1.0134,-0.1963
12625,11.0,0.000005,-0.000086,-0.036086,0.001165,-0.001202,0.001351,-1.1774,-1.0926,0.0451,-0.00026210,-0.00022748,-0.00191850,-0.00173975,0.00128905,0.03341927,-0.1720,0.2094,-9.7332,-0.003928,-0.004779,-0.003028,28.9303,0.0360,136,0,0,0.001258,0.001299,-0.036014,0.000381,0.000750,0.003623,-1.0914,-1.0125,-0.1966
12636,11.0,0.000007,-0.000087,-0.036069,0.001050,-0.001212,0.001759,-1.1779,-1.0936,0.0454,-0.00027449,-0.00023225,-0.00191855,-0.00171064,0.00132337,0.03341925,-0.1870,0.1874,-9.7360,-0.003645,-0.002681,-0.002305,28.9303,0.0360,137,0,0,0.001267,0.001305,-0.035975,0.000329,0.000902,0.004152,-1.0925,-1.0131,-0.1969
12647,11.0,0.000007,-0.000090,-0.036126,0.001106,-0.001277,0.001161,-1.1775,-1.0966,0.0443,-0.00027967,-0.00023734,-0.00191855,-0.00166936,0.00128088,0.03386885,-0.1710,0.1839,-9.7423,-0.000475,-0.005746,-0.003794,28.9303,0.0360,142,0,0,0.001284,0.001321,-0.035976,0.000325,0.000780,0.004345,-1.0929,-1.0134,-0.1973
12659,12.0,0.000009,-0.000092,-0.036041,0.001097,-0.001450,0.002260,-1.1769,-1.0961,0.0429,-0.00030173,-0.00024728,-0.00191860,-0.00169129,0.00139025,0.03349007,-0.1780,0.1714,-9.7480,-0.003810,-0.001346,-0.004963,28.9303,0.0360,141,0,0,0.001293,0.001327,-0.035930,0.000342,0.000770,0.004894,-1.0921,-1.0148,-0.1985
12670,11.0,0.000009,-0.000092,-0.036072,0.001233,-0.001554,0.001680,-1.1778,-1.0961,0.0438,-0.00030884,-0.00025298,-0.00191858,-0.00164911,0.00133873,0.03381181,-0.1631,0.1762,-9.7645,-0.002883,-0.001144,-0.000373,28.9170,0.0360,145,0,0,0.001309,0.001343,-0.035939,0.000416,0.000605,0.004707,-1.0910,-1.0135,-0.1967
12681,11.0,0.000010,-0.000095,-0.036053,0.001334,-0.001578,0.001887,-1.1781,-1.0961,0.0441,-0.00032558,-0.00027185,-0.00191854,-0.00172656,0.00138652,0.03381388,-0.1633,0.1828,-9.7545,-0.004122,-0.004176,-0.000975,28.9170,0.0360,140,0,0,0.001317,0.001352,-0.035958,0.000502,0.000453,0.004228,-1.0912,-1.0129,-0.1962
12692,11.0,0.000012,-0.000096,-0.036049,0.001220,-0.001818,0.002058,-1.1770,-1.0989,0.0437,-0.00033349,-0.00027764,-0.00191850,-0.00168850,0.00133529,0.03391600,-0.1855,0.1618,-9.7375,0.000146,-0.005602,-0.002418,28.9170,0.0360,134,0,0,0.001335,0.001367,-0.035864,0.000521,0.000261,0.005352,-1.0914,-1.0130,-0.1594
12703,11.0,0.000013,-0.000099,-0.036024,0.001149,-0.001689,0.002370,-1.1766,-1.1006,0.0452,-0.00034375,-0.00028616,-0.00191845,-0.00168297,0.00131519,0.03391531,-0.1826,0.1961,-9.7441,-0.001499,-0.004635,0.000663,28.9170,0.0360,134,0,0,0.001343,0.001374,-0.035972,0.000454,0.000203,0.004134,-1.0897,-1.0147,-0.1585
12713,10.0,0.000013,-0.000100,-0.036071,0.001099,-0.001648,0.001683,-1.1785,-1.1010,0.1314,-0.00035116,-0.00029128,-0.00193754,-0.00171954,0.00119331,0.03431447,-0.1810,0.1885,-9.7552,-0.003335,-0.003626,-0.004180,28.9170,0.0360,140,0,0,0.001351,0.001382,-0.035928,0.000541,0.000170,0.004618,-1.0897,-1.0140,-0.1575
12724,11.0,0.000014,-0.000102,-0.036016,0.001133,-0.001571,0.002225,-1.1795,-1.0996,0.1301,-0.00036377,-0.00030433,-0.00193748,-0.00176066,0.00120002,0.03412013,-0.1736,0.1920,-9.7613,-0.004181,-0.000593,-0.003442,28.9170,0.0360,133,0,0,0.001368,0.001396,-0.035915,0.000519,0.000167,0.004557,-1.0899,-1.0142,-0.1585
12735,11.0,0.000015,-0.000104,-0.036046,0.001209,-0.001383,0.001721,-1.1811,-1.1002,0.1282,-0.00037012,-0.00031003,-0.00193747,-0.00172105,0.00115630,0.03442886,-0.1698,0.2054,-9.7569,-0.004073,-0.002100,-0.004948,28.9170,0.0370,132,0,0,0.001377,0.001404,-0.036549,0.000553,0.000204,-0.002479,-1.0902,-1.0123,-0.1592
12746,11.0,0.000017,-0.000106,-0.036025,0.001049,-0.001348,0.002147,-1.1831,-1.0999,0.1280,-0.00038324,-0.00031226,-0.00193751,-0.00166973,0.00117648,0.03442815,-0.1932,0.1901,-9.7331,-0.005885,0.000078,-0.003041,28.9170,0.0370,140,0,0,0.001386,0.001412,-0.036632,0.000548,0.000328,-0.002779,-1.0906,-1.0117,-0.1603
12757,11.0,-0.000011,-0.000108,-0.036579,0.000717,-0.001365,-0.004366,-1.1848,-1.0993,0.1286,-0.00039002,-0.00033044,-0.00193779,-0.00150854,0.00107850,0.03752444,-0.1793,0.1873,-9.7464,-0.004108,-0.002140,-0.001914,28.9170,0.0370,142,0,1,0.001375,0.001427,-0.036770,0.000375,0.000291,-0.002807,-1.0925,-1.0126,-0.1603
12768,11.0,-0.000010,-0.000110,-0.036626,0.000818,-0.001284,-0.004091,-1.1857,-1.0986,0.1295,-0.00039936,-0.00034418,-0.00193770,-0.00157103,0.00107349,0.03752529,-0.1699,0.1968,-9.7441,-0.003432,-0.002075,0.000479,28.9170,0.0360,136,0,0,0.001384,0.001434,-0.036312,0.000365,0.000335,0.003015,-1.0932,-1.0121,-0.1605
12779,11.0,-0.000010,-0.000112,-0.036743,0.000893,-0.001151,-0.004861,-1.1860,-1.0996,0.1308,-0.00040474,-0.00034857,-0.00193769,-0.00153866,0.00103516,0.03791912,-0.1730,0.2040,-9.7594,-0.001617,-0.002662,0.000067,28.9170,0.0360,143,0,0,0.001392,0.001441,-0.036279,0.000382,0.000466,0.003563,-1.0933,-1.0115,-0.1593
12790,11.0,-0.000010,-0.000115,-0.036353,0.001093,-0.001112,0.000562,-1.1868,-1.0996,0.1312,-0.00041331,-0.00037060,-0.00193761,-0.00169687,0.00108917,0.03559855,-0.1572,0.1958,-9.7459,-0.003287,-0.004744,-0.000022,28.9170,0.0360,135,0,0,0.001409,0.001456,-0.036281,0.000381,0.000577,0.003572,-1.0959,-1.0111,-0.1211
12801,11.0,-0.000009,-0.000116,-0.036402,0.001064,-0.001149,-0.000053,-1.1857,-1.1009,0.1311,-0.00041868,-0.00037598,-0.00193762,-0.00166118,0.00105303,0.03589919,-0.1807,0.1890,-9.7655,0.000568,-0.003168,-0.002110,28.9170,0.0370,137,0,0,0.001418,0.001463,-0.036734,0.000450,0.000612,-0.001335,-1.0962,-1.0109,-0.1207
12813,12.0,-0.000007,-0.000118,-0.036401,0.001114,-0.001509,0.000314,-1.1823,-1.1024,0.1329,-0.00045110,-0.00039024,-0.00193772,-0.00170394,0.00122881,0.03590310,-0.1731,0.1563,-9.7409,-0.001268,-0.005000,-0.000750,28.9170,0.0370,135,0,0,0.001435,0.001479,-0.036753,0.000451,0.000667,-0.000454,-1.0963,-1.0095,-0.1215
12823,10.0,-0.000007,-0.000119,-0.036753,0.001007,-0.001509,-0.003527,-1.1840,-1.1029,0.2165,-0.00045844,-0.00039544,-0.00195767,-0.00171730,0.00108310,0.03774899,-0.1878,0.1866,-9.7373,-0.002935,-0.003884,0.000671,28.8827,0.0370,137,0,0,0.001444,0.001487,-0.036832,0.000488,0.000505,-0.000864,-1.0956,-1.0102,-0.1208
12835,12.0,-0.000005,-0.000123,-0.036794,0.001013,-0.001483,-0.003291,-1.1851,-1.1046,0.2172,-0.00047194,-0.00040608,-0.00195764,-0.00173690,0.00110075,0.03774949,-0.1790,0.1910,-9.7491,-0.004335,-0.004700,-0.000923,28.8827,0.0360,137,0,0,0.001453,0.001494,-0.036330,0.000435,0.000504,0.005266,-1.0955,-1.0120,-0.1194
12846,11.0,-0.000004,-0.000125,-0.036890,0.001042,-0.001363,-0.003814,-1.1856,-1.1047,0.2167,-0.00047880,-0.00041139,-0.00195761,-0.00170221,0.00105730,0.03807000,-0.1764,0.1997,-9.7494,-0.002254,-0.001293,-0.002732,28.8827,0.0360,137,0,0,0.001470,0.001508,-0.036267,0.000328,0.000397,0.005781,-1.0955,-1.0132,-0.1191
12857,11.0,-0.000003,-0.000127,-0.036961,0.001097,-0.001364,-0.003858,-1.1844,-1.1051,0.2176,-0.00049341,-0.00042667,-0.00195759,-0.00174887,0.00108639,0.03822434,-0.1720,0.1883,-9.7408,-0.001142,-0.003864,-0.000345,28.8827,0.0370,138,0,0,0.001479,0.001516,-0.036207,0.000295,0.000451,0.006217,-1.0952,-1.0128,-0.1190
12868,11.0,-0.000001,-0.000129,-0.037049,0.000979,-0.001411,-0.004379,-1.1875,-1.1063,0.2178,-0.00050021,-0.00043151,-0.00195755,-0.00171857,0.00104540,0.03846462,-0.1913,0.1850,-9.7650,-0.006274,-0.003051,-0.001453,28.8827,0.0370,138,0,0,0.001496,0.001531,-0.036676,0.000242,0.000466,0.001257,-1.0943,-1.0135,-0.1180
12879,11.0,0.000028,-0.000132,-0.037097,0.001370,-0.001209,-0.004285,-1.1891,-1.1081,0.2147,-0.00050183,-0.00043300,-0.00195711,-0.00184324,0.00098304,0.03846568,-0.1720,0.2108,-9.7593,-0.003098,-0.004058,-0.004703,28.8827,0.0370,134,0,-1,0.001505,0.001538,-0.036723,0.000180,0.000491,0.000760,-1.0961,-1.0146,-0.1181
12890,11.0,0.000029,-0.000133,-0.037092,0.001383,-0.001237,-0.003591,-1.1907,-1.1076,0.2134,-0.00050812,-0.00044001,-0.00195714,-0.00181100,0.00095488,0.03820701,-0.1753,0.1884,-9.7595,-0.004081,-0.000514,-0.004126,28.8827,0.0370,135,0,0,0.001543,0.001544,-0.036714,0.000286,0.000699,0.001106,-1.0968,-1.0153,-0.0804
12901,11.0,0.000030,-0.000134,-0.037130,0.001451,-0.001308,-0.003416,-1.1909,-1.1060,0.2136,-0.00052683,-0.00045973,-0.00195717,-0.00187210,0.00101909,0.03820910,-0.1677,0.1825,-9.7529,-0.004124,-0.001570,-0.001648,28.9408,0.0360,135,0,0,0.001552,0.001552,-0.036701,0.000325,0.000688,0.001498,-1.0972,-1.0148,-0.0810
12912,11.0,0.000031,-0.000136,-0.037248,0.001506,-0.001366,-0.004057,-1.1905,-1.1081,0.2153,-0.00053340,-0.00046767,-0.00195721,-0.00182353,0.00097687,0.03862325,-0.1691,0.1852,-9.7382,-0.000846,-0.004888,0.000594,28.9408,0.0360,142,0,0,0.001568,0.001567,-0.036227,0.000329,0.000586,0.006639,-1.0981,-1.0164,-0.0807
12923,11.0,0.000032,-0.000138,-0.037124,0.001570,-0.001337,-0.001847,-1.1913,-1.1067,0.2152,-0.00054681,-0.00048867,-0.00195721,-0.00190177,0.00101419,0.03779982,-0.1666,0.1920,-9.7441,-0.004080,-0.002024,-0.001585,28.9408,0.0370,138,0,0,0.001577,0.001574,-0.036246,0.000315,0.000566,0.006164,-1.0972,-1.0171,-0.0798
12934,11.0,0.000033,-0.000138,-0.037205,0.001578,-0.001688,-0.002330,-1.1906,-1.1094,0.0942,-0.00055513,-0.00049702,-0.00192470,-0.00173707,0.00107310,0.03811530,-0.1740,0.1541,-9.7451,-0.002806,-0.003583,-0.003148,28.9408,0.0370,141,0,0,0.001594,0.001590,-0.036610,0.000501,0.000478,0.002367,-1.0994,-1.0159,-0.0809
12945,11.0,0.000035,-0.000140,-0.037228,0.001632,-0.001700,-0.001886,-1.1900,-1.1079,0.0931,-0.00057553,-0.00051878,-0.00192470,-0.00179931,0.00112220,0.03811708,-0.1666,0.1833,-9.7285,-0.003151,-0.001935,-0.003414,28.9408,0.0370,135,0,0,0.001602,0.001598,-0.036661,0.000471,0.000321,0.001961,-1.0974,-1.0167,-0.0809
12956,11.0,0.000035,-0.000143,-0.036612,0.001700,-0.001668,0.005515,-1.1897,-1.1096,0.0922,-0.00058326,-0.00052721,-0.00192473,-0.00181159,0.00114262,0.03500890,-0.1668,0.1907,-9.7715,-0.001196,-0.004323,-0.003486,28.9620,0.0360,142,0,0,0.001611,0.001606,-0.036638,0.000493,0.000272,0.002550,-1.0976,-1.0165,-0.0814
12967,11.0,0.000037,-0.000147,-0.036549,0.001689,-0.001384,0.005862,-1.1899,-1.1103,0.0907,-0.00058237,-0.00054655,-0.00192467,-0.00184739,0.00104931,0.03500752,-0.1722,0.2170,-9.7395,-0.000302,-0.004905,-0.002997,28.9620,0.0360,137,0,0,0.001628,0.001621,-0.036239,0.000527,0.000288,0.006666,-1.0963,-1.0155,-0.0829
12980,13.0,0.000042,-0.000152,-0.036565,0.001589,-0.001497,0.005017,-1.1917,-1.1133,0.0917,-0.00058978,-0.00055518,-0.00192472,-0.00179657,0.00100367,0.03546821,-0.1844,0.1829,-9.7507,-0.003893,-0.005655,-0.000715,28.9620,0.0360,137,0,0,0.001637,0.001627,-0.036169,0.000521,0.000421,0.007186,-1.0977,-1.0163,-0.0835
12991,11.0,0.000043,-0.000154,-0.036217,0.001543,-0.001231,0.008627,-1.1924,-1.1128,0.0899,-0.00058882,-0.00057053,-0.00192468,-0.00183697,0.00094456,0.03407905,-0.1780,0.2165,-9.7485,-0.001211,-0.002203,-0.003853,28.9620,0.0360,136,0,0,0.001654,0.001641,-0.036141,0.000532,0.000471,0.006913,-1.0982,-1.0184,-0.1541
13002,11.0,0.000044,-0.000156,-0.036190,0.001503,-0.001178,0.008194,-1.1945,-1.1125,0.0908,-0.00059506,-0.00057862,-0.00192474,-0.00179142,0.00090722,0.03442050,-0.1789,0.1965,-9.7357,-0.004763,-0.001213,-0.000588,28.9620,0.0370,138,0,0,0.001663,0.001648,-0.036725,0.000458,0.000729,0.000396,-1.0979,-1.0180,-0.1549
13013,11.0,0.000046,-0.000157,-0.036099,0.001327,-0.001248,0.008300,-1.1939,-1.1139,0.0905,-0.00061280,-0.00058400,-0.00192487,-0.00174365,0.00096521,0.03442056,-0.1938,0.1846,-9.7624,-0.002658,-0.003380,-0.003567,28.9620,0.0370,134,0,0,0.001681,0.001663,-0.036708,0.000267,0.000858,0.001236,-1.0991,-1.0173,-0.1557
13024,11.0,0.000047,-0.000158,-0.035498,0.001435,-0.001449,0.014654,-1.1936,-1.1149,0.0904,-0.00061988,-0.00059132,-0.00192489,-0.00175003,0.00097735,0.03203320,-0.1660,0.1710,-9.7288,-0.001146,-0.003211,-0.002119,28.9620,0.0350,137,0,0,0.001690,0.001671,-0.036815,0.000197,0.000838,0.000238,-1.0986,-1.0183,-0.1559
13035,11.0,0.000048,-0.000160,-0.035334,0.001396,-0.001352,0.015141,-1.1924,-1.1154,0.0898,-0.00062987,-0.00060598,-0.00192489,-0.00176745,0.00096836,0.03203312,-0.1789,0.1988,-9.7301,-0.000328,-0.003820,-0.002627,28.9276,0.0350,137,0,0,0.001698,0.001679,-0.035700,0.000255,0.000702,0.012636,-1.0981,-1.0184,-0.1560
13046,11.0,0.000049,-0.000161,-0.035243,0.001323,-0.001527,0.014672,-1.1939,-1.1162,0.1242,-0.00063780,-0.00061313,-0.00193492,-0.00176062,0.00089142,0.03240416,-0.1840,0.1727,-9.7334,-0.003377,-0.003468,-0.000595,28.9276,0.0350,142,0,0,0.001714,0.001692,-0.035506,0.000235,0.000797,0.013092,-1.0987,-1.0198,-0.1560
13057,11.0,0.000050,-0.000163,-0.036121,0.001333,-0.001627,0.002782,-1.1935,-1.1165,0.1232,-0.00066287,-0.00063006,-0.00193495,-0.00170434,0.00087569,0.03726007,-0.1760,0.1770,-9.7552,-0.004441,-0.003814,-0.003928,28.9276,0.0370,137,0,0,0.001723,0.001700,-0.035373,0.000209,0.000718,0.013636,-1.0978,-1.0207,-0.1543
13068,11.0,0.000051,-0.000164,-0.036149,0.001358,-0.001756,0.002092,-1.1926,-1.1169,0.1227,-0.00067225,-0.00063755,-0.00193491,-0.00166364,0.00082572,0.03754148,-0.1756,0.1746,-9.7680,-0.000402,-0.002253,-0.002774,28.9276,0.0370,140,0,0,0.001731,0.001707,-0.036332,0.000206,0.000655,0.002121,-1.0990,-1.0212,-0.1554
13080,12.0,0.000053,-0.000167,-0.036122,0.001504,-0.001798,0.002439,-1.1921,-1.1154,0.1230,-0.00069491,-0.00066202,-0.00193486,-0.00174892,0.00088083,0.03754379,-0.1632,0.1817,-9.7407,-0.003545,-0.002503,-0.001099,28.9276,0.0370,139,0,0,0.001749,0.001723,-0.036363,0.000219,0.000602,0.001691,-1.0964,-1.0189,-0.1551
13091,11.0,0.000053,-0.000141,-0.035529,0.001582,-0.001634,0.009091,-1.1886,-1.1167,0.1226,-0.00071854,-0.00067039,-0.00193453,-0.00175580,0.00081973,0.03494476,-0.1678,0.1712,-9.7612,0.001636,-0.003822,-0.001916,28.9276,0.0350,139,-1,0,0.001757,0.001731,-0.036344,0.000297,0.000558,0.002119,-1.0965,-1.0173,-0.1403
13102,11.0,0.000054,-0.000115,-0.035427,0.001535,-0.001378,0.009487,-1.1864,-1.1170,0.1222,-0.00075491,-0.00068620,-0.00193426,-0.00177260,0.00081811,0.03494458,-0.1786,0.1798,-9.7358,-0.002829,-0.003713,-0.002377,28.8563,0.0350,139,-1,0,0.001773,0.001800,-0.035452,0.000397,0.000589,0.011232,-1.0923,-1.0177,-0.1397
13113,11.0,0.000055,-0.000116,-0.035371,0.001552,-0.001524,0.009246,-1.1881,-1.1185,0.1208,-0.00076279,-0.00069469,-0.00193428,-0.00172889,0.00077704,0.03518178,-0.1740,0.1743,-9.7387,-0.004539,-0.004051,-0.004178,28.8563,0.0350,135,0,0,0.001782,0.001808,-0.035338,0.000321,0.000619,0.011602,-1.0929,-1.0173,-0.1418
13124,11.0,0.000056,-0.000117,-0.036208,0.001664,-0.001526,-0.001511,-1.1880,-1.1158,0.1197,-0.00078256,-0.00072137,-0.00193424,-0.00173299,0.00073369,0.03944536,-0.1625,0.1857,-9.7578,-0.004059,-0.000985,-0.002999,28.8563,0.0370,141,0,0,0.001799,0.001823,-0.035168,0.000285,0.000553,0.011869,-1.0936,-1.0169,-0.1436
13135,11.0,0.000057,-0.000119,-0.036263,0.001677,-0.001625,-0.001931,-1.1887,-1.1159,0.1202,-0.00079128,-0.00073061,-0.00193427,-0.00168727,0.00069026,0.03962415,-0.1732,0.1778,-9.7634,-0.002909,-0.002217,-0.001273,28.8563,0.0370,139,0,0,0.001807,0.001830,-0.036304,0.000397,0.000562,-0.001047,-1.0940,-1.0151,-0.1437
13146,11.0,0.000059,-0.000121,-0.036284,0.001667,-0.001622,-0.001911,-1.1875,-1.1159,0.1200,-0.00080966,-0.00074976,-0.00193429,-0.00172017,0.00072656,0.03962518,-0.1741,0.1863,-9.7654,-0.002049,-0.003821,-0.002092,28.8563,0.0370,139,0,0,0.001816,0.001838,-0.036356,0.000443,0.000530,-0.001290,-1.0944,-1.0149,-0.1432
13157,11.0,0.000060,-0.000123,-0.036705,0.001520,-0.001551,-0.006191,-1.1876,-1.1167,0.0974,-0.00081833,-0.00075857,-0.00192610,-0.00162190,0.00067886,0.04142630,-0.1890,0.1933,-9.7308,-0.002460,-0.002795,0.001504,28.8563,0.0370,141,0,0,0.001833,0.001853,-0.036446,0.000566,0.000649,-0.001486,-1.0945,-1.0133,-0.1423
13168,11.0,0.000062,-0.000125,-0.036772,0.001376,-0.001584,-0.006012,-1.1859,-1.1173,0.0975,-0.00083880,-0.00076670,-0.00192618,-0.00159178,0.00073067,0.04142652,-0.1904,0.1825,-9.7488,-0.001573,-0.002785,-0.002433,28.8563,0.0360,137,0,0,0.001842,0.001861,-0.036172,0.000506,0.000667,0.002122,-1.0950,-1.0137,-0.1413
13180,12.0,0.000065,-0.000128,-0.036881,0.001181,-0.001590,-0.006248,-1.1857,-1.1178,0.0979,-0.00084745,-0.00077332,-0.00192613,-0.00155871,0.00068852,0.04159915,-0.1969,0.1873,-9.7465,-0.001580,-0.002364,-0.001208,28.8219,0.0360,136,0,0,0.001851,0.001869,-0.036148,0.000381,0.000649,0.002532,-1.0949,-1.0135,-0.1413
13191,11.0,0.000066,-0.000130,-0.036418,0.001146,-0.001505,0.000104,-1.1856,-1.1189,0.0974,-0.00085919,-0.00078443,-0.00192610,-0.00161366,0.00073366,0.03925727,-0.1826,0.1951,-9.7466,-0.002564,-0.004328,-0.002733,28.8219,0.0360,140,0,0,0.001868,0.001883,-0.036132,0.000191,0.000708,0.002985,-1.0931,-1.0152,-0.1582
13202,11.0,0.000067,-0.000131,-0.036444,0.001201,-0.001669,0.000033,-1.1860,-1.1196,0.0965,-0.00086815,-0.00079108,-0.00192604,-0.00158138,0.00069114,0.03938739,-0.1747,0.1706,-9.7427,-0.002774,-0.002743,-0.003185,28.8219,0.0370,140,0,0,0.001877,0.001890,-0.036655,0.000204,0.000746,-0.002674,-1.0933,-1.0163,-0.1586
13213,11.0,0.000068,-0.000134,-0.036442,0.001248,-0.001664,0.000246,-1.1859,-1.1198,0.0962,-0.00088715,-0.00080849,-0.00192600,-0.00162935,0.00072941,0.03938876,-0.1737,0.1854,-9.7480,-0.003787,-0.004053,-0.002216,28.8219,0.0370,140,0,0,0.001894,0.001906,-0.036701,0.000202,0.000669,-0.001894,-1.0935,-1.0160,-0.1596
13224,11.0,0.000068,-0.000136,-0.035666,0.001317,-0.001659,0.009424,-1.1852,-1.1211,0.0964,-0.00089498,-0.00081522,-0.00192598,-0.00166096,0.00075611,0.03601707,-0.1722,0.1865,-9.7481,-0.000866,-0.003797,-0.001663,28.8219,0.0350,143,0,0,0.001902,0.001914,-0.036765,0.000257,0.000667,-0.002060,-1.0937,-1.0163,-0.1595
13235,11.0,0.000069,-0.000138,-0.035561,0.001401,-0.001668,0.009671,-1.1841,-1.1202,0.0960,-0.00091515,-0.00083662,-0.00192593,-0.00172755,0.00080052,0.03601886,-0.1685,0.1835,-9.7484,-0.002492,-0.003061,-0.002225,28.8457,0.0350,143,0,0,0.001910,0.001921,-0.035713,0.000311,0.000675,0.010097,-1.0933,-1.0159,-0.1594
13246,11.0,0.000069,-0.000140,-0.035499,0.001492,-0.001678,0.009422,-1.1841,-1.1216,0.0949,-0.00092400,-0.00084494,-0.00192592,-0.00168691,0.00075759,0.03622506,-0.1684,0.1847,-9.7428,-0.002091,-0.004175,-0.003713,28.8457,0.0350,140,0,0,0.001927,0.001935,-0.035545,0.000334,0.000625,0.010437,-1.0927,-1.0170,-0.1585
13257,11.0,0.000070,-0.000142,-0.036262,0.001534,-0.001589,-0.000508,-1.1841,-1.1210,0.0963,-0.00093846,-0.00086625,-0.00192586,-0.00166712,0.00068563,0.03996998,-0.1713,0.1940,-9.7564,-0.003161,-0.003391,0.000947,28.8457,0.0370,140,0,0,0.001935,0.001942,-0.035439,0.000375,0.000609,0.010832,-1.0928,-1.0178,-0.1582
13268,11.0,0.000072,-0.000144,-0.036301,0.001504,-0.001594,-0.000546,-1.1840,-1.1213,0.0728,-0.00094705,-0.00087463,-0.00191746,-0.00160167,0.00066876,0.04012622,-0.1795,0.1851,-9.7314,-0.002448,-0.002039,-0.002505,28.8457,0.0370,138,0,0,0.001953,0.001957,-0.036347,0.000300,0.000656,0.000263,-1.0951,-1.0186,-0.1576
13279,11.0,0.000073,-0.000145,-0.036307,0.001364,-0.001813,-0.000517,-1.1813,-1.1225,0.0722,-0.00098032,-0.00088267,-0.00191761,-0.00157337,0.00080104,0.04012799,-0.1913,0.1617,-9.7642,-0.002549,-0.003762,-0.004151,28.8457,0.0370,136,0,0,0.001962,0.001965,-0.036389,0.000277,0.000656,0.000252,-1.0952,-1.0187,-0.1578
13290,11.0,0.000074,-0.000147,-0.035616,0.001474,-0.001808,0.007684,-1.1814,-1.1223,0.0727,-0.00098941,-0.00089019,-0.00191758,-0.00159415,0.00081630,0.03715710,-0.1675,0.1839,-9.7571,-0.002370,-0.001721,-0.001000,28.8457,0.0350,146,0,0,0.001971,0.001973,-0.036385,0.000190,0.000487,0.000543,-1.0949,-1.0191,-0.1778
13301,11.0,0.000075,-0.000149,-0.035530,0.001425,-0.001883,0.008057,-1.1805,-1.1225,0.0721,-0.00101589,-0.00090437,-0.00191762,-0.00160732,0.00089381,0.03715856,-0.1813,0.1739,-9.7358,-0.004093,-0.003437,-0.003467,28.8457,0.0350,146,0,0,0.001988,0.001987,-0.035483,0.000180,0.000374,0.010147,-1.0962,-1.0205,-0.1768
13312,11.0,0.000076,-0.000151,-0.035464,0.001544,-0.001863,0.008257,-1.1809,-1.1228,0.0717,-0.00102596,-0.00091292,-0.00191759,-0.00156813,0.00084807,0.03726577,-0.1653,0.1840,-9.7244,-0.003052,-0.002484,-0.002382,28.7876,0.0350,135,0,0,0.001996,0.001995,-0.035379,0.000208,0.000342,0.010603,-1.0959,-1.0202,-0.1775
13323,11.0,0.000078,-0.000154,-0.036251,0.001384,-0.001731,-0.001704,-1.1799,-1.1235,0.0728,-0.00103978,-0.00092128,-0.00191759,-0.00146321,0.00076217,0.04097360,-0.1927,0.1959,-9.7442,-0.001486,-0.003151,-0.000331,28.7876,0.0370,135,0,0,0.002003,0.002002,-0.035303,0.000320,0.000341,0.010797,-1.0956,-1.0200,-0.1776
13334,11.0,0.000078,-0.000157,-0.036287,0.001599,-0.001576,-0.001617,-1.1810,-1.1248,0.0726,-0.00104793,-0.00093007,-0.00191762,-0.00142366,0.00072536,0.04105437,-0.1564,0.2002,-9.7372,-0.003857,-0.004101,-0.002383,28.7876,0.0370,141,0,0,0.002021,0.002016,-0.036265,0.000190,0.000525,0.000014,-1.0955,-1.0201,-0.1775
13345,11.0,0.000079,-0.000159,-0.036303,0.001594,-0.001502,-0.001311,-1.1784,-1.1235,0.0728,-0.00106152,-0.00094920,-0.00191760,-0.00145930,0.00073048,0.04105487,-0.1749,0.1924,-9.7377,0.000985,-0.002046,-0.001250,28.7876,0.0370,136,0,0,0.002030,0.002024,-0.036288,0.000265,0.000589,0.000118,-1.0972,-1.0193,-0.1781
13356,11.0,0.000080,-0.000161,-0.035062,0.001617,-0.001312,0.013359,-1.1798,-1.1231,0.0722,-0.00106727,-0.00095683,-0.00191767,-0.00152024,0.00080256,0.03582394,-0.1742,0.2058,-9.7590,-0.004029,-0.001278,-0.002959,28.7876,0.0340,134,0,0,0.002038,0.002032,-0.036285,0.000268,0.000590,0.000541,-1.0960,-1.0188,-0.1782
13367,11.0,0.000081,-0.000163,-0.034914,0.001657,-0.001295,0.013532,-1.1788,-1.1211,0.0726,-0.00108158,-0.00097866,-0.00191768,-0.00157324,0.00082609,0.03582511,-0.1701,0.1892,-9.7552,-0.001882,-0.001495,-0.000988,28.7876,0.0340,142,0,0,0.002054,0.002046,-0.034771,0.000438,0.000603,0.015896,-1.0966,-1.0188,-0.1787
13378,11.0,0.000083,-0.000164,-0.034809,0.001562,-0.001353,0.013334,-1.1804,-1.1196,0.1655,-0.00108911,-0.00098723,-0.00195462,-0.00164023,0.00069062,0.03602237,-0.1837,0.1829,-9.7380,-0.002831,-0.001744,-0.002595,28.8457,0.0340,137,0,0,0.002062,0.002053,-0.034610,0.000481,0.000613,0.016247,-1.0965,-1.0179,-0.1789
13389,11.0,0.000084,-0.000165,-0.035928,0.001615,-0.001339,-0.001218,-1.1800,-1.1174,0.1658,-0.00110536,-0.00101043,-0.00195463,-0.00159874,0.00061377,0.04123384,-0.1689,0.1883,-9.7556,-0.003040,-0.001358,-0.001228,28.8457,0.0370,136,0,0,0.002070,0.002061,-0.034505,0.000455,0.000525,0.016037,-1.0965,-1.0175,-0.1797
13401,12.0,0.000087,-0.000170,-0.035977,0.001603,-0.001138,-0.001422,-1.1812,-1.1189,0.1666,-0.00111108,-0.00101935,-0.00195473,-0.00155808,0.00058630,0.04138665,-0.1775,0.2086,-9.7455,-0.003506,-0.004300,-0.000893,28.8457,0.0370,137,0,0,0.002087,0.002075,-0.035927,0.000542,0.000540,-0.000562,-1.0978,-1.0192,-0.1261
13412,11.0,0.000089,-0.000171,-0.035991,0.001498,-0.001124,-0.001113,-1.1805,-1.1190,0.1679,-0.00112319,-0.00103143,-0.00195483,-0.00155023,0.00060738,0.04138673,-0.1851,0.1912,-9.7369,-0.001997,-0.003075,-0.000165,28.8457,0.0370,137,0,0,0.002105,0.002089,-0.035983,0.000509,0.000682,-0.000266,-1.0990,-1.0193,-0.1268
13423,11.0,0.000090,-0.000173,-0.035470,0.001561,-0.001138,0.005426,-1.1810,-1.1201,0.1689,-0.00112860,-0.00103950,-0.00195491,-0.00155408,0.00062628,0.03923415,-0.1698,0.1892,-9.7301,-0.002616,-0.003836,-0.000558,28.8457,0.0350,137,0,0,0.002105,0.002089,-0.035983,0.000509,0.000682,-0.000266,-1.0990,-1.0198,-0.1263
13434,11.0,0.000090,-0.000174,-0.035410,0.001621,-0.001250,0.005554,-1.1800,-1.1189,0.1694,-0.00114906,-0.00106184,-0.00195499,-0.00161429,0.00070061,0.03923643,-0.1682,0.1777,-9.7561,-0.003122,-0.003083,-0.001348,28.8457,0.0350,141,0,0,0.002121,0.002104,-0.035354,0.000462,0.000667,0.006797,-1.0984,-1.0189,-0.1272
13445,11.0,0.000092,-0.000176,-0.035395,0.001610,-0.001301,0.005086,-1.1798,-1.1195,0.1709,-0.00115586,-0.00107080,-0.00195506,-0.00157299,0.00066790,0.03942889,-0.1764,0.1844,-9.7593,-0.001786,-0.003293,0.000287,28.8457,0.0350,135,0,0,0.002138,0.002119,-0.035264,0.000458,0.000618,0.006921,-1.0975,-1.0185,-0.1271
13456,11.0,0.000092,-0.000177,-0.036239,0.001714,-0.001375,-0.005466,-1.1789,-1.1179,0.1706,-0.00117593,-0.00109734,-0.00195510,-0.00158363,0.00065446,0.04303329,-0.1632,0.1803,-9.7799,-0.003223,-0.003048,-0.002159,28.8457,0.0370,140,0,0,0.002147,0.002127,-0.036262,0.000403,0.000624,-0.004459,-1.0980,-1.0189,-0.1269
13467,11.0,0.000094,-0.000179,-0.036340,0.001643,-0.001309,-0.005933,-1.1787,-1.1191,0.1696,-0.00118260,-0.00110644,-0.00195518,-0.00154228,0.00062289,0.04320337,-0.1814,0.1952,-9.7605,-0.001698,-0.004139,-0.003652,28.8668,0.0370,136,0,0,0.002155,0.002135,-0.036350,0.000494,0.000594,-0.004864,-1.0981,-1.0192,-0.1269
13478,11.0,0.000096,-0.000181,-0.036404,0.001532,-0.001489,-0.005646,-1.1767,-1.1193,0.1696,-0.00120961,-0.00111824,-0.00195538,-0.00153272,0.00073067,0.04320504,-0.1857,0.1676,-9.7376,-0.002836,-0.003334,-0.003019,28.8668,0.0370,137,0,0,0.002172,0.002149,-0.036510,0.000555,0.000706,-0.004961,-1.0975,-1.0192,-0.1278
13489,11.0,0.000097,-0.000183,-0.035691,0.001589,-0.001497,0.003548,-1.1787,-1.1205,0.1844,-0.00121669,-0.00112595,-0.00196233,-0.00157331,0.00074297,0.04013190,-0.1705,0.1860,-9.7447,-0.005078,-0.004272,-0.004078,28.8668,0.0350,139,0,0,0.002181,0.002129,-0.035622,0.000507,0.000525,0.005720,-1.0965,-1.0200,-0.1201
13501,12.0,0.000099,-0.000185,-0.035648,0.001724,-0.001634,0.003580,-1.1782,-1.1170,0.1831,-0.00124232,-0.00115144,-0.00196235,-0.00165109,0.00082626,0.04013463,-0.1630,0.1725,-9.7644,-0.004762,-0.000194,-0.003696,28.8668,0.0350,139,0,0,0.002189,0.002136,-0.035563,0.000552,0.000484,0.006121,-1.0974,-1.0208,-0.1211
13513,12.0,0.000101,-0.000188,-0.035649,0.001852,-0.001608,0.003038,-1.1782,-1.1166,0.1832,-0.00125110,-0.00116179,-0.00196241,-0.00160470,0.00078605,0.04030820,-0.1634,0.1887,-9.7689,-0.002324,-0.001790,-0.001839,28.8325,0.0370,136,0,0,0.002204,0.002151,-0.035497,0.000818,0.000371,0.005944,-1.0973,-1.0195,-0.1222
13524,11.0,0.000103,-0.000190,-0.036376,0.001809,-0.001593,-0.005470,-1.1770,-1.1156,0.1830,-0.00126949,-0.00118177,-0.00196247,-0.00157429,0.00075931,0.04327605,-0.1749,0.1851,-9.7414,-0.002386,-0.002892,-0.002323,28.8325,0.0370,142,0,0,0.002222,0.002166,-0.036430,0.000835,0.000413,-0.004080,-1.0959,-1.0206,-0.1211
13535,11.0,0.000104,-0.000192,-0.036467,0.001702,-0.001644,-0.005666,-1.1774,-1.1171,0.1830,-0.00127789,-0.00119113,-0.00196251,-0.00153289,0.00072169,0.04340369,-0.1833,0.1805,-9.7464,-0.003084,-0.004898,-0.002130,28.8325,0.0370,138,0,0,0.002231,0.002173,-0.036469,0.000835,0.000367,-0.003696,-1.0957,-1.0206,-0.1212
13546,11.0,0.000106,-0.000195,-0.036529,0.001589,-0.001523,-0.005581,-1.1756,-1.1181,0.1857,-0.00128785,-0.00120375,-0.00196253,-0.00152398,0.00070555,0.04340303,-0.1847,0.1973,-9.7552,0.000216,-0.004821,0.002429,28.8325,0.0370,132,0,0,0.002240,0.002181,-0.036557,0.000758,0.000293,-0.003980,-1.0957,-1.0204,-0.1211
13557,11.0,0.000106,-0.000196,-0.035735,0.001677,-0.001520,0.004360,-1.1767,-1.1188,0.1849,-0.00129489,-0.00121188,-0.00196257,-0.00154739,0.00073778,0.04010533,-0.1667,0.1863,-9.7567,-0.004010,-0.003367,-0.003433,28.8325,0.0350,138,0,0,0.002249,0.002188,-0.036595,0.000721,0.000334,-0.003658,-1.0956,-1.0214,-0.1196
13568,11.0,0.000107,-0.000198,-0.035686,0.001760,-0.001497,0.004655,-1.1759,-1.1169,0.1841,-0.00131087,-0.00123689,-0.00196253,-0.00162036,0.00076487,0.04010692,-0.1637,0.1868,-9.7400,-0.002743,-0.002543,-0.002741,28.8325,0.0350,139,0,0,0.002265,0.002202,-0.035521,0.000746,0.000354,0.007853,-1.0966,-1.0226,-0.1197
