timestamp_ms,dt_ms,pos_x,pos_y,pos_z,vel_x,vel_y,vel_z,roll_deg,pitch_deg,yaw_deg,gyro_bias_x,gyro_bias_y,gyro_bias_z,accel_bias_x,accel_bias_y,accel_bias_z,raw_accel_x,raw_accel_y,raw_accel_z,raw_gyro_x,raw_gyro_y,raw_gyro_z,raw_baro_alt,raw_tof,raw_flow_squal,raw_flow_dx,raw_flow_dy,dev_pos_x,dev_pos_y,dev_pos_z,dev_vel_x,dev_vel_y,dev_vel_z,dev_roll_deg,dev_pitch_deg,dev_yaw_deg
10338,10.0,0.000008,-0.000008,-0.031983,-0.000058,-0.000009,0.000738,-0.0008,-0.0021,-0.0001,0.00000000,0.00000000,-0.00218762,-0.00006279,0.00007427,0.00000000,-0.1639,0.1616,-9.7282,-0.000820,-0.002966,-0.002300,25.7463,0.0320,138,0,0,-0.000024,0.000016,-0.031936,-0.001316,0.001327,0.009570,-0.9200,-0.8641,-0.1311
10349,11.0,-0.000001,0.000001,-0.031970,-0.000525,0.000485,0.001569,-0.5255,-0.5299,0.0021,0.00000191,0.00000193,-0.00218762,-0.00006868,0.00007978,0.00000000,-0.1840,0.1824,-9.7285,-0.003198,-0.000715,-0.002663,25.7463,0.0330,142,0,0,-0.000025,0.000017,-0.031837,-0.001282,0.001292,0.010350,-0.9301,-0.8737,-0.1313
10360,11.0,0.000002,-0.000003,-0.031423,-0.000878,0.000787,0.025454,-0.5310,-0.5355,0.0048,0.00000192,0.00000194,-0.00218762,-0.00008362,0.00009403,-0.00001414,-0.1642,0.1570,-9.7373,-0.002291,-0.002320,0.002110,25.7463,0.0330,140,0,0,-0.000026,0.000017,-0.032534,-0.001359,0.001480,0.003030,-0.9381,-0.8838,-0.1323
10371,11.0,-0.000005,0.000003,-0.031983,-0.000860,0.000773,0.001042,-0.6821,-0.6859,0.0064,0.00000358,0.00000357,-0.00218762,-0.00009655,0.00010682,0.00000732,-0.1677,0.1677,-9.7335,-0.002411,-0.003858,-0.002245,25.7463,0.0320,139,0,0,-0.000026,0.000016,-0.032500,-0.001471,0.001388,0.003688,-0.9388,-0.8847,-0.1310
10382,11.0,-0.000003,-0.000000,-0.031936,-0.001067,0.001040,0.002600,-0.6905,-0.6935,0.0060,0.00000361,0.00000361,-0.00218762,-0.00012611,0.00013732,-0.00000310,-0.1647,0.1705,-9.7423,-0.004196,-0.003199,-0.002924,25.7463,0.0320,142,0,0,-0.000027,0.000016,-0.032185,-0.001444,0.001342,0.007458,-0.9410,-0.8936,-0.1308
10393,11.0,-0.000008,0.000005,-0.031904,-0.000970,0.000957,0.003358,-0.7679,-0.7597,0.0071,0.00000528,0.00000502,-0.00218762,-0.00014506,0.00015544,-0.00000266,-0.1617,0.1690,-9.7379,-0.002710,-0.002873,-0.001749,25.7463,0.0320,142,0,0,-0.000027,0.000016,-0.032107,-0.001480,0.001310,0.008116,-0.9419,-0.8943,-0.1317
10404,11.0,-0.000007,0.000003,-0.031958,-0.001094,0.001241,0.002393,-0.7756,-0.7670,0.0066,0.00000535,0.00000508,-0.00218762,-0.00018405,0.00020160,0.00005251,-0.1633,0.1834,-9.7348,-0.001386,-0.002427,-0.003197,25.7463,0.0320,136,0,0,-0.000029,0.000015,-0.031914,-0.001310,0.001358,0.009667,-0.9459,-0.8992,-0.2075
10415,11.0,-0.000010,0.000007,-0.031926,-0.000978,0.001118,0.003340,-0.8209,-0.7996,0.0079,0.00000695,0.00000619,-0.00218762,-0.00020893,0.00022756,0.00005313,-0.1560,0.1683,-9.7210,-0.002219,-0.002404,-0.000823,25.7463,0.0330,136,0,0,-0.000029,0.000015,-0.031788,-0.001277,0.001336,0.010722,-0.9527,-0.9028,-0.2081
10426,11.0,-0.000009,0.000007,-0.031773,-0.001221,0.001289,0.005947,-0.8278,-0.8058,0.0082,0.00000707,0.00000630,-0.00218762,-0.00026391,0.00028565,-0.00012884,-0.1804,0.1786,-9.7272,-0.000951,-0.000322,-0.001887,25.6301,0.0330,137,0,0,-0.000030,0.000014,-0.032504,-0.001234,0.001339,0.002656,-0.9551,-0.9088,-0.2064
10437,11.0,-0.000014,0.000012,-0.032617,-0.001125,0.001225,-0.005778,-0.8856,-0.8441,0.0086,0.00001020,0.00000821,-0.00218762,-0.00026382,0.00027333,0.00158138,-0.1719,0.1975,-9.7173,-0.003889,-0.005169,-0.002347,25.6301,0.0330,142,0,0,-0.000030,0.000014,-0.032408,-0.001319,0.001458,0.004121,-0.9552,-0.9081,-0.2060
10448,11.0,-0.000015,0.000013,-0.032614,-0.001156,0.001286,-0.004048,-0.8938,-0.8490,0.0085,0.00001036,0.00000836,-0.00218762,-0.00032344,0.00033767,0.00140456,-0.1663,0.1778,-9.7237,-0.003825,0.000903,-0.002401,25.6301,0.0320,144,0,0,-0.000030,0.000014,-0.032114,-0.001274,0.001617,0.007595,-0.9674,-0.9087,-0.2045
10459,11.0,-0.000020,0.000018,-0.032653,-0.001115,0.001202,-0.002943,-0.9211,-0.8814,0.0077,0.00001241,0.00001114,-0.00218762,-0.00032452,0.00035668,0.00140486,-0.1853,0.1822,-9.7045,-0.002770,0.001568,-0.004572,25.6301,0.0320,136,0,0,-0.000031,0.000014,-0.031985,-0.001244,0.001589,0.008896,-0.9718,-0.9096,-0.2040
10470,11.0,-0.000021,0.000018,-0.032208,-0.001008,0.001005,0.003596,-0.9268,-0.8878,0.0086,0.00001260,0.00001132,-0.00218762,-0.00040321,0.00044068,-0.00045025,-0.1565,0.1564,-9.7322,-0.002437,-0.004208,-0.000978,25.6301,0.0320,143,0,0,-0.000030,0.000014,-0.031892,-0.001457,0.001674,0.009791,-0.9721,-0.9079,-0.2045
10481,11.0,-0.000022,0.000020,-0.032163,-0.000845,0.000884,0.004503,-0.9384,-0.8902,0.0079,0.00001345,0.00001101,-0.00218762,-0.00046180,0.00047846,-0.00044891,-0.1464,0.1679,-9.7255,-0.003896,-0.003942,-0.002929,25.6301,0.0330,141,0,0,-0.000030,0.000015,-0.032443,-0.001384,0.001400,0.002699,-0.9758,-0.9091,-0.0740
10492,11.0,-0.000022,0.000020,-0.032066,-0.000876,0.000885,0.005868,-0.9436,-0.8934,0.0073,0.00001366,0.00001122,-0.00218762,-0.00051452,0.00053076,-0.00070574,-0.1686,0.1738,-9.7311,-0.002838,0.000381,-0.003168,25.6882,0.0330,141,0,0,-0.000030,0.000015,-0.032413,-0.001331,0.001372,0.003399,-0.9786,-0.9080,-0.0747
10503,11.0,-0.000024,0.000024,-0.032577,-0.000789,0.000886,-0.000173,-0.9668,-0.9038,0.0073,0.00001681,0.00001232,-0.00218761,-0.00048331,0.00045362,0.00295074,-0.1638,0.1955,-9.7425,-0.003311,-0.002357,-0.001804,25.6882,0.0330,138,0,0,-0.000030,0.000014,-0.032336,-0.001420,0.001513,0.004538,-0.9792,-0.9070,-0.0751
10514,11.0,-0.000048,0.000025,-0.032544,-0.001200,0.000869,0.000914,-0.9721,-0.8984,0.0077,0.00001707,0.00001193,-0.00218764,-0.00041200,0.00050539,0.00271804,-0.1709,0.1766,-9.7390,-0.003689,0.000875,-0.003368,25.6882,0.0320,141,0,1,-0.000030,0.000013,-0.032063,-0.001409,0.001707,0.007472,-0.9837,-0.9092,-0.0751
10525,11.0,-0.000050,0.000025,-0.032529,-0.001041,0.000699,0.001898,-0.9703,-0.9033,0.0073,0.00001623,0.00001226,-0.00218764,-0.00047114,0.00057665,0.00272001,-0.1542,0.1558,-9.7154,-0.000483,-0.002177,-0.003047,25.6882,0.0320,142,0,0,-0.000056,0.000014,-0.031986,-0.001480,0.001677,0.008018,-0.9865,-0.9102,-0.0752
10536,11.0,-0.000052,0.000026,-0.032193,-0.000916,0.000590,0.006266,-0.9732,-0.9079,0.0080,0.00001647,0.00001259,-0.00218764,-0.00056275,0.00065523,0.00012292,-0.1564,0.1652,-9.7390,-0.001577,-0.002818,-0.000908,25.6882,0.0320,142,0,0,-0.000056,0.000015,-0.031902,-0.001413,0.001512,0.008634,-0.9855,-0.9107,-0.0763
10547,11.0,-0.000053,0.000026,-0.032119,-0.000811,0.000463,0.007225,-0.9734,-0.9126,0.0075,0.00001561,0.00001327,-0.00218764,-0.00060030,0.00071306,0.00012438,-0.1590,0.1575,-9.7201,-0.003539,-0.001511,-0.003442,25.6882,0.0330,138,0,0,-0.000057,0.000015,-0.031662,-0.001380,0.001408,0.010441,-0.9887,-0.9130,-0.0774
10558,11.0,-0.000054,0.000026,-0.031997,-0.000863,0.000277,0.008442,-0.9749,-0.9169,0.0069,0.00001576,0.00001365,-0.00218763,-0.00065491,0.00073867,-0.00025006,-0.1733,0.1543,-9.7394,-0.000726,-0.002743,-0.002820,25.6882,0.0330,139,0,0,-0.000057,0.000014,-0.032470,-0.001360,0.001363,0.001323,-0.9899,-0.9153,-0.0783
10569,11.0,-0.000056,0.000025,-0.032505,-0.000781,0.000180,0.002118,-0.9741,-0.9236,0.0079,0.00001477,0.00001472,-0.00218763,-0.00058875,0.00068798,0.00560769,-0.1635,0.1581,-9.7269,-0.001690,-0.003390,-0.001013,25.7225,0.0330,135,0,0,-0.000057,0.000015,-0.032433,-0.001448,0.001060,0.002393,-0.9879,-0.9160,-0.0786
10580,11.0,-0.000057,0.000026,-0.032458,-0.000674,0.000137,0.003283,-0.9762,-0.9254,0.0071,0.00001484,0.00001507,-0.00218762,-0.00063040,0.00069933,0.00540739,-0.1577,0.1642,-9.7177,-0.002668,0.000085,-0.003143,25.7225,0.0320,139,0,0,-0.000058,0.000015,-0.032158,-0.001438,0.000914,0.005798,-0.9872,-0.9166,-0.0781
10591,11.0,-0.000057,0.000001,-0.032418,-0.000523,-0.000246,0.003934,-0.9835,-0.9262,0.0065,0.00001593,0.00001387,-0.00218765,-0.00070068,0.00083959,0.00541069,-0.1477,0.1661,-9.7429,-0.002538,-0.004310,-0.004011,25.7225,0.0320,138,1,0,-0.000059,0.000014,-0.032096,-0.001277,0.000984,0.006528,-0.9822,-0.9187,-0.2868
10602,11.0,-0.000057,-0.000000,-0.032146,-0.000750,-0.000209,0.007295,-0.9851,-0.9299,0.0063,0.00001586,0.00001433,-0.00218763,-0.00077922,0.00087083,0.00311367,-0.1898,0.1696,-9.7409,-0.003131,-0.002982,-0.001918,25.7225,0.0320,138,0,0,-0.000060,-0.000012,-0.031928,-0.001104,0.000799,0.007996,-0.9828,-0.9216,-0.2847
10613,11.0,-0.000058,-0.000001,-0.032061,-0.000744,-0.000130,0.008093,-0.9890,-0.9368,0.0071,0.00001703,0.00001689,-0.00218762,-0.00076545,0.00083496,0.00311269,-0.1742,0.1774,-9.7312,-0.002905,-0.002082,-0.000867,25.7225,0.0330,142,0,0,-0.000059,-0.000013,-0.031845,-0.001384,0.000850,0.008546,-0.9834,-0.9220,-0.2850
10624,11.0,-0.000059,-0.000001,-0.031941,-0.000683,-0.000204,0.009410,-0.9895,-0.9391,0.0094,0.00001692,0.00001735,-0.00218760,-0.00080689,0.00083050,0.00284588,-0.1638,0.1595,-9.7128,-0.001382,-0.001281,0.002076,25.7225,0.0330,144,0,0,-0.000060,-0.000013,-0.032523,-0.001291,0.000869,0.001194,-0.9874,-0.9245,-0.2845
10635,11.0,-0.000060,-0.000002,-0.032475,-0.000634,-0.000185,0.002484,-0.9895,-0.9440,0.0083,0.00001681,0.00001869,-0.00218758,-0.00071264,0.00071511,0.00939438,-0.1669,0.1693,-9.7363,-0.000210,-0.003122,-0.003811,25.7225,0.0330,137,0,0,-0.000060,-0.000014,-0.032481,-0.001282,0.000847,0.002228,-0.9871,-0.9255,-0.2832
10646,11.0,-0.000061,-0.000003,-0.032425,-0.000622,-0.000144,0.003313,-0.9914,-0.9474,0.0088,0.00001677,0.00001919,-0.00218756,-0.00074977,0.00071595,0.00919107,-0.1692,0.1722,-9.7441,-0.003244,-0.003354,-0.000820,25.7225,0.0330,138,0,0,-0.000060,-0.000014,-0.032456,-0.001327,0.000818,0.002752,-0.9862,-0.9260,-0.2840
10657,11.0,-0.000037,-0.000005,-0.032384,-0.000189,-0.000097,0.004081,-0.9955,-0.9546,0.0078,0.00001754,0.00002112,-0.00218748,-0.00090794,0.00069690,0.00919313,-0.1607,0.1749,-9.7282,-0.004847,-0.003348,-0.001359,25.7225,0.0330,142,0,-1,-0.000061,-0.000015,-0.032755,-0.001340,0.000728,0.000217,-0.9884,-0.9286,-0.2830
10668,11.0,-0.000038,-0.000005,-0.032683,0.000073,-0.000122,0.000798,-0.9975,-0.9557,0.0088,0.00001748,0.00002110,-0.00218748,-0.00084865,0.00063469,0.01266070,-0.1386,0.1665,-9.7187,-0.003304,-0.001811,-0.000668,25.7225,0.0330,145,0,0,-0.000035,-0.000015,-0.032750,-0.001227,0.000734,0.000760,-0.9908,-0.9299,-0.2831
10679,11.0,-0.000038,-0.000007,-0.032670,0.000043,-0.000177,0.001524,-0.9968,-0.9597,0.0092,0.00001600,0.00002139,-0.00218749,-0.00083906,0.00066874,0.01266114,-0.1661,0.1626,-9.7286,-0.001596,-0.005925,-0.002187,25.7225,0.0320,145,0,0,-0.000036,-0.000016,-0.032706,-0.001076,0.000716,0.001808,-0.9914,-0.9297,-0.2826
10691,12.0,-0.000037,-0.000008,-0.032622,0.000036,-0.000229,0.002562,-0.9982,-0.9620,0.0086,0.00001586,0.00002137,-0.00218748,-0.00084227,0.00066590,0.01240155,-0.1645,0.1642,-9.7346,-0.002305,-0.003231,-0.003124,25.7225,0.0320,144,0,0,-0.000036,-0.000017,-0.032192,-0.001063,0.000458,0.007741,-0.9893,-0.9314,-0.2264
10702,11.0,-0.000037,-0.000009,-0.032255,0.000020,-0.000154,0.007231,-0.9995,-0.9632,0.0076,0.00001695,0.00002156,-0.00218747,-0.00088887,0.00068634,0.00920994,-0.1660,0.1774,-9.7309,-0.000572,-0.001708,-0.003349,25.7225,0.0320,135,0,0,-0.000036,-0.000018,-0.032087,-0.001069,0.000456,0.008596,-0.9894,-0.9329,-0.2263
10713,11.0,-0.000037,-0.000009,-0.032135,0.000050,-0.000245,0.008400,-1.0003,-0.9658,0.0069,0.00001681,0.00002152,-0.00218747,-0.00089277,0.00068565,0.00885583,-0.1614,0.1606,-9.7324,-0.001579,-0.004140,-0.003371,25.6644,0.0330,135,0,0,-0.000036,-0.000019,-0.031998,-0.001138,0.000523,0.009071,-0.9874,-0.9334,-0.2261
10724,11.0,-0.000037,-0.000011,-0.032039,0.000124,-0.000208,0.009126,-1.0025,-0.9667,0.0049,0.00001709,0.00001915,-0.00218745,-0.00093926,0.00067318,0.00885641,-0.1544,0.1735,-9.7324,-0.003191,-0.004724,-0.004471,25.6644,0.0330,140,0,0,-0.000036,-0.000020,-0.032500,-0.001168,0.000516,0.003153,-0.9871,-0.9352,-0.2274
10735,11.0,-0.000036,-0.000013,-0.032492,0.000016,-0.000234,0.003073,-1.0037,-0.9703,0.0048,0.00001700,0.00001916,-0.00218745,-0.00085470,0.00058127,0.01395983,-0.1754,0.1679,-9.7491,-0.002051,-0.005693,-0.002402,25.6644,0.0330,140,0,0,-0.000036,-0.000021,-0.032466,-0.001126,0.000488,0.003704,-0.9865,-0.9361,-0.2281
10746,11.0,-0.000036,-0.000013,-0.032455,-0.000015,-0.000172,0.003762,-1.0068,-0.9718,0.0053,0.00001764,0.00002003,-0.00218744,-0.00083866,0.00055751,0.01395914,-0.1702,0.1761,-9.7303,-0.004216,-0.001193,-0.001210,25.6644,0.0330,143,0,0,-0.000036,-0.000023,-0.032722,-0.001093,0.000445,0.000787,-0.9866,-0.9377,-0.2288
10757,11.0,-0.000036,-0.000015,-0.032363,0.000085,-0.000134,0.004920,-1.0093,-0.9739,0.0054,0.00001760,0.00001996,-0.00218744,-0.00084329,0.00056354,0.01352413,-0.1565,0.1751,-9.7403,-0.004113,-0.003572,-0.002113,25.6644,0.0330,135,0,0,-0.000036,-0.000024,-0.032674,-0.001145,0.000458,0.001714,-0.9874,-0.9374,-0.2285
10768,11.0,-0.000036,-0.000016,-0.032683,-0.000019,-0.000098,0.001350,-1.0108,-0.9770,0.0047,0.00001798,0.00002250,-0.00218746,-0.00073588,0.00049438,0.01687060,-0.1784,0.1749,-9.7101,-0.001999,-0.001989,-0.003990,25.6063,0.0330,139,0,0,-0.000036,-0.000025,-0.032630,-0.001136,0.000449,0.002779,-0.9878,-0.9375,-0.2281
10779,11.0,-0.000036,-0.000016,-0.032612,0.000106,-0.000159,0.002456,-1.0109,-0.9788,0.0073,0.00001787,0.00002236,-0.00218746,-0.00073905,0.00049886,0.01639313,-0.1545,0.1662,-9.7489,-0.000131,-0.003085,0.001839,25.6063,0.0330,140,0,0,-0.000036,-0.000025,-0.032791,-0.001155,0.000465,0.001272,-0.9883,-0.9387,-0.2284
10790,11.0,-0.000036,-0.000017,-0.032581,0.000036,-0.000061,0.003187,-1.0126,-0.9807,0.0086,0.00002010,0.00002385,-0.00218745,-0.00070558,0.00045133,0.01639173,-0.1745,0.1830,-9.7238,-0.000500,-0.001653,0.000043,25.6063,0.0330,140,0,0,-0.000036,-0.000025,-0.032776,-0.001192,0.000337,0.001618,-0.9898,-0.9367,-0.0519
10801,11.0,-0.000036,-0.000018,-0.032748,0.000127,-0.000085,0.001507,-1.0152,-0.9822,0.0088,0.00002009,0.00002371,-0.00218746,-0.00067160,0.00042018,0.01815510,-0.1579,0.1702,-9.7215,-0.004207,-0.002539,-0.002080,25.6063,0.0330,137,0,0,-0.000035,-0.000026,-0.032657,-0.001350,0.000385,0.003343,-0.9892,-0.9364,-0.0514
10813,12.0,-0.000036,-0.000018,-0.032727,0.000075,-0.000232,0.002056,-1.0131,-0.9843,0.0093,0.00001562,0.00002449,-0.00218749,-0.00065113,0.00049616,0.01815608,-0.1721,0.1563,-9.7434,-0.000647,-0.002424,-0.002857,25.6063,0.0330,136,0,0,-0.000035,-0.000026,-0.032843,-0.001307,0.000365,0.001375,-0.9885,-0.9363,-0.0514
10824,11.0,-0.000036,-0.000018,-0.032631,0.000174,-0.000273,0.003487,-1.0146,-0.9839,0.0085,0.00001518,0.00002424,-0.00218749,-0.00065459,0.00049468,0.01754906,-0.1574,0.1659,-9.7372,-0.002925,0.000515,-0.003326,25.6063,0.0330,137,0,0,-0.000036,-0.000027,-0.032747,-0.001293,0.000228,0.002779,-0.9880,-0.9370,-0.0517
10835,11.0,-0.000061,-0.000020,-0.032812,-0.000195,-0.000284,0.001360,-1.0153,-0.9839,0.0082,0.00001369,0.00002118,-0.00218761,-0.00049991,0.00047648,0.01938402,-0.1724,0.1692,-9.7443,-0.002436,-0.003417,-0.004779,25.6063,0.0330,141,0,1,-0.000036,-0.000027,-0.032629,-0.001278,0.000149,0.004159,-0.9879,-0.9360,-0.0520
10846,11.0,-0.000061,-0.000022,-0.032740,-0.000139,-0.000103,0.002772,-1.0171,-0.9866,0.0086,0.00001370,0.00002145,-0.00218760,-0.00051434,0.00048472,0.01893397,-0.1646,0.1896,-9.7180,-0.002675,-0.004113,-0.001517,25.6063,0.0330,136,0,0,-0.000062,-0.000028,-0.032586,-0.001387,0.000132,0.004497,-0.9872,-0.9376,-0.0534
10857,11.0,-0.000061,-0.000023,-0.032706,-0.000067,-0.000030,0.003358,-1.0192,-0.9874,0.0069,0.00001578,0.00001964,-0.00218757,-0.00055377,0.00044906,0.01893402,-0.1617,0.1820,-9.7349,-0.001796,-0.002498,-0.003730,25.6301,0.0330,136,0,0,-0.000062,-0.000030,-0.032760,-0.001340,0.000303,0.002963,-0.9880,-0.9381,-0.0538
10870,13.0,-0.000061,-0.000023,-0.032809,-0.000035,-0.000194,0.002243,-1.0231,-0.9901,0.0078,0.00001562,0.00001978,-0.00218756,-0.00053649,0.00042425,0.02013281,-0.1670,0.1605,-9.7387,-0.005398,-0.003591,-0.000943,25.6301,0.0330,132,0,0,-0.000062,-0.000031,-0.032728,-0.001364,0.000442,0.003434,-0.9870,-0.9386,-0.0549
10882,12.0,-0.000061,-0.000024,-0.032778,-0.000146,-0.000266,0.002980,-1.0250,-0.9932,0.0070,0.00001219,0.00002349,-0.00218759,-0.00048444,0.00046974,0.02013272,-0.1820,0.1646,-9.7253,-0.004935,-0.001940,-0.004856,25.6301,0.0330,142,0,0,-0.000063,-0.000032,-0.032797,-0.001196,0.000186,0.002953,-0.9877,-0.9406,-0.0557
10893,11.0,-0.000061,-0.000026,-0.032678,-0.000048,-0.000072,0.004616,-1.0273,-0.9948,0.0072,0.00001219,0.00002363,-0.00218759,-0.00049612,0.00047866,0.01962958,-0.1611,0.1921,-9.7062,-0.003690,-0.002437,-0.001777,25.6301,0.0330,140,0,0,-0.000062,-0.000032,-0.032764,-0.001331,0.000089,0.003454,-0.9895,-0.9410,0.0758
10904,11.0,-0.000061,-0.000027,-0.032829,-0.000004,-0.000040,0.002772,-1.0300,-0.9956,0.0082,0.00001305,0.00002227,-0.00218757,-0.00049461,0.00043792,0.02121734,-0.1656,0.1791,-9.7379,-0.003609,-0.002252,-0.000053,25.6301,0.0330,137,0,0,-0.000062,-0.000033,-0.032604,-0.001300,0.000182,0.005290,-0.9899,-0.9414,0.0768
10914,10.0,-0.000060,-0.000027,-0.032759,-0.000098,-0.000157,0.003992,-1.0311,-0.9976,0.0087,0.00001291,0.00002250,-0.00218756,-0.00050446,0.00044059,0.02090848,-0.1806,0.1628,-9.7106,-0.002053,-0.003248,-0.001239,25.6538,0.0330,140,0,0,-0.000062,-0.000035,-0.032796,-0.001456,0.000413,0.003181,-0.9895,-0.9408,0.0767
10925,11.0,-0.000060,-0.000028,-0.032711,0.000002,-0.000160,0.004565,-1.0316,-0.9978,0.0093,0.00001199,0.00001923,-0.00218753,-0.00056003,0.00044887,0.02090956,-0.1598,0.1742,-9.7341,-0.001246,-0.002287,-0.000484,25.6538,0.0330,144,0,0,-0.000062,-0.000036,-0.032761,-0.001526,0.000407,0.003826,-0.9894,-0.9435,0.0781
10936,11.0,-0.000061,-0.000029,-0.032810,0.000070,-0.000157,0.003334,-1.0328,-1.0004,0.0105,0.00001189,0.00001911,-0.00218753,-0.00053780,0.00042631,0.02207035,-0.1636,0.1759,-9.7359,-0.002032,-0.004149,-0.000461,25.6538,0.0330,144,0,0,-0.000062,-0.000037,-0.032721,-0.001554,0.000478,0.004233,-0.9890,-0.9447,0.0792
10947,11.0,-0.000060,-0.000030,-0.032770,0.000062,-0.000182,0.003802,-1.0346,-1.0017,0.0096,0.00001009,0.00001900,-0.00218754,-0.00053699,0.00044686,0.02207069,-0.1714,0.1721,-9.7425,-0.003817,-0.002122,-0.003864,25.6538,0.0330,141,0,0,-0.000062,-0.000038,-0.032820,-0.001530,0.000431,0.002874,-0.9895,-0.9452,0.0812
10958,11.0,-0.000060,-0.000032,-0.032676,0.000189,-0.000075,0.004803,-1.0367,-1.0043,0.0104,0.00001019,0.00001863,-0.00218755,-0.00053738,0.00045555,0.02167528,-0.1579,0.1871,-9.7499,-0.003322,-0.004307,-0.001263,25.6538,0.0330,139,0,0,-0.000062,-0.000038,-0.032748,-0.001521,0.000397,0.003695,-0.9897,-0.9460,0.0815
10969,11.0,-0.000061,-0.000032,-0.032822,0.000373,-0.000179,0.003039,-1.0356,-1.0028,0.0081,0.00000579,0.00001001,-0.00218754,-0.00061986,0.00048881,0.02320550,-0.1473,0.1644,-9.7284,-0.000639,-0.002148,-0.004926,25.6776,0.0330,140,0,0,-0.000063,-0.000041,-0.032669,-0.001464,0.000602,0.004226,-0.9902,-0.9474,0.0821
10980,11.0,-0.000062,-0.000034,-0.032754,0.000695,-0.000120,0.003944,-1.0383,-1.0061,0.0105,0.00000590,0.00000844,-0.00218758,-0.00059860,0.00049491,0.02295675,-0.1343,0.1828,-9.7377,-0.004142,-0.006127,0.001111,25.6776,0.0330,138,0,0,-0.000064,-0.000041,-0.032818,-0.001294,0.000510,0.002536,-0.9894,-0.9477,0.0809
10991,11.0,-0.000061,-0.000035,-0.032707,0.000836,-0.000193,0.004612,-1.0419,-1.0048,0.0080,0.00000236,-0.00000181,-0.00218758,-0.00069713,0.00054295,0.02295923,-0.1467,0.1682,-9.7238,-0.007485,-0.003110,-0.005335,25.6776,0.0330,136,0,0,-0.000064,-0.000043,-0.032790,-0.001135,0.000568,0.002911,-0.9909,-0.9472,0.0619
11002,11.0,-0.000059,-0.000036,-0.032813,0.000667,-0.000199,0.003249,-1.0431,-1.0053,0.0103,0.00000198,-0.00000345,-0.00218762,-0.00065237,0.00051582,0.02413740,-0.1797,0.1756,-9.7361,-0.001978,-0.001564,0.001123,25.6776,0.0330,136,0,0,-0.000065,-0.000044,-0.032676,-0.000938,0.000537,0.004227,-0.9926,-0.9470,0.0600
11013,11.0,-0.000057,-0.000037,-0.032775,0.000267,-0.000104,0.003640,-1.0466,-1.0104,0.0131,0.00000481,0.00000847,-0.00218772,-0.00045675,0.00047065,0.02413330,-0.2100,0.1877,-9.7464,-0.004202,-0.002518,-0.000299,25.6776,0.0330,137,0,0,-0.000064,-0.000045,-0.032847,-0.001129,0.000593,0.002179,-0.9924,-0.9466,0.0612
11024,11.0,-0.000055,-0.000037,-0.032690,-0.000013,-0.000053,0.004695,-1.0475,-1.0101,0.0127,0.00000466,0.00000854,-0.00218771,-0.00046297,0.00047418,0.02381928,-0.1983,0.1827,-9.7326,-0.001502,0.000430,-0.002773,25.6776,0.0330,142,0,0,-0.000062,-0.000046,-0.032761,-0.001681,0.000817,0.003107,-0.9932,-0.9497,0.0624
11035,11.0,-0.000056,-0.000039,-0.032830,0.000196,0.000193,0.002877,-1.0517,-1.0094,0.0117,0.00001493,-0.00000032,-0.00218759,-0.00055260,0.00032059,0.02521796,-0.1488,0.2075,-9.7404,-0.002138,-0.002729,-0.000175,25.6776,0.0330,136,0,0,-0.000063,-0.000046,-0.032674,-0.001750,0.000843,0.004108,-0.9932,-0.9513,0.0624
11046,11.0,-0.000056,-0.000041,-0.032763,0.000413,0.000415,0.003857,-1.0546,-1.0110,0.0120,0.00001629,-0.00000135,-0.00218765,-0.00054267,0.00034334,0.02497987,-0.1483,0.2054,-9.7281,-0.003932,-0.003052,-0.002258,25.6776,0.0330,138,0,0,-0.000063,-0.000048,-0.032631,-0.001609,0.001147,0.004489,-0.9931,-0.9513,0.0633
11058,12.0,-0.000056,-0.000040,-0.032715,0.000567,0.000122,0.004240,-1.0532,-1.0101,0.0123,0.00000785,-0.00001037,-0.00218772,-0.00062777,0.00047595,0.02498361,-0.1521,0.1553,-9.7508,-0.001330,-0.002191,-0.002327,25.6776,0.0330,137,0,0,-0.000064,-0.000050,-0.032789,-0.001334,0.001324,0.002959,-0.9954,-0.9499,0.0644
11069,11.0,-0.000056,-0.000038,-0.032819,0.000737,-0.000328,0.003186,-1.0553,-1.0103,0.0124,0.00000705,-0.00001240,-0.00218775,-0.00058294,0.00044505,0.02607802,-0.1486,0.1352,-9.7130,-0.003558,-0.001104,-0.002376,25.6776,0.0330,138,0,0,-0.000065,-0.000050,-0.032758,-0.001241,0.001168,0.003249,-0.9928,-0.9490,0.0651
11079,10.0,-0.000056,-0.000037,-0.032784,0.000824,-0.000858,0.003806,-1.0505,-1.0089,0.0141,-0.00002126,-0.00002256,-0.00218791,-0.00066440,0.00077441,0.02608511,-0.1512,0.1088,-9.7204,-0.004215,-0.001989,-0.003174,25.6776,0.0330,136,0,0,-0.000065,-0.000048,-0.032666,-0.001127,0.000791,0.004437,-0.9935,-0.9484,0.0643
11091,12.0,-0.000054,-0.000038,-0.032693,0.000774,-0.001023,0.004842,-1.0528,-1.0083,0.0153,-0.00002421,-0.00002472,-0.00218789,-0.00064270,0.00074356,0.02578198,-0.1689,0.1553,-9.7375,-0.004297,0.000045,-0.000377,25.6776,0.0330,142,0,0,-0.000065,-0.000047,-0.032819,-0.001003,0.000051,0.002948,-0.9911,-0.9466,0.1204
11102,11.0,-0.000053,-0.000040,-0.032831,0.000745,-0.000878,0.002960,-1.0558,-1.0090,0.0147,-0.00002510,-0.00002929,-0.00218785,-0.00062650,0.00067107,0.02711479,-0.1664,0.1848,-9.7461,-0.005044,-0.002684,-0.002311,25.6776,0.0330,136,0,0,-0.000065,-0.000047,-0.032745,-0.001005,-0.000003,0.003815,-0.9905,-0.9461,0.1210
11113,11.0,-0.000052,-0.000043,-0.032764,0.000626,-0.000542,0.003852,-1.0576,-1.0106,0.0150,-0.00002645,-0.00003111,-0.00218786,-0.00060900,0.00065910,0.02688579,-0.1764,0.2059,-9.7336,-0.003266,-0.003199,-0.001743,25.6776,0.0330,140,0,0,-0.000065,-0.000048,-0.032705,-0.001004,0.000069,0.004162,-0.9917,-0.9454,0.1206
11123,10.0,-0.000052,-0.000045,-0.032723,0.000854,-0.000421,0.004405,-1.0595,-1.0090,0.0146,-0.00002417,-0.00004810,-0.00218775,-0.00076767,0.00060707,0.02688750,-0.1353,0.1898,-9.7252,-0.002414,-0.004152,0.000609,25.6776,0.0330,142,0,0,-0.000065,-0.000051,-0.032806,-0.000967,0.000490,0.002597,-0.9952,-0.9458,0.1212
11135,12.0,-0.000051,-0.000046,-0.032819,0.000929,-0.000386,0.003134,-1.0606,-1.0100,0.0149,-0.00002522,-0.00005102,-0.00218780,-0.00071808,0.00057708,0.02791948,-0.1569,0.1807,-9.7370,-0.001931,-0.002321,-0.002059,25.6776,0.0330,142,0,0,-0.000065,-0.000051,-0.032778,-0.000813,0.000596,0.003055,-0.9965,-0.9441,0.1220
11146,11.0,-0.000024,-0.000046,-0.032782,0.001086,-0.000631,0.003648,-1.0594,-1.0124,0.0165,-0.00003971,-0.00004453,-0.00218775,-0.00075474,0.00071773,0.02792261,-0.1770,0.1493,-9.7327,-0.003111,-0.001894,-0.001305,25.6776,0.0330,142,0,-1,-0.000066,-0.000053,-0.032831,-0.000765,0.000740,0.002476,-0.9962,-0.9442,0.1219
11158,12.0,0.000005,-0.000048,-0.032693,0.001122,-0.000703,0.004475,-1.0611,-1.0167,0.0179,-0.00004157,-0.00003949,-0.00218758,-0.00081310,0.00070336,0.02762859,-0.1869,0.1695,-9.7531,-0.002994,-0.004855,0.000749,25.6776,0.0330,138,0,-1,-0.000039,-0.000052,-0.032766,-0.000833,0.000535,0.003263,-0.9960,-0.9438,0.1221
11169,11.0,0.000007,-0.000049,-0.032833,0.001003,-0.000924,0.002940,-1.0613,-1.0179,0.0198,-0.00005787,-0.00004314,-0.00218770,-0.00076388,0.00081819,0.02891142,-0.1733,0.1484,-9.7136,-0.005787,-0.003124,-0.001546,25.6776,0.0330,141,0,0,-0.000012,-0.000052,-0.032695,-0.001077,0.000281,0.003888,-0.9945,-0.9460,0.1239
11180,11.0,-0.000018,-0.000051,-0.032767,0.000817,-0.000794,0.003731,-1.0622,-1.0171,0.0196,-0.00006032,-0.00005467,-0.00218793,-0.00064985,0.00079640,0.02868827,-0.1518,0.1852,-9.7419,-0.002160,-0.002077,-0.004066,25.6776,0.0330,139,0,1,-0.000012,-0.000053,-0.032840,-0.001073,0.000179,0.002390,-0.9945,-0.9464,0.1243
11191,11.0,-0.000044,-0.000053,-0.032722,0.000700,-0.000578,0.004296,-1.0647,-1.0147,0.0172,-0.00005581,-0.00007840,-0.00218802,-0.00068661,0.00070591,0.02868710,-0.1438,0.1972,-9.7270,-0.002548,-0.003364,-0.003959,25.6776,0.0330,141,0,1,-0.000038,-0.000054,-0.032814,-0.001043,0.000245,0.002707,-0.9948,-0.9459,0.1555
11202,11.0,-0.000044,-0.000030,-0.032822,0.000843,-0.000042,0.003068,-1.0640,-1.0158,0.0163,-0.00006486,-0.00008131,-0.00218788,-0.00064142,0.00060009,0.02965828,-0.1511,0.2009,-9.7306,-0.001398,-0.002569,-0.002981,25.6776,0.0330,139,-1,0,-0.000065,-0.000032,-0.032701,-0.000887,0.000731,0.004082,-0.9966,-0.9449,0.1533
11213,11.0,-0.000018,-0.000031,-0.032785,0.001191,0.000115,0.003641,-1.0673,-1.0161,0.0137,-0.00005722,-0.00008327,-0.00218763,-0.00077336,0.00052300,0.02965923,-0.1571,0.1994,-9.7250,-0.002860,-0.001480,-0.003040,25.6776,0.0330,140,0,-1,-0.000039,-0.000032,-0.032861,-0.000773,0.000839,0.002297,-0.9989,-0.9448,0.1526
11224,11.0,-0.000015,-0.000031,-0.032700,0.000949,-0.000037,0.004665,-1.0693,-1.0179,0.0127,-0.00005698,-0.00008652,-0.00218772,-0.00074730,0.00053006,0.02938097,-0.1854,0.1692,-9.7300,-0.003329,-0.003690,-0.004318,25.6776,0.0330,139,0,0,-0.000013,-0.000034,-0.032765,-0.000810,0.001069,0.003711,-0.9999,-0.9475,0.1540
11235,11.0,-0.000014,-0.000032,-0.032834,0.000823,-0.000119,0.002918,-1.0691,-1.0195,0.0135,-0.00006098,-0.00008860,-0.00218784,-0.00068950,0.00055038,0.03058365,-0.1767,0.1741,-9.7360,-0.000897,-0.003053,-0.002224,25.6776,0.0330,137,0,0,-0.000012,-0.000034,-0.032673,-0.000984,0.000986,0.004710,-1.0004,-0.9472,0.1526
11246,11.0,-0.000013,-0.000033,-0.032767,0.000795,-0.000057,0.003827,-1.0714,-1.0207,0.0136,-0.00006090,-0.00009137,-0.00218792,-0.00066784,0.00055486,0.03037212,-0.1682,0.1886,-9.7289,-0.003671,-0.002698,-0.002598,25.6776,0.0330,135,0,0,-0.000012,-0.000035,-0.032844,-0.001053,0.000991,0.002637,-1.0004,-0.9487,0.1526
11257,11.0,-0.000012,-0.000034,-0.032722,0.000738,-0.000074,0.004466,-1.0737,-1.0215,0.0111,-0.00006212,-0.00009559,-0.00218798,-0.00066285,0.00056842,0.03037224,-0.1712,0.1810,-9.7184,-0.004083,-0.002329,-0.006427,25.5851,0.0330,135,0,0,-0.000012,-0.000038,-0.032708,-0.001036,0.001158,0.004050,-1.0009,-0.9508,0.1531
11268,11.0,-0.000011,-0.000033,-0.033347,0.000703,-0.000241,-0.002937,-1.0739,-1.0224,0.0109,-0.00006287,-0.00009841,-0.00218804,-0.00056666,0.00048299,0.03463528,-0.1699,0.1662,-9.7268,-0.000600,-0.002272,-0.002944,25.5851,0.0340,138,0,0,-0.000012,-0.000039,-0.032665,-0.001053,0.001234,0.004498,-1.0017,-0.9509,0.1512
11279,11.0,-0.000011,-0.000034,-0.033377,0.000840,-0.000470,-0.002401,-1.0735,-1.0221,0.0110,-0.00007664,-0.00011217,-0.00218809,-0.00065883,0.00060798,0.03463896,-0.1511,0.1561,-9.7243,-0.003400,-0.003415,-0.002396,25.5851,0.0340,146,0,0,-0.000012,-0.000039,-0.033390,-0.001049,0.001194,-0.003571,-1.0010,-0.9515,0.1506
11290,11.0,-0.000010,-0.000035,-0.033324,0.000913,-0.000553,-0.000955,-1.0753,-1.0248,0.0127,-0.00007819,-0.00011553,-0.00218814,-0.00063860,0.00060367,0.03414850,-0.1581,0.1713,-9.7252,-0.003208,-0.005103,0.000106,25.5851,0.0340,136,0,0,-0.000012,-0.000039,-0.033452,-0.000936,0.000979,-0.002680,-1.0002,-0.9504,0.1802
11301,11.0,-0.000009,-0.000036,-0.033144,0.000821,-0.000432,0.001711,-1.0772,-1.0239,0.0111,-0.00007711,-0.00011887,-0.00218815,-0.00063613,0.00058161,0.03298677,-0.1746,0.1904,-9.7304,-0.002672,0.000574,-0.004391,25.5851,0.0330,138,0,0,-0.000013,-0.000040,-0.033380,-0.000874,0.000908,-0.001210,-1.0003,-0.9514,0.1813
11312,11.0,-0.000008,-0.000038,-0.033064,0.000855,-0.000367,0.002897,-1.0790,-1.0256,0.0118,-0.00007815,-0.00012210,-0.00218821,-0.00061604,0.00057980,0.03261418,-0.1628,0.1870,-9.7307,-0.003132,-0.003555,-0.001427,25.5851,0.0330,140,0,0,-0.000013,-0.000041,-0.033070,-0.000720,0.001051,0.002903,-1.0002,-0.9504,0.1819
11323,11.0,-0.000008,-0.000039,-0.033029,0.000844,-0.000384,0.003427,-1.0790,-1.0259,0.0117,-0.00008212,-0.00012978,-0.00218825,-0.00063615,0.00059864,0.03261478,-0.1662,0.1788,-9.7261,-0.001122,-0.002546,-0.002368,25.5851,0.0330,142,0,0,-0.000013,-0.000041,-0.033039,-0.000716,0.001095,0.003263,-1.0013,-0.9512,0.1823
11334,11.0,-0.000006,-0.000040,-0.033484,0.000746,-0.000359,-0.001866,-1.0798,-1.0282,-0.0659,-0.00008329,-0.00013291,-0.00217474,-0.00050852,0.00058374,0.03561847,-0.1769,0.1830,-9.7278,-0.002831,-0.003071,-0.002554,25.5508,0.0340,142,0,0,-0.000013,-0.000042,-0.033004,-0.000770,0.001128,0.003658,-1.0003,-0.9511,0.1827
11345,11.0,-0.000006,-0.000040,-0.033502,0.000832,-0.000656,-0.001435,-1.0775,-1.0274,-0.0652,-0.00010289,-0.00014500,-0.00217482,-0.00057477,0.00074356,0.03562231,-0.1573,0.1480,-9.7329,-0.001481,-0.001895,-0.002327,25.5508,0.0340,143,0,0,-0.000013,-0.000044,-0.033543,-0.000786,0.001188,-0.002002,-1.0004,-0.9527,0.1837
11356,11.0,-0.000005,-0.000041,-0.033425,0.000762,-0.000706,0.000346,-1.0784,-1.0287,-0.0659,-0.00010542,-0.00014801,-0.00217483,-0.00056093,0.00073415,0.03507007,-0.1733,0.1725,-9.7074,-0.002107,-0.002838,-0.003368,25.5508,0.0340,144,0,0,-0.000013,-0.000044,-0.033470,-0.000728,0.001031,-0.000588,-0.9980,-0.9520,0.1842
11367,11.0,-0.000004,-0.000041,-0.033183,0.000803,-0.000786,0.003639,-1.0780,-1.0271,-0.0681,-0.00011695,-0.00015770,-0.00217485,-0.00062783,0.00082157,0.03367100,-0.1622,0.1670,-9.7229,-0.002253,0.000230,-0.005797,25.5508,0.0330,142,0,0,-0.000013,-0.000044,-0.033474,-0.000728,0.000987,-0.000056,-0.9977,-0.9525,0.1839
11378,11.0,-0.000004,-0.000043,-0.033073,0.000887,-0.000690,0.004853,-1.0796,-1.0284,-0.0696,-0.00011945,-0.00016127,-0.00217488,-0.00060830,0.00081042,0.03325113,-0.1585,0.1866,-9.7382,-0.003273,-0.002946,-0.004871,25.5508,0.0330,143,0,0,-0.000013,-0.000045,-0.033076,-0.000831,0.000894,0.004611,-0.9965,-0.9515,0.1823
11389,11.0,-0.000003,-0.000044,-0.033015,0.000798,-0.000859,0.005563,-1.0772,-1.0289,-0.0694,-0.00013575,-0.00016545,-0.00217497,-0.00059267,0.00091422,0.03325260,-0.1745,0.1578,-9.7094,-0.000193,-0.001819,-0.003443,25.5508,0.0330,145,0,0,-0.000013,-0.000046,-0.033028,-0.000801,0.000942,0.004859,-0.9968,-0.9529,0.1491
11400,11.0,-0.000001,-0.000045,-0.032920,0.000683,-0.000940,0.006420,-1.0786,-1.0307,-0.0704,-0.00013932,-0.00016825,-0.00217495,-0.00057546,0.00089161,0.03306440,-0.1790,0.1676,-9.7298,-0.003124,-0.003414,-0.003704,25.5508,0.0330,138,0,0,-0.000012,-0.000046,-0.032796,-0.000884,0.000725,0.006967,-0.9947,-0.9533,0.1470
11411,11.0,-0.000001,-0.000047,-0.032847,0.000743,-0.000850,0.006808,-1.0797,-1.0317,-0.0709,-0.00014244,-0.00017870,-0.00217490,-0.00062526,0.00086918,0.03306474,-0.1617,0.1849,-9.7386,-0.002338,-0.004172,-0.001908,25.5508,0.0340,139,0,0,-0.000013,-0.000047,-0.033546,-0.000842,0.000838,-0.001483,-0.9948,-0.9534,0.1467
11422,11.0,-0.000000,-0.000049,-0.032681,0.000806,-0.000878,0.008312,-1.0807,-1.0334,-0.0715,-0.00014576,-0.00018208,-0.00217490,-0.00061045,0.00085510,0.03253313,-0.1620,0.1738,-9.7347,-0.002398,-0.003578,-0.003261,25.5508,0.0340,140,0,0,-0.000013,-0.000048,-0.033482,-0.000843,0.000859,-0.000371,-0.9949,-0.9545,0.1467
11433,11.0,-0.000000,-0.000051,-0.032807,0.000957,-0.000829,0.006256,-1.0818,-1.0334,-0.0708,-0.00015107,-0.00019943,-0.00217483,-0.00068707,0.00083060,0.03380359,-0.1505,0.1811,-9.7274,-0.002883,-0.004074,0.000367,25.5508,0.0330,138,0,0,-0.000013,-0.000049,-0.033484,-0.000859,0.000983,-0.000104,-0.9949,-0.9545,0.1470
11444,11.0,0.000000,-0.000052,-0.032666,0.001045,-0.000954,0.007771,-1.0826,-1.0351,-0.1103,-0.00015485,-0.00020396,-0.00216703,-0.00063356,0.00083967,0.03339838,-0.1573,0.1635,-9.7109,-0.002778,-0.003029,-0.001596,25.5508,0.0330,141,0,0,-0.000013,-0.000051,-0.033116,-0.000795,0.000975,0.004188,-0.9937,-0.9551,0.1496
11455,11.0,0.000001,-0.000053,-0.032578,0.001136,-0.000939,0.008149,-1.0811,-1.0344,-0.1086,-0.00016301,-0.00022046,-0.00216701,-0.00070811,0.00085477,0.03339977,-0.1545,0.1766,-9.7395,0.000640,-0.002802,0.001360,25.5508,0.0330,141,0,0,-0.000013,-0.000051,-0.033072,-0.000736,0.000926,0.004659,-0.9932,-0.9554,0.1500
11466,11.0,-0.000027,-0.000054,-0.033827,0.001106,-0.000987,-0.007098,-1.0830,-1.0336,-0.1049,-0.00016783,-0.00023851,-0.00216732,-0.00045910,0.00068744,0.04100133,-0.1366,0.1705,-9.7339,-0.004042,-0.002269,0.002516,25.6644,0.0350,142,0,1,-0.000013,-0.000052,-0.032852,-0.000626,0.000863,0.006617,-0.9928,-0.9550,0.1501
11477,11.0,-0.000026,-0.000057,-0.033904,0.001173,-0.000852,-0.006887,-1.0856,-1.0341,-0.1053,-0.00016877,-0.00025409,-0.00216728,-0.00052237,0.00064455,0.04100151,-0.1567,0.1904,-9.7468,-0.004290,-0.004348,-0.001492,25.6644,0.0350,135,0,0,-0.000041,-0.000053,-0.034156,-0.000547,0.000839,-0.007872,-0.9940,-0.9547,0.1516
11488,11.0,-0.000025,-0.000058,-0.033931,0.001279,-0.000856,-0.006033,-1.0869,-1.0339,-0.1059,-0.00017248,-0.00025979,-0.00216734,-0.00048958,0.00062492,0.04072871,-0.1535,0.1765,-9.7401,-0.002851,-0.000848,-0.003363,25.6644,0.0350,139,0,0,-0.000041,-0.000055,-0.034312,-0.000392,0.000938,-0.007839,-0.9952,-0.9548,0.1228
11500,12.0,-0.000023,-0.000087,-0.033442,0.001241,-0.001067,0.000751,-1.0887,-1.0346,-0.1046,-0.00016480,-0.00027042,-0.00216759,-0.00055529,0.00073444,0.03762107,-0.1669,0.1857,-9.7441,-0.001650,-0.003164,-0.000774,25.6644,0.0330,139,1,0,-0.000041,-0.000055,-0.034326,-0.000350,0.000901,-0.006883,-0.9956,-0.9534,0.1215
11511,11.0,-0.000022,-0.000089,-0.033395,0.001292,-0.001041,0.001716,-1.0885,-1.0367,-0.1037,-0.00016908,-0.00027641,-0.00216764,-0.00052045,0.00071072,0.03741276,-0.1577,0.1783,-9.7215,-0.000389,-0.004746,-0.000998,25.6644,0.0330,139,0,0,-0.000041,-0.000082,-0.033540,-0.000389,0.000912,0.002490,-0.9954,-0.9538,0.1222
11523,12.0,0.000006,-0.000092,-0.033370,0.001641,-0.000890,0.002334,-1.0897,-1.0376,-0.1054,-0.00017080,-0.00028235,-0.00216735,-0.00064766,0.00066841,0.03741416,-0.1571,0.1906,-9.7180,-0.002119,-0.002972,-0.002678,25.6644,0.0330,143,0,-1,-0.000040,-0.000084,-0.033441,-0.000440,0.001064,0.003663,-0.9956,-0.9540,0.1242
11534,11.0,0.000034,-0.000091,-0.033118,0.001896,-0.001201,0.005392,-1.0900,-1.0388,-0.1047,-0.00017619,-0.00027857,-0.00216715,-0.00069027,0.00065714,0.03619502,-0.1627,0.1452,-9.7284,-0.001461,-0.001615,-0.000431,25.6644,0.0330,143,0,-1,-0.000015,-0.000084,-0.033342,-0.000363,0.001172,0.004722,-0.9972,-0.9548,0.1240
11545,11.0,0.000035,-0.000092,-0.033056,0.001913,-0.001472,0.005877,-1.0875,-1.0374,-0.1039,-0.00020581,-0.00030068,-0.00216728,-0.00075215,0.00082190,0.03619874,-0.1531,0.1428,-9.7276,-0.002417,-0.002481,-0.002052,25.6644,0.0360,145,0,0,0.000011,-0.000084,-0.035026,-0.000319,0.000825,-0.013363,-0.9941,-0.9549,0.1259
11558,13.0,0.000041,-0.000065,-0.032907,0.001699,-0.001664,0.007059,-1.0876,-1.0365,-0.0509,-0.00022791,-0.00030884,-0.00217868,-0.00075040,0.00065486,0.03580205,-0.1777,0.1285,-9.7458,-0.002557,-0.000979,-0.001746,25.6089,0.0360,139,-1,0,0.000011,-0.000084,-0.035099,-0.000219,0.000605,-0.012434,-0.9945,-0.9552,0.1262
11569,11.0,0.000041,-0.000066,-0.032917,0.001825,-0.001677,0.006629,-1.0863,-1.0335,-0.0508,-0.00024765,-0.00033635,-0.00217866,-0.00085208,0.00070063,0.03629096,-0.1425,0.1643,-9.7152,-0.002052,-0.001104,-0.001282,25.6089,0.0330,142,0,0,0.000011,-0.000056,-0.034034,-0.000197,0.000349,0.002104,-0.9912,-0.9563,0.1265
11580,11.0,0.000042,-0.000066,-0.032789,0.001784,-0.001770,0.007738,-1.0856,-1.0328,-0.0508,-0.00025623,-0.00034508,-0.00217866,-0.00080460,0.00065443,0.03599998,-0.1606,0.1576,-9.7276,-0.000499,-0.000565,-0.002029,25.6089,0.0330,139,0,0,0.000011,-0.000057,-0.033960,-0.000103,0.000322,0.003135,-0.9905,-0.9552,0.1269
11591,11.0,0.000044,-0.000068,-0.032702,0.001640,-0.001561,0.008081,-1.0865,-1.0321,-0.0503,-0.00026281,-0.00035595,-0.00217865,-0.00078200,0.00060197,0.03599845,-0.1715,0.1878,-9.7396,-0.002640,-0.001090,-0.001073,25.6089,0.0330,136,0,0,0.000010,-0.000057,-0.033927,-0.000041,0.000243,0.003503,-0.9890,-0.9554,0.0677
11602,11.0,0.000073,-0.000072,-0.033879,0.001876,-0.001311,-0.006202,-1.0865,-1.0348,-0.0483,-0.00026999,-0.00035252,-0.00217843,-0.00069580,0.00044867,0.04268697,-0.1657,0.1951,-9.7317,-0.001200,-0.004189,0.001523,25.6089,0.0350,144,0,-1,0.000036,-0.000059,-0.033761,0.000130,0.000366,0.005034,-0.9884,-0.9557,0.0689
11613,11.0,0.000075,-0.000101,-0.033947,0.001750,-0.001646,-0.006042,-1.0873,-1.0345,-0.0474,-0.00027372,-0.00036556,-0.00217878,-0.00068505,0.00056813,0.04268886,-0.1691,0.1680,-9.7500,-0.002787,-0.002212,-0.002092,25.6644,0.0350,140,1,0,0.000036,-0.000088,-0.034492,0.000095,0.000401,-0.003208,-0.9893,-0.9566,0.0702
11625,12.0,0.000078,-0.000105,-0.033969,0.001666,-0.001465,-0.005104,-1.0888,-1.0352,-0.0474,-0.00028066,-0.00037381,-0.00217881,-0.00064212,0.00053275,0.04242735,-0.1673,0.1869,-9.7340,-0.003349,-0.002508,-0.002303,25.6644,0.0350,141,0,0,0.000010,-0.000117,-0.034554,-0.000038,0.000448,-0.002896,-0.9912,-0.9570,0.0715
11636,11.0,0.000080,-0.000106,-0.033451,0.001568,-0.001498,0.001881,-1.0896,-1.0346,-0.0482,-0.00029896,-0.00038599,-0.00217887,-0.00069086,0.00064264,0.03945621,-0.1683,0.1656,-9.7332,-0.005026,-0.001468,-0.004166,25.6644,0.0330,141,0,0,0.000010,-0.000118,-0.034518,-0.000067,0.000534,-0.001903,-0.9918,-0.9567,0.0717
11647,11.0,0.000080,-0.000108,-0.033393,0.001761,-0.001435,0.002563,-1.0910,-1.0354,-0.0479,-0.00030576,-0.00039478,-0.00217893,-0.00064480,0.00060773,0.03926044,-0.1404,0.1774,-9.7456,-0.003508,-0.003026,-0.001790,25.6644,0.0330,140,0,0,0.000009,-0.000119,-0.033509,0.000211,0.000459,0.008801,-0.9932,-0.9560,0.0728
11658,11.0,0.000083,-0.000110,-0.033361,0.001482,-0.001446,0.003239,-1.0905,-1.0368,-0.0436,-0.00032277,-0.00039735,-0.00217905,-0.00056270,0.00065319,0.03925967,-0.1864,0.1686,-9.7060,-0.002567,-0.002723,0.003147,25.6644,0.0330,142,0,0,0.000009,-0.000119,-0.033372,0.000321,0.000469,0.009559,-0.9939,-0.9542,0.0727
11669,11.0,0.000084,-0.000111,-0.034208,0.001399,-0.001571,-0.006737,-1.0905,-1.0391,-0.1371,-0.00033103,-0.00040517,-0.00215626,-0.00036662,0.00060499,0.04380288,-0.1703,0.1582,-9.7386,-0.003174,-0.003551,-0.002750,25.6644,0.0350,143,0,0,0.000010,-0.000119,-0.033274,0.000141,0.000434,0.010033,-0.9941,-0.9541,0.0747
11680,11.0,0.000085,-0.000113,-0.034281,0.001447,-0.001484,-0.006439,-1.0911,-1.0380,-0.1362,-0.00034297,-0.00042458,-0.00215622,-0.00042761,0.00060526,0.04380371,-0.1560,0.1784,-9.7363,-0.003350,-0.002330,0.000126,25.6644,0.0350,142,0,0,0.000010,-0.000121,-0.034242,0.000255,0.000482,-0.001013,-0.9935,-0.9553,-0.0024
11691,11.0,0.000086,-0.000115,-0.034303,0.001452,-0.001432,-0.005546,-1.0908,-1.0383,-0.1353,-0.00035000,-0.00043200,-0.00215623,-0.00039155,0.00057141,0.04355460,-0.1610,0.1763,-9.7336,-0.000801,-0.002014,-0.000925,25.6644,0.0350,141,0,0,0.000010,-0.000122,-0.034251,0.000299,0.000537,-0.000821,-0.9947,-0.9552,-0.0014
11702,11.0,0.000087,-0.000116,-0.033611,0.001505,-0.001363,0.003408,-1.0911,-1.0356,-0.1357,-0.00036162,-0.00045176,-0.00215621,-0.00052044,0.00064628,0.03974408,-0.1549,0.1775,-9.7465,-0.002744,0.000299,-0.002009,25.6644,0.0330,141,0,0,0.000010,-0.000123,-0.033543,0.000339,0.000635,0.007476,-0.9937,-0.9555,-0.0003
11713,11.0,0.000088,-0.000118,-0.033536,0.001377,-0.001363,0.004217,-1.0922,-1.0366,-0.1362,-0.00036820,-0.00045878,-0.00215622,-0.00048623,0.00061445,0.03955501,-0.1738,0.1726,-9.7330,-0.003174,-0.003063,-0.003111,25.6644,0.0330,142,0,0,0.000011,-0.000125,-0.033345,0.000352,0.000864,0.008556,-0.9960,-0.9549,-0.0019
11724,11.0,0.000089,-0.000121,-0.033488,0.001358,-0.001169,0.004514,-1.0926,-1.0390,-0.1338,-0.00036932,-0.00047424,-0.00215619,-0.00051717,0.00055446,0.03955431,-0.1631,0.1942,-9.7402,-0.000732,-0.007026,0.002543,25.6644,0.0330,138,0,0,0.000011,-0.000126,-0.033258,0.000288,0.000910,0.008852,-0.9970,-0.9556,-0.0022
11735,11.0,0.000090,-0.000122,-0.034256,0.001406,-0.001374,-0.004454,-1.0942,-1.0400,-0.1336,-0.00037660,-0.00048202,-0.00215621,-0.00040771,0.00044441,0.04365991,-0.1577,0.1538,-9.7124,-0.004001,-0.003260,-0.001815,25.6644,0.0350,138,0,0,0.000011,-0.000128,-0.033169,0.000310,0.001024,0.009052,-0.9964,-0.9576,0.0002
11746,11.0,0.000091,-0.000123,-0.034303,0.001429,-0.001454,-0.004070,-1.0925,-1.0392,-0.1330,-0.00039770,-0.00050046,-0.00215623,-0.00045819,0.00051890,0.04366186,-0.1586,0.1627,-9.7289,-0.001544,-0.002425,-0.001497,25.6644,0.0350,142,0,0,0.000011,-0.000129,-0.034291,0.000423,0.000997,-0.003093,-0.9970,-0.9575,0.0024
11757,11.0,0.000092,-0.000125,-0.034300,0.001493,-0.001450,-0.003464,-1.0939,-1.0395,-0.1348,-0.00040494,-0.00050817,-0.00215625,-0.00042245,0.00048570,0.04342019,-0.1562,0.1726,-9.7599,-0.003644,-0.002005,-0.005017,25.6644,0.0350,135,0,0,0.000011,-0.000129,-0.034270,0.000415,0.000929,-0.002202,-0.9959,-0.9573,0.0035
11768,11.0,0.000093,-0.000127,-0.033600,0.001563,-0.001463,0.005585,-1.0929,-1.0382,-0.1355,-0.00042198,-0.00053040,-0.00215625,-0.00056067,0.00059717,0.03979266,-0.1522,0.1692,-9.7218,-0.001890,-0.002417,-0.002965,25.6644,0.0330,141,0,0,0.000011,-0.000129,-0.034292,0.000489,0.000786,-0.002157,-0.9959,-0.9576,0.0054
11779,11.0,0.000068,-0.000127,-0.033499,0.001228,-0.001714,0.006621,-1.0935,-1.0377,-0.0068,-0.00043037,-0.00055077,-0.00219147,-0.00057522,0.00044767,0.03960765,-0.1641,0.1470,-9.7130,-0.000299,-0.004927,-0.003109,25.6644,0.0330,136,0,1,0.000012,-0.000131,-0.033401,0.000528,0.000786,0.007524,-0.9967,-0.9576,0.0059
11790,11.0,0.000071,-0.000130,-0.033424,0.000998,-0.001535,0.007026,-1.0950,-1.0388,-0.0072,-0.00043861,-0.00054988,-0.00219145,-0.00050081,0.00041080,0.03960559,-0.1885,0.1868,-9.7301,-0.003955,-0.001764,-0.003306,25.6644,0.0330,135,0,0,-0.000014,-0.000131,-0.033324,0.000430,0.000627,0.007917,-0.9960,-0.9572,0.0725
11801,11.0,0.000071,-0.000133,-0.033668,0.000981,-0.001186,0.003771,-1.0956,-1.0393,-0.0069,-0.00044489,-0.00055531,-0.00219144,-0.00044751,0.00035192,0.04118047,-0.1683,0.2062,-9.7191,-0.002307,-0.002140,-0.001662,25.6644,0.0340,135,0,0,-0.000012,-0.000133,-0.033630,0.000340,0.000910,0.003382,-0.9998,-0.9562,0.0702
11812,11.0,0.000071,-0.000135,-0.033625,0.001148,-0.001163,0.004137,-1.0942,-1.0371,-0.0083,-0.00045738,-0.00057860,-0.00219138,-0.00055201,0.00037335,0.04118243,-0.1478,0.1761,-9.7329,-0.000359,-0.001354,-0.003499,25.6855,0.0340,140,0,0,-0.000011,-0.000134,-0.033594,0.000120,0.001081,0.003698,-1.0002,-0.9557,0.0695
11823,11.0,0.000072,-0.000136,-0.033537,0.001242,-0.001051,0.005199,-1.0948,-1.0371,-0.0085,-0.00046276,-0.00058516,-0.00219142,-0.00052267,0.00035000,0.04098837,-0.1550,0.1857,-9.7118,-0.002151,-0.001381,-0.002687,25.6855,0.0340,140,0,0,-0.000011,-0.000135,-0.033471,0.000200,0.001036,0.004702,-0.9994,-0.9551,0.0683
11834,11.0,0.000073,-0.000138,-0.033756,0.001273,-0.001071,0.002476,-1.0948,-1.0356,-0.0090,-0.00047713,-0.00060260,-0.00219144,-0.00054822,0.00036560,0.04232780,-0.1592,0.1725,-9.7179,-0.003026,-0.001213,-0.002839,25.6855,0.0340,141,0,0,-0.000011,-0.000135,-0.033736,0.000227,0.001078,0.001767,-0.9999,-0.9540,0.0684
11845,11.0,0.000074,-0.000138,-0.033697,0.001241,-0.001348,0.003207,-1.0974,-1.0367,-0.0092,-0.00048383,-0.00060908,-0.00219145,-0.00051889,0.00033538,0.04217900,-0.1668,0.1483,-9.7315,-0.005511,-0.003269,-0.002487,25.6855,0.0340,136,0,0,-0.000011,-0.000136,-0.033716,0.000260,0.001074,0.002180,-1.0000,-0.9534,0.0684
11856,11.0,0.000076,-0.000141,-0.033659,0.001158,-0.001310,0.003641,-1.0983,-1.0385,-0.0065,-0.00049644,-0.00061860,-0.00219147,-0.00051559,0.00035351,0.04217911,-0.1720,0.1772,-9.7253,-0.003985,-0.005097,0.001814,25.6855,0.0340,136,0,0,-0.000010,-0.000137,-0.033616,0.000272,0.000927,0.003414,-0.9993,-0.9536,0.0700
11868,12.0,0.000078,-0.000144,-0.033796,0.001201,-0.001140,0.002101,-1.0993,-1.0391,-0.0062,-0.00050245,-0.00062524,-0.00219149,-0.00046912,0.00030886,0.04304510,-0.1617,0.1906,-9.7148,-0.002618,-0.002331,-0.001842,25.6855,0.0340,138,0,0,-0.000010,-0.000138,-0.033580,0.000202,0.000954,0.003798,-1.0009,-0.9553,0.0725
11879,11.0,0.000079,-0.000146,-0.033772,0.001085,-0.001118,0.002328,-1.1004,-1.0397,-0.0071,-0.00051434,-0.00063182,-0.00219154,-0.00044753,0.00032896,0.04304494,-0.1767,0.1778,-9.7432,-0.004273,-0.002427,-0.004043,25.6855,0.0340,141,0,0,-0.000009,-0.000139,-0.033804,0.000174,0.001081,0.001455,-1.0010,-0.9553,0.0730
11890,11.0,0.000081,-0.000147,-0.033705,0.001020,-0.001083,0.003150,-1.1018,-1.0399,0.0571,-0.00051983,-0.00063723,-0.00221069,-0.00048471,0.00024902,0.04285534,-0.1721,0.1806,-9.7317,-0.002397,-0.002875,-0.001775,25.6855,0.0340,142,0,0,-0.000008,-0.000140,-0.033769,0.000009,0.000991,0.002005,-1.0027,-0.9551,0.1066
11901,11.0,0.000081,-0.000149,-0.033296,0.001054,-0.000994,0.007945,-1.1016,-1.0398,0.0554,-0.00052626,-0.00065212,-0.00221065,-0.00055966,0.00027054,0.04112697,-0.1619,0.1858,-9.7208,-0.001251,-0.003083,-0.004342,25.6855,0.0330,140,0,0,-0.000008,-0.000140,-0.033303,-0.000008,0.001037,0.007164,-1.0038,-0.9557,0.1064
11912,11.0,0.000083,-0.000149,-0.033176,0.000941,-0.001184,0.008736,-1.1036,-1.0389,0.0556,-0.00053270,-0.00065711,-0.00221063,-0.00053837,0.00024269,0.04098316,-0.1780,0.1578,-9.7267,-0.004463,0.000177,-0.001868,25.6855,0.0330,138,0,0,-0.000008,-0.000141,-0.033230,0.000056,0.001137,0.007517,-1.0039,-0.9554,0.1047
11923,11.0,0.000083,-0.000152,-0.033079,0.001076,-0.001007,0.009050,-1.1057,-1.0386,0.0562,-0.00053424,-0.00067789,-0.00221052,-0.00062499,0.00019414,0.04098361,-0.1522,0.1951,-9.7374,-0.003851,-0.003992,0.000068,25.6855,0.0330,136,0,0,0.000019,-0.000142,-0.033032,0.000045,0.001092,0.008507,-1.0040,-0.9545,0.1047
11934,11.0,0.000084,-0.000153,-0.033506,0.001044,-0.001050,0.003397,-1.1074,-1.0398,0.0560,-0.00053981,-0.00068386,-0.00221054,-0.00055573,0.00012336,0.04341627,-0.1692,0.1741,-9.7198,-0.004085,-0.003351,-0.002598,25.6855,0.0340,136,0,0,0.000019,-0.000143,-0.033555,0.000095,0.001144,0.001834,-1.0057,-0.9544,0.1053
11945,11.0,0.000086,-0.000155,-0.033467,0.000910,-0.001061,0.003634,-1.1072,-1.0406,0.0560,-0.00055304,-0.00068733,-0.00221060,-0.00052192,0.00015614,0.04341616,-0.1807,0.1763,-9.7418,-0.002409,-0.002290,-0.002820,25.6855,0.0340,144,0,0,0.000019,-0.000145,-0.033478,0.000053,0.001255,0.002730,-1.0087,-0.9560,0.1059
11956,11.0,0.000087,-0.000156,-0.033408,0.000884,-0.001040,0.004214,-1.1082,-1.0408,0.0559,-0.00055851,-0.00069210,-0.00221059,-0.00050115,0.00013226,0.04333414,-0.1709,0.1799,-9.7295,-0.002857,-0.001609,-0.002478,25.7437,0.0340,142,0,0,0.000020,-0.000145,-0.033428,-0.000041,0.001265,0.003139,-1.0087,-0.9561,0.1054
11967,11.0,0.000087,-0.000158,-0.033157,0.000975,-0.000940,0.007038,-1.1094,-1.0393,0.0552,-0.00056440,-0.00070915,-0.00221052,-0.00058262,0.00013517,0.04241712,-0.1577,0.1881,-9.7209,-0.003274,-0.001328,-0.002486,25.7437,0.0330,141,0,0,0.000020,-0.000146,-0.033395,-0.000076,0.001249,0.003430,-1.0091,-0.9565,0.1057
11978,11.0,0.000087,-0.000159,-0.033064,0.001070,-0.000976,0.007561,-1.1106,-1.0393,0.0536,-0.00056955,-0.00071495,-0.00221055,-0.00055701,0.00011260,0.04235461,-0.1577,0.1758,-9.7316,-0.003269,-0.001485,-0.004819,25.7437,0.0330,138,0,0,0.000021,-0.000147,-0.033042,-0.000163,0.001319,0.006681,-1.0112,-0.9574,0.1065
11989,11.0,0.000088,-0.000160,-0.032979,0.001099,-0.000851,0.007855,-1.1122,-1.0378,0.0542,-0.00057307,-0.00072995,-0.00221051,-0.00059720,0.00008437,0.04235465,-0.1623,0.1922,-9.7378,-0.003446,-0.000845,-0.000598,25.7437,0.0330,136,0,0,0.000021,-0.000148,-0.032974,-0.000171,0.001296,0.006957,-1.0121,-0.9569,0.1295
12000,11.0,0.000090,-0.000161,-0.033479,0.001034,-0.001079,0.001300,-1.1131,-1.0387,0.0977,-0.00057885,-0.00073590,-0.00222489,-0.00056748,-0.00003205,0.04498976,-0.1722,0.1587,-9.7383,-0.002086,-0.003826,-0.002469,25.7437,0.0340,139,0,0,0.000022,-0.000148,-0.033526,-0.000241,0.001288,-0.000019,-1.0116,-0.9577,0.1293
12011,11.0,0.000091,-0.000162,-0.033463,0.000920,-0.001059,0.001728,-1.1121,-1.0385,0.1000,-0.00059096,-0.00074091,-0.00222493,-0.00054404,-0.00001041,0.04498962,-0.1780,0.1795,-9.7228,-0.000813,-0.001132,0.001106,25.7437,0.0340,140,0,0,0.000022,-0.000149,-0.033526,-0.000257,0.001182,0.000138,-1.0105,-0.9579,0.1291
12022,11.0,0.000092,-0.000163,-0.033424,0.000951,-0.001060,0.002322,-1.1134,-1.0396,0.0997,-0.00059636,-0.00074607,-0.00222494,-0.00052210,-0.00003336,0.04490967,-0.1646,0.1788,-9.7269,-0.003424,-0.003104,-0.002718,25.7437,0.0340,143,0,0,0.000022,-0.000149,-0.033505,-0.000378,0.001175,0.000667,-1.0101,-0.9574,0.1305
12033,11.0,0.000092,-0.000164,-0.033719,0.000953,-0.001173,-0.000996,-1.1126,-1.0382,0.0999,-0.00061792,-0.00075801,-0.00222498,-0.00052242,0.00002172,0.04633962,-0.1666,0.1649,-9.7224,-0.003114,-0.000540,-0.002267,25.8018,0.0340,143,0,0,0.000023,-0.000149,-0.033790,-0.000438,0.001084,-0.002247,-1.0114,-0.9560,0.1295
12044,11.0,0.000093,-0.000165,-0.033731,0.001089,-0.001223,-0.000658,-1.1139,-1.0386,0.1009,-0.00062438,-0.00076394,-0.00222497,-0.00049552,-0.00000754,0.04635300,-0.1536,0.1725,-9.7268,-0.003506,-0.002182,-0.000762,25.8018,0.0340,143,0,0,0.000023,-0.000149,-0.033811,-0.000447,0.001002,-0.001935,-1.0113,-0.9559,0.1298
12055,11.0,0.000093,-0.000167,-0.033737,0.001254,-0.001228,-0.000424,-1.1148,-1.0368,0.0989,-0.00063959,-0.00078848,-0.00222491,-0.00059666,0.00002910,0.04635518,-0.1473,0.1759,-9.7398,-0.004762,-0.002261,-0.004674,25.8018,0.0340,143,0,0,0.000023,-0.000149,-0.033829,-0.000353,0.000947,-0.001655,-1.0118,-0.9560,0.1309
12066,11.0,0.000093,-0.000168,-0.033877,0.001399,-0.001315,-0.001480,-1.1148,-1.0369,0.1005,-0.00064674,-0.00079633,-0.00222494,-0.00055133,-0.00001395,0.04695873,-0.1487,0.1680,-9.7107,-0.001412,-0.002036,0.000117,25.8018,0.0340,141,0,0,0.000023,-0.000150,-0.033938,-0.000327,0.001026,-0.001926,-1.0097,-0.9549,0.1295
12077,11.0,0.000095,-0.000169,-0.033893,0.001325,-0.001373,-0.001361,-1.1157,-1.0361,0.1008,-0.00066690,-0.00080793,-0.00222502,-0.00055249,0.00004763,0.04695967,-0.1699,0.1692,-9.7493,-0.005532,-0.001296,-0.002223,25.8018,0.0340,140,0,0,0.000023,-0.000151,-0.033959,-0.000279,0.001011,-0.001536,-1.0096,-0.9544,0.1302
12088,11.0,0.000097,-0.000171,-0.033877,0.001231,-0.001216,-0.000878,-1.1163,-1.0357,0.1010,-0.00067348,-0.00081469,-0.00222503,-0.00052486,0.00002092,0.04682410,-0.1729,0.1920,-9.7485,-0.002551,-0.001086,-0.001953,25.7093,0.0340,142,0,0,0.000023,-0.000152,-0.033989,-0.000304,0.001059,-0.001491,-1.0123,-0.9536,0.1054
12099,11.0,0.000097,-0.000174,-0.033941,0.001369,-0.001100,-0.001282,-1.1191,-1.0350,0.0988,-0.00067974,-0.00083920,-0.00222495,-0.00061339,-0.00000180,0.04706716,-0.1481,0.1903,-9.7376,-0.006056,-0.004016,-0.004742,25.7093,0.0340,141,0,0,0.000024,-0.000152,-0.033976,-0.000376,0.001179,-0.001146,-1.0119,-0.9525,0.1057
12111,12.0,0.000100,-0.000176,-0.033931,0.001321,-0.000979,-0.000635,-1.1180,-1.0339,0.0627,-0.00068529,-0.00084672,-0.00221163,-0.00054439,0.00001165,0.04696079,-0.1682,0.1907,-9.7295,-0.000392,0.000425,-0.001025,25.7093,0.0340,141,0,0,0.000024,-0.000153,-0.033987,-0.000300,0.001246,-0.000998,-1.0145,-0.9523,0.1044
12122,11.0,0.000099,-0.000177,-0.033935,0.001581,-0.001000,-0.000146,-1.1169,-1.0302,0.0620,-0.00069918,-0.00088139,-0.00221158,-0.00069505,0.00005035,0.04696383,-0.1323,0.1768,-9.7162,-0.001181,-0.001177,-0.002262,25.7093,0.0340,144,0,0,0.000024,-0.000154,-0.033967,-0.000286,0.001384,-0.000099,-1.0147,-0.9511,0.1050
12133,11.0,0.000101,-0.000178,-0.033946,0.001441,-0.001102,0.000032,-1.1173,-1.0316,0.0626,-0.00070480,-0.00088944,-0.00221166,-0.00065922,0.00002487,0.04701054,-0.1736,0.1704,-9.7320,-0.002062,-0.004041,-0.001435,25.7093,0.0340,138,0,0,0.000023,-0.000154,-0.033967,-0.000046,0.001355,0.000281,-1.0143,-0.9504,0.1052
12144,11.0,0.000102,-0.000179,-0.033944,0.001408,-0.001082,0.000416,-1.1166,-1.0297,0.0620,-0.00071743,-0.00090500,-0.00221170,-0.00068178,0.00004771,0.04701117,-0.1631,0.1798,-9.7251,-0.001838,-0.000535,-0.003177,25.7093,0.0340,142,0,0,0.000024,-0.000155,-0.033951,-0.000139,0.001405,0.000918,-1.0163,-0.9491,0.1055
12156,12.0,0.000105,-0.000180,-0.033905,0.001271,-0.001314,0.001246,-1.1156,-1.0301,0.0580,-0.00072457,-0.00091218,-0.00221172,-0.00065282,0.00001921,0.04687560,-0.1747,0.1582,-9.7219,-0.000227,-0.002170,-0.008106,25.7093,0.0340,137,0,0,0.000024,-0.000155,-0.033908,-0.000190,0.001358,0.001470,-1.0165,-0.9493,0.1044
12167,11.0,0.000133,-0.000181,-0.033944,0.001553,-0.001443,0.001049,-1.1142,-1.0302,0.0593,-0.00074996,-0.00091328,-0.00221147,-0.00073520,0.00010909,0.04710764,-0.1630,0.1607,-9.7208,-0.002838,-0.001845,-0.000107,25.7093,0.0340,143,0,-1,0.000025,-0.000155,-0.033892,-0.000291,0.001223,0.001761,-1.0157,-0.9493,0.1018
12178,11.0,0.000134,-0.000182,-0.033885,0.001691,-0.001738,0.001717,-1.1155,-1.0315,0.0600,-0.00075908,-0.00092262,-0.00221148,-0.00069810,0.00007334,0.04690728,-0.1459,0.1458,-9.7503,-0.003996,-0.004150,-0.001239,25.6301,0.0340,143,0,0,0.000078,-0.000156,-0.033883,-0.000116,0.001148,0.001911,-1.0161,-0.9502,0.1019
12190,12.0,0.000109,-0.000186,-0.033862,0.001353,-0.001695,0.002195,-1.1150,-1.0301,0.0627,-0.00077665,-0.00095413,-0.00221182,-0.00066075,0.00009570,0.04690670,-0.1620,0.1764,-9.7203,-0.002675,-0.003368,0.001382,25.6301,0.0340,145,0,1,0.000078,-0.000157,-0.033863,0.000005,0.001055,0.002032,-1.0145,-0.9516,-0.0050
12202,12.0,0.000111,-0.000189,-0.034442,0.001363,-0.001690,-0.004553,-1.1146,-1.0315,0.0623,-0.00078634,-0.00096244,-0.00221180,-0.00058493,0.00000973,0.04939804,-0.1618,0.1746,-9.7410,-0.001383,-0.003900,-0.002841,25.6301,0.0350,141,0,0,0.000052,-0.000159,-0.034483,-0.000113,0.001134,-0.004710,-1.0158,-0.9517,-0.0022
12214,12.0,0.000113,-0.000193,-0.034495,0.001367,-0.001517,-0.004214,-1.1146,-1.0308,0.0621,-0.00079545,-0.00097913,-0.00221172,-0.00061638,-0.00001969,0.04939786,-0.1612,0.1895,-9.7292,-0.001900,-0.002575,-0.002024,25.6301,0.0350,144,0,0,0.000052,-0.000160,-0.034530,-0.000050,0.001147,-0.004602,-1.0152,-0.9521,-0.0029
12225,11.0,0.000113,-0.000194,-0.034464,0.001491,-0.001669,-0.003145,-1.1133,-1.0330,-0.1056,-0.00080436,-0.00098795,-0.00214520,-0.00040585,0.00011718,0.04907627,-0.1501,0.1576,-9.7433,-0.002994,-0.002270,-0.002365,25.5931,0.0340,141,0,0,0.000051,-0.000161,-0.034548,0.000176,0.001236,-0.003268,-1.0169,-0.9527,-0.0020
12236,11.0,0.000114,-0.000195,-0.034214,0.001497,-0.001579,0.000626,-1.1133,-1.0311,-0.1045,-0.00081900,-0.00100693,-0.00214516,-0.00046868,0.00014677,0.04793597,-0.1578,0.1799,-9.7091,-0.003129,-0.001288,-0.000089,25.5931,0.0340,140,0,0,0.000051,-0.000162,-0.034181,0.000249,0.001100,0.001213,-1.0159,-0.9523,-0.0018
12247,11.0,0.000115,-0.000197,-0.034150,0.001388,-0.001499,0.001309,-1.1130,-1.0314,-0.1032,-0.00082704,-0.00101468,-0.00214517,-0.00043953,0.00011675,0.04769585,-0.1714,0.1820,-9.7586,-0.001272,-0.002567,-0.000028,25.5931,0.0340,145,0,0,0.000051,-0.000162,-0.034167,0.000292,0.001051,0.001615,-1.0162,-0.9516,-0.0008
12258,11.0,0.000117,-0.000198,-0.034135,0.001159,-0.001643,0.001518,-1.1116,-1.0327,-0.1010,-0.00085478,-0.00101616,-0.00214535,-0.00037726,0.00021755,0.04769643,-0.1854,0.1574,-9.7403,-0.003542,-0.003041,0.000052,25.5931,0.0350,143,0,0,0.000052,-0.000162,-0.034554,0.000202,0.000963,-0.002908,-1.0169,-0.9508,-0.0002
12269,11.0,0.000119,-0.000199,-0.034550,0.001084,-0.001680,-0.003042,-1.1125,-1.0320,-0.1004,-0.00086452,-0.00102250,-0.00214528,-0.00032214,0.00014575,0.04944501,-0.1714,0.1679,-9.7179,-0.003573,-0.000720,-0.001065,25.5931,0.0350,140,0,0,0.000052,-0.000162,-0.034582,0.000075,0.000817,-0.002778,-1.0162,-0.9523,0.0010
12280,11.0,0.000120,-0.000173,-0.034582,0.000996,-0.001260,-0.002858,-1.1130,-1.0319,-0.1005,-0.00089095,-0.00102948,-0.00214491,-0.00031122,0.00008109,0.04944336,-0.1739,0.1836,-9.7406,-0.005521,-0.001972,-0.001843,25.5931,0.0350,139,-1,0,0.000053,-0.000163,-0.034540,-0.000086,0.000794,-0.001708,-1.0162,-0.9521,0.0009
12291,11.0,0.000121,-0.000173,-0.034538,0.000960,-0.001355,-0.001651,-1.1132,-1.0311,-0.1007,-0.00089834,-0.00103472,-0.00214486,-0.00029408,0.00005518,0.04913845,-0.1692,0.1665,-9.7278,-0.002118,-0.000398,-0.002367,25.5931,0.0340,138,0,0,0.000055,-0.000136,-0.034570,-0.000363,0.000712,-0.001261,-1.0175,-0.9521,0.0775
12303,12.0,0.000122,-0.000176,-0.034243,0.001027,-0.001371,0.002384,-1.1116,-1.0296,-0.1012,-0.00091494,-0.00105017,-0.00214481,-0.00036395,0.00011564,0.04789382,-0.1590,0.1738,-9.7229,-0.001125,-0.001377,-0.002640,25.5931,0.0340,137,0,0,0.000055,-0.000136,-0.034119,-0.000308,0.000546,0.003951,-1.0170,-0.9520,0.0781
12314,11.0,0.000122,-0.000177,-0.034165,0.001109,-0.001313,0.003278,-1.1129,-1.0301,-0.1014,-0.00092179,-0.00105620,-0.00214480,-0.00034199,0.00009038,0.04768754,-0.1566,0.1815,-9.7323,-0.004048,-0.002638,-0.002588,25.6168,0.0340,142,0,0,0.000055,-0.000136,-0.034009,-0.000275,0.000452,0.004977,-1.0157,-0.9506,0.0770
12325,11.0,0.000122,-0.000178,-0.034127,0.001208,-0.001339,0.003632,-1.1097,-1.0288,-0.1016,-0.00093907,-0.00107691,-0.00214476,-0.00041479,0.00013489,0.04768939,-0.1518,0.1722,-9.7275,0.001228,-0.002723,-0.002129,25.6168,0.0340,142,0,0,0.000055,-0.000137,-0.033959,-0.000203,0.000432,0.005146,-1.0163,-0.9509,0.0771
12336,11.0,0.000123,-0.000180,-0.033994,0.001291,-0.001277,0.004985,-1.1110,-1.0273,0.0215,-0.00094594,-0.00108359,-0.00219796,-0.00052799,-0.00001602,0.04732735,-0.1534,0.1824,-9.7327,-0.001763,-0.002011,-0.002108,25.6168,0.0340,142,0,0,0.000055,-0.000138,-0.033854,-0.000108,0.000472,0.005812,-1.0161,-0.9481,0.0768
12347,11.0,0.000124,-0.000180,-0.033938,0.001290,-0.001452,0.005212,-1.1094,-1.0259,0.0231,-0.00097314,-0.00109897,-0.00219806,-0.00055978,0.00009290,0.04732965,-0.1610,0.1557,-9.7395,-0.003218,-0.001455,-0.000192,25.6168,0.0340,141,0,0,0.000055,-0.000138,-0.033795,-0.000062,0.000429,0.006040,-1.0159,-0.9476,0.0767
12358,11.0,0.000124,-0.000181,-0.033815,0.001284,-0.001690,0.006279,-1.1098,-1.0277,0.0238,-0.00098167,-0.00110594,-0.00219803,-0.00053490,0.00006174,0.04706814,-0.1623,0.1507,-9.7331,-0.002729,-0.005019,-0.001044,25.6168,0.0340,144,0,0,0.000055,-0.000137,-0.033651,-0.000072,0.000189,0.007187,-1.0159,-0.9470,0.0771
12369,11.0,0.000125,-0.000211,-0.033877,0.001270,-0.001944,0.004925,-1.1097,-1.0291,0.0240,-0.00098466,-0.00112069,-0.00219831,-0.00055358,0.00013167,0.04758913,-0.1625,0.1758,-9.7432,-0.001720,-0.005705,-0.002282,25.6750,0.0340,139,1,0,0.000055,-0.000166,-0.033777,-0.000045,0.000031,0.004757,-1.0140,-0.9488,0.0764
12380,11.0,0.000127,-0.000214,-0.033788,0.001161,-0.001804,0.005773,-1.1108,-1.0299,0.0239,-0.00099403,-0.00112691,-0.00219824,-0.00052971,0.00009480,0.04745534,-0.1734,0.1831,-9.7179,-0.004128,-0.003215,-0.002405,25.6750,0.0340,142,0,0,0.000055,-0.000193,-0.033685,-0.000062,-0.000037,0.005408,-1.0139,-0.9504,0.0766
12391,11.0,0.000128,-0.000216,-0.033723,0.001153,-0.001662,0.006050,-1.1103,-1.0281,0.0232,-0.00100644,-0.00114019,-0.00219814,-0.00055469,0.00008220,0.04745536,-0.1636,0.1841,-9.7343,-0.002045,-0.000612,-0.002955,25.6750,0.0340,141,0,0,0.000056,-0.000195,-0.033629,-0.000140,0.000074,0.005725,-1.0141,-0.9512,0.0384
12402,11.0,0.000129,-0.000217,-0.033811,0.001125,-0.001780,0.004712,-1.1106,-1.0282,0.0220,-0.00101603,-0.00114637,-0.00219807,-0.00051872,0.00003163,0.04806183,-0.1662,0.1596,-9.7158,-0.002776,-0.002085,-0.003997,25.6750,0.0340,135,0,0,0.000057,-0.000196,-0.033794,-0.000235,0.000117,0.003146,-1.0141,-0.9512,0.0368
