timestamp_ms,dt_ms,pos_x,pos_y,pos_z,vel_x,vel_y,vel_z,roll_deg,pitch_deg,yaw_deg,gyro_bias_x,gyro_bias_y,gyro_bias_z,accel_bias_x,accel_bias_y,accel_bias_z,raw_accel_x,raw_accel_y,raw_accel_z,raw_gyro_x,raw_gyro_y,raw_gyro_z,raw_baro_alt,raw_tof,raw_flow_squal,raw_flow_dx,raw_flow_dy,dev_pos_x,dev_pos_y,dev_pos_z,dev_vel_x,dev_vel_y,dev_vel_z,dev_roll_deg,dev_pitch_deg,dev_yaw_deg
11499,10.0,0.000018,0.000001,-0.037059,0.000862,0.000803,0.000630,-0.0024,-0.0016,-0.0010,0.00000000,0.00000000,-0.00190810,-0.00107647,0.00115986,0.00000000,-0.1818,0.1462,-9.7377,-0.003905,-0.001695,-0.003643,28.8695,0.0370,136,0,0,0.000090,0.000203,-0.036951,-0.000940,0.002369,-0.001818,-0.9760,-0.9147,-0.1100
11510,11.0,0.000018,0.000018,-0.037048,0.000408,0.001235,0.001301,-0.4763,-0.4878,0.0015,0.00000171,0.00000176,-0.00190810,-0.00109598,0.00117924,0.00000000,-0.1679,0.1636,-9.7438,-0.002645,-0.001243,-0.001172,28.8695,0.0360,132,0,0,0.000104,0.000218,-0.036375,-0.000840,0.002276,0.007282,-0.9651,-0.9287,-0.1095
11521,11.0,0.000031,0.000021,-0.038857,0.000008,0.001888,-0.078418,-0.4997,-0.5068,0.0038,0.00000176,0.00000180,-0.00190810,-0.00115053,0.00125713,0.00005058,-0.1667,0.2075,-9.7448,-0.001551,-0.005178,0.001199,28.8695,0.0360,128,0,0,0.000111,0.000227,-0.036343,-0.000776,0.002217,0.008014,-0.9700,-0.9356,-0.1090
11532,11.0,0.000032,0.000044,-0.036048,0.000067,0.001938,0.031712,-0.7898,-0.6590,0.0046,0.00000494,0.00000343,-0.00190810,-0.00119463,0.00131336,-0.00004079,-0.1611,0.2305,-9.7572,-0.002794,-0.002696,-0.003190,28.8695,0.0360,133,0,0,0.000119,0.000233,-0.036257,-0.000776,0.002542,0.009241,-0.9701,-0.9372,-0.1076
11543,11.0,0.000042,0.000052,-0.035807,-0.000165,0.002064,0.029355,-0.8169,-0.6798,0.0044,0.00000509,0.00000355,-0.00190810,-0.00129560,0.00144092,0.00000001,-0.1736,0.1966,-9.7522,-0.004056,-0.002129,-0.002806,28.8695,0.0360,136,0,0,0.000135,0.000250,-0.036145,-0.000717,0.002683,0.010423,-0.9981,-0.9413,-0.1098
11554,11.0,0.000043,0.000069,-0.035481,-0.000085,0.001868,0.029898,-0.9044,-0.7853,0.0075,0.00000692,0.00000591,-0.00190810,-0.00133426,0.00151026,0.00000161,-0.1851,0.1923,-9.7562,-0.003451,-0.001214,0.000046,28.7981,0.0360,137,0,0,0.000143,0.000259,-0.036005,-0.000660,0.002622,0.011822,-1.0058,-0.9446,-0.1105
11565,11.0,0.000051,0.000080,-0.035876,-0.000233,0.001646,0.017118,-0.9222,-0.8061,0.0090,0.00000712,0.00000615,-0.00190810,-0.00145836,0.00161256,0.00041633,-0.1859,0.1666,-9.7533,-0.002798,-0.003227,0.000442,28.7981,0.0360,138,0,0,0.000159,0.000276,-0.035776,-0.000719,0.002664,0.013754,-1.0112,-0.9536,-0.1078
11576,11.0,0.000055,0.000093,-0.035683,-0.000057,0.001518,0.018022,-0.9622,-0.8492,0.0089,0.00000860,0.00000766,-0.00190809,-0.00151759,0.00165419,0.00041798,-0.1681,0.1878,-9.7239,-0.000985,-0.002728,-0.002903,28.7981,0.0360,138,0,0,0.000168,0.000284,-0.035632,-0.000898,0.002497,0.014939,-1.0109,-0.9538,-0.1068
11587,11.0,0.000063,0.000103,-0.035536,-0.000154,0.001506,0.017821,-0.9736,-0.8649,0.0088,0.00000885,0.00000800,-0.00190809,-0.00164178,0.00174392,0.00051133,-0.1872,0.1877,-9.7468,-0.001354,-0.001858,-0.001904,28.7981,0.0360,137,0,0,0.000175,0.000293,-0.035813,-0.000849,0.002444,0.012669,-1.0145,-0.9588,-0.1077
11598,11.0,0.000067,0.000115,-0.035800,0.000019,0.001372,0.011959,-0.9962,-0.8931,0.0117,0.00001009,0.00000942,-0.00190809,-0.00168439,0.00176963,0.00137902,-0.1691,0.1851,-9.7541,-0.001208,-0.004463,0.002132,28.7981,0.0360,135,0,0,0.000191,0.000310,-0.035568,-0.000930,0.002407,0.014538,-1.0207,-0.9588,-0.0280
11609,11.0,0.000074,0.000124,-0.035696,0.000166,0.001529,0.012078,-1.0069,-0.9036,0.0098,0.00001048,0.00000976,-0.00190809,-0.00176903,0.00186789,0.00146912,-0.1617,0.2103,-9.7573,-0.001698,-0.003395,-0.005160,28.7981,0.0360,135,0,0,0.000199,0.000316,-0.035418,-0.000781,0.002719,0.015451,-1.0218,-0.9601,-0.0282
11620,11.0,0.000079,0.000136,-0.035558,0.000136,0.001521,0.012884,-1.0420,-0.9382,0.0111,0.00001373,0.00001291,-0.00190809,-0.00172732,0.00183995,0.00146878,-0.1970,0.2150,-9.7308,-0.003685,-0.005512,-0.001160,28.7981,0.0360,135,0,0,0.000207,0.000325,-0.035703,-0.000723,0.002688,0.011532,-1.0326,-0.9617,-0.0296
11631,11.0,0.000087,0.000146,-0.035786,0.000096,0.001437,0.008989,-1.0512,-0.9488,0.0121,0.00001420,0.00001342,-0.00190809,-0.00179874,0.00190424,0.00293347,-0.1880,0.1934,-9.7490,-0.002506,-0.004048,-0.000414,28.7612,0.0360,133,0,0,0.000222,0.000340,-0.035474,-0.000910,0.002866,0.013732,-1.0380,-0.9779,-0.0286
11641,10.0,0.000093,0.000155,-0.035693,0.000173,0.001264,0.009469,-1.0567,-0.9669,0.0122,0.00001452,0.00001561,-0.00190809,-0.00179608,0.00196880,0.00293477,-0.1854,0.1797,-9.7556,-0.001954,-0.003095,-0.003533,28.7612,0.0360,132,0,0,0.000231,0.000347,-0.035352,-0.001022,0.002875,0.014602,-1.0390,-0.9783,-0.0283
11652,11.0,0.000100,0.000166,-0.035603,0.000435,0.001133,0.009953,-1.0620,-0.9710,0.0111,0.00001479,0.00001597,-0.00190809,-0.00184486,0.00200575,0.00303830,-0.1547,0.1792,-9.7412,-0.004036,-0.000637,-0.003554,28.7612,0.0360,141,0,0,0.000246,0.000364,-0.035571,-0.000968,0.002739,0.011334,-1.0411,-0.9827,-0.0287
11663,11.0,0.000108,0.000175,-0.035778,0.000609,0.000964,0.007232,-1.0590,-0.9699,0.0094,0.00001386,0.00001508,-0.00190809,-0.00189369,0.00204873,0.00485567,-0.1542,0.1693,-9.7449,-0.000064,-0.002560,-0.004387,28.7612,0.0360,138,0,0,0.000255,0.000373,-0.035468,-0.000875,0.002681,0.012225,-1.0422,-0.9772,-0.0291
11675,12.0,0.000118,0.000186,-0.035698,0.000723,0.000483,0.008015,-1.0592,-0.9733,0.0094,0.00001359,0.00001522,-0.00190807,-0.00190754,0.00201853,0.00495154,-0.1606,0.1354,-9.7250,-0.002890,-0.003509,-0.001445,28.7612,0.0360,138,0,0,0.000262,0.000382,-0.035341,-0.000697,0.002521,0.013315,-1.0414,-0.9774,-0.0301
11686,11.0,0.000126,0.000192,-0.035607,0.000732,0.000332,0.008480,-1.0484,-0.9793,0.0116,0.00001029,0.00001573,-0.00190808,-0.00190378,0.00211062,0.00495298,-0.1711,0.1522,-9.7602,-0.001385,-0.006316,-0.000162,28.7612,0.0360,133,0,0,0.000280,0.000396,-0.035594,-0.000710,0.002317,0.010015,-1.0354,-0.9745,0.0933
11697,11.0,0.000135,0.000199,-0.035784,0.000809,0.000463,0.005728,-1.0483,-0.9816,0.0109,0.00000991,0.00001577,-0.00190807,-0.00187148,0.00203910,0.00722847,-0.1633,0.1851,-9.7620,-0.002527,-0.002975,-0.002561,28.7294,0.0360,137,0,0,0.000287,0.000403,-0.035489,-0.000673,0.002231,0.011022,-1.0316,-0.9775,0.0942
11708,11.0,0.000144,0.000206,-0.035718,0.000769,0.000608,0.006293,-1.0530,-0.9867,0.0091,0.00001148,0.00001664,-0.00190805,-0.00184350,0.00195828,0.00722661,-0.1757,0.1949,-9.7480,-0.001368,-0.004251,-0.004167,28.7294,0.0350,134,0,0,0.000295,0.000411,-0.035379,-0.000622,0.002242,0.011869,-1.0317,-0.9778,0.0935
11719,11.0,0.000154,0.000213,-0.035649,0.000631,0.000858,0.006766,-1.0556,-0.9887,0.0083,0.00001162,0.00001695,-0.00190805,-0.00186445,0.00196755,0.00726188,-0.1880,0.2066,-9.7519,-0.003362,-0.001370,-0.002981,28.7294,0.0350,133,0,0,0.000311,0.000426,-0.034947,-0.000763,0.002359,0.015450,-1.0359,-0.9823,0.0914
11730,11.0,0.000162,0.000222,-0.035247,0.000722,0.000974,0.011110,-1.0644,-0.9908,0.0065,0.00001504,0.00001636,-0.00190803,-0.00195814,0.00193874,0.00413287,-0.1634,0.2050,-9.7548,-0.001979,-0.005094,-0.002838,28.7294,0.0350,138,0,0,0.000319,0.000435,-0.034787,-0.000742,0.002366,0.016424,-1.0417,-0.9848,0.0904
11741,11.0,0.000172,0.000230,-0.035123,0.000598,0.001077,0.012004,-1.0689,-0.9941,0.0079,0.00001564,0.00001683,-0.00190803,-0.00198481,0.00197297,0.00416347,-0.1884,0.2010,-9.7176,-0.004394,-0.003236,0.000137,28.7294,0.0360,138,0,0,0.000327,0.000441,-0.034618,-0.000722,0.002650,0.017408,-1.0427,-0.9853,0.0900
11752,11.0,0.000181,0.000239,-0.034986,0.000653,0.000974,0.012801,-1.0709,-0.9971,0.0085,0.00001555,0.00001730,-0.00190804,-0.00200138,0.00201510,0.00416455,-0.1713,0.1795,-9.7302,-0.002936,-0.002948,-0.001357,28.7294,0.0360,135,0,0,0.000343,0.000457,-0.035292,-0.000635,0.002455,0.008980,-1.0482,-0.9886,0.0886
11763,11.0,0.000190,0.000248,-0.035480,0.000699,0.000760,0.005706,-1.0726,-0.9991,0.0075,0.00001549,0.00001758,-0.00190803,-0.00190679,0.00189511,0.01065288,-0.1719,0.1646,-9.7554,-0.002677,-0.001793,-0.003283,28.7294,0.0360,134,0,0,0.000351,0.000465,-0.035201,-0.000597,0.002392,0.010011,-1.0474,-0.9893,0.0894
11774,11.0,0.000199,0.000257,-0.035414,0.000742,0.000822,0.006312,-1.0768,-1.0010,0.0074,0.00001693,0.00001777,-0.00190801,-0.00192002,0.00185463,0.01065238,-0.1709,0.1931,-9.7409,-0.003301,-0.002362,-0.001210,28.7294,0.0360,139,0,0,0.000367,0.000481,-0.035590,-0.000574,0.002150,0.005080,-1.0465,-0.9914,0.0894
11785,11.0,0.000208,0.000265,-0.035366,0.000694,0.000713,0.006613,-1.0770,-1.0039,0.0076,0.00001689,0.00001809,-0.00190800,-0.00192900,0.00184804,0.01091458,-0.1803,0.1748,-9.7411,-0.000394,-0.003782,-0.001479,28.7849,0.0360,137,0,0,0.000375,0.000489,-0.035554,-0.000563,0.002241,0.005814,-1.0473,-0.9913,0.0895
11796,11.0,0.000217,0.000274,-0.035677,0.000706,0.000850,0.002497,-1.0823,-1.0071,0.0067,0.00001994,0.00001903,-0.00190798,-0.00185416,0.00169021,0.01485853,-0.1762,0.2030,-9.7491,-0.002175,-0.002937,-0.002230,28.7849,0.0360,140,0,0,0.000383,0.000497,-0.035491,-0.000576,0.002174,0.006751,-1.0481,-0.9925,0.1350
11807,11.0,0.000226,0.000281,-0.035666,0.000621,0.000936,0.002768,-1.0857,-1.0113,0.0066,0.00002051,0.00001969,-0.00190798,-0.00187527,0.00170779,0.01505686,-0.1879,0.1997,-9.7456,-0.004053,-0.005036,-0.002149,28.7849,0.0370,137,0,0,0.000400,0.000513,-0.036348,-0.000472,0.002321,-0.002959,-1.0531,-0.9939,0.1342
11818,11.0,0.000235,0.000290,-0.035633,0.000753,0.001051,0.003141,-1.0914,-1.0125,0.0065,0.00002484,0.00001842,-0.00190794,-0.00193512,0.00162266,0.01505636,-0.1641,0.2077,-9.7575,-0.001300,-0.003918,0.000351,28.7849,0.0370,137,0,0,0.000409,0.000519,-0.036373,-0.000588,0.002543,-0.002175,-1.0544,-0.9946,0.1342
11829,11.0,0.000245,0.000300,-0.036381,0.000775,0.000828,-0.005759,-1.0939,-1.0147,0.0067,0.00002503,0.00001872,-0.00190794,-0.00180931,0.00148231,0.02286652,-0.1753,0.1690,-9.7492,-0.003482,-0.002795,-0.001710,28.7849,0.0370,139,0,0,0.000425,0.000536,-0.036428,-0.000486,0.002502,-0.000838,-1.0607,-0.9969,0.1343
11841,12.0,0.000255,0.000309,-0.036447,0.000860,0.000780,-0.005326,-1.0961,-1.0149,0.0045,0.00002437,0.00001754,-0.00190793,-0.00184575,0.00150393,0.02286755,-0.1671,0.1838,-9.7480,-0.004119,-0.001844,-0.004810,28.8087,0.0360,139,0,0,0.000433,0.000544,-0.036186,-0.000460,0.002472,0.002702,-1.0623,-0.9978,0.1340
11852,11.0,0.000263,0.000317,-0.036538,0.001073,0.000683,-0.005330,-1.0978,-1.0174,0.0045,0.00002435,0.00001690,-0.00190795,-0.00182091,0.00149684,0.02320674,-0.1503,0.1794,-9.7468,-0.002717,-0.005003,-0.002266,28.8087,0.0360,137,0,0,0.000441,0.000552,-0.036155,-0.000386,0.002433,0.003527,-1.0634,-0.9976,0.1328
11863,11.0,0.000273,0.000326,-0.036255,0.001106,0.000740,-0.000900,-1.0987,-1.0149,0.0038,0.00002470,0.00001436,-0.00190794,-0.00190379,0.00152931,0.01997488,-0.1648,0.1917,-9.7462,-0.001150,0.000532,-0.002096,28.8087,0.0360,137,0,0,0.000457,0.000569,-0.036111,-0.000167,0.002131,0.004674,-1.0636,-0.9953,0.1321
11874,11.0,0.000283,0.000334,-0.036288,0.001096,0.000847,-0.000657,-1.1021,-1.0169,0.0038,0.00002508,0.00001372,-0.00190797,-0.00188256,0.00153477,0.02022448,-0.1709,0.2013,-9.7359,-0.004840,-0.004113,-0.002355,28.8087,0.0370,137,0,0,0.000466,0.000578,-0.036060,-0.000110,0.002109,0.005487,-1.0641,-0.9932,0.1324
11885,11.0,0.000294,0.000342,-0.036292,0.000903,0.000718,-0.000145,-1.1011,-1.0218,0.0067,0.00002225,0.00001746,-0.00190803,-0.00177629,0.00160393,0.02022392,-0.1939,0.1752,-9.7398,-0.001680,-0.003330,-0.000444,28.8087,0.0370,134,0,0,0.000474,0.000585,-0.036668,-0.000080,0.002217,-0.000790,-1.0647,-0.9937,0.1320
11896,11.0,0.000304,0.000351,-0.036696,0.000815,0.000729,-0.004533,-1.1031,-1.0241,0.0070,0.00002217,0.00001768,-0.00190802,-0.00171728,0.00153163,0.02393463,-0.1857,0.1899,-9.7494,-0.003208,-0.003375,-0.001329,28.8087,0.0370,141,0,0,0.000491,0.000601,-0.036665,-0.000208,0.002096,0.001109,-1.0608,-0.9976,0.0807
11907,11.0,0.000313,0.000359,-0.036745,0.000773,0.000802,-0.004257,-1.1072,-1.0274,0.0055,0.00002445,0.00001960,-0.00190802,-0.00168393,0.00148476,0.02393320,-0.1833,0.1991,-9.7573,-0.004104,-0.003209,-0.004186,28.8087,0.0360,138,0,0,0.000499,0.000609,-0.036299,-0.000207,0.002081,0.005780,-1.0617,-0.9993,0.0805
11918,11.0,0.000323,0.000367,-0.036797,0.000818,0.000688,-0.004213,-1.1105,-1.0295,0.0048,0.00002428,0.00001981,-0.00190801,-0.00168764,0.00148005,0.02398913,-0.1747,0.1793,-9.7722,-0.005339,-0.003049,-0.003001,28.7374,0.0360,138,0,0,0.000516,0.000624,-0.036173,-0.000325,0.002237,0.007255,-1.0646,-1.0005,0.0786
11929,11.0,0.000332,0.000375,-0.036922,0.000888,0.000720,-0.004848,-1.1131,-1.0315,0.0046,0.00002508,0.00001842,-0.00190799,-0.00170873,0.00144640,0.02469798,-0.1704,0.1942,-9.7541,-0.003358,-0.004439,-0.001439,28.7374,0.0370,138,0,0,0.000524,0.000631,-0.036097,-0.000292,0.002318,0.007996,-1.0650,-1.0005,0.0777
11940,11.0,0.000342,0.000383,-0.036977,0.000899,0.000675,-0.004372,-1.1148,-1.0355,0.0056,0.00002511,0.00001834,-0.00190799,-0.00170633,0.00144610,0.02473930,-0.1759,0.1872,-9.7335,-0.002559,-0.006509,-0.000402,28.7374,0.0370,138,0,0,0.000533,0.000639,-0.036586,-0.000256,0.002295,0.002244,-1.0666,-1.0007,0.0776
11951,11.0,0.000351,0.000390,-0.037023,0.000956,0.000785,-0.003922,-1.1185,-1.0375,0.0046,0.00002836,0.00001646,-0.00190796,-0.00173756,0.00138175,0.02473865,-0.1709,0.2042,-9.7408,-0.003113,-0.004725,-0.001999,28.7374,0.0370,136,0,0,0.000550,0.000654,-0.036527,-0.000224,0.002163,0.004214,-1.0663,-1.0031,0.0795
11962,11.0,0.000360,0.000397,-0.035923,0.001040,0.000878,0.009987,-1.1204,-1.0405,0.0028,0.00002925,0.00001559,-0.00190801,-0.00189374,0.00158527,0.01499773,-0.1660,0.2055,-9.7443,-0.002330,-0.005315,-0.005509,28.7374,0.0350,138,0,0,0.000558,0.000661,-0.036489,-0.000151,0.002235,0.004932,-1.0669,-1.0041,0.0794
11973,11.0,0.000370,0.000406,-0.035810,0.001121,0.000822,0.010601,-1.1221,-1.0395,0.0025,0.00002881,0.00001089,-0.00190803,-0.00194960,0.00160920,0.01499912,-0.1638,0.1888,-9.7361,-0.002931,-0.002210,-0.001754,28.7612,0.0350,137,0,0,0.000574,0.000676,-0.035409,0.000077,0.002336,0.016422,-1.0698,-1.0037,0.0792
11984,11.0,0.000379,0.000414,-0.035706,0.001029,0.000862,0.010891,-1.1233,-1.0399,0.0030,0.00002920,0.00000998,-0.00190806,-0.00193154,0.00161342,0.01513175,-0.1827,0.1985,-9.7478,-0.001662,-0.001266,-0.001477,28.7612,0.0350,135,0,0,0.000582,0.000684,-0.035256,0.000081,0.002345,0.017114,-1.0714,-1.0041,0.0790
11995,11.0,0.000389,0.000423,-0.035255,0.001102,0.000828,0.015233,-1.1251,-1.0398,0.0035,0.00002965,0.00000552,-0.00190807,-0.00202924,0.00167523,0.01241227,-0.1653,0.1925,-9.7499,-0.002536,-0.003148,-0.000462,28.7612,0.0350,144,0,0,0.000590,0.000691,-0.035081,0.000041,0.002459,0.017923,-1.0701,-1.0045,0.0060
12006,11.0,0.000399,0.000431,-0.035098,0.001024,0.000736,0.015433,-1.1282,-1.0425,0.0024,0.00002976,0.00000492,-0.00190809,-0.00201773,0.00167503,0.01251363,-0.1836,0.1858,-9.7627,-0.004742,-0.004645,-0.003969,28.7612,0.0370,140,0,0,0.000607,0.000707,-0.036204,0.000079,0.002455,0.003535,-1.0726,-1.0031,0.0068
12017,11.0,0.000409,0.000439,-0.034924,0.001007,0.000717,0.016177,-1.1295,-1.0445,0.0017,0.00002897,0.00000403,-0.00190811,-0.00201397,0.00168617,0.01251375,-0.1778,0.1909,-9.7265,-0.002587,-0.003655,-0.003376,28.7612,0.0370,134,0,0,0.000615,0.000715,-0.036166,0.000070,0.002434,0.004198,-1.0745,-1.0045,0.0061
12028,11.0,0.000419,0.000447,-0.035986,0.001028,0.000784,0.002086,-1.1319,-1.0466,0.0018,0.00002919,0.00000322,-0.00190814,-0.00182524,0.00149301,0.02254618,-0.1745,0.2011,-9.7386,-0.003577,-0.003753,-0.002110,28.7612,0.0370,140,0,0,0.000624,0.000722,-0.036136,0.000030,0.002492,0.004916,-1.0746,-1.0053,0.0057
12039,11.0,0.000429,0.000456,-0.035962,0.001163,0.000745,0.002396,-1.1330,-1.0449,0.0010,0.00002789,-0.00000357,-0.00190813,-0.00190681,0.00151255,0.02254792,-0.1598,0.1899,-9.7562,-0.002665,-0.001560,-0.002052,28.7612,0.0360,142,0,0,0.000641,0.000738,-0.036011,0.000099,0.002489,0.006588,-1.0763,-1.0072,0.0058
12050,11.0,0.000438,0.000464,-0.035948,0.001230,0.000629,0.002742,-1.1353,-1.0459,-0.0010,0.00002726,-0.00000544,-0.00190817,-0.00187771,0.00150092,0.02267211,-0.1654,0.1811,-9.7360,-0.004002,-0.002546,-0.005506,28.7612,0.0360,139,0,0,0.000649,0.000746,-0.035941,0.000202,0.002470,0.007317,-1.0773,-1.0048,0.0056
12061,11.0,0.000449,0.000472,-0.035955,0.001050,0.000616,0.002504,-1.1375,-1.0497,0.0002,0.00002600,-0.00000244,-0.00190823,-0.00178344,0.00150273,0.02297534,-0.1936,0.1920,-9.7637,-0.004175,-0.004172,-0.001725,28.7612,0.0360,139,0,0,0.000657,0.000753,-0.035864,0.000254,0.002570,0.008111,-1.0773,-1.0049,0.0047
12072,11.0,0.000459,0.000480,-0.035938,0.001092,0.000556,0.002650,-1.1400,-1.0514,0.0003,0.00002497,-0.00000351,-0.00190823,-0.00176727,0.00148675,0.02306924,-0.1726,0.1858,-9.7576,-0.004426,-0.003310,-0.001830,28.7612,0.0370,136,0,0,0.000674,0.000769,-0.035711,0.000213,0.002411,0.009261,-1.0800,-1.0071,0.0054
12083,11.0,0.000469,0.000489,-0.035908,0.001144,0.000480,0.002701,-1.1396,-1.0508,0.0005,0.00001904,-0.00000787,-0.00190824,-0.00180155,0.00153902,0.02307074,-0.1701,0.1811,-9.7792,-0.002424,-0.001404,-0.001751,28.7612,0.0370,139,0,0,0.000683,0.000777,-0.036520,0.000229,0.002335,0.000321,-1.0805,-1.0069,0.0056
12094,11.0,0.000479,0.000497,-0.036495,0.001013,0.000406,-0.004148,-1.1411,-1.0528,0.0017,0.00001707,-0.00000869,-0.00190821,-0.00170723,0.00142093,0.02783401,-0.1899,0.1812,-9.7418,-0.003211,-0.003539,0.000131,28.7612,0.0370,142,0,0,0.000700,0.000794,-0.036503,0.000270,0.002198,0.001410,-1.0798,-1.0063,-0.0324
12105,11.0,0.000489,0.000505,-0.036538,0.001096,0.000425,-0.003645,-1.1443,-1.0530,0.0017,0.00001353,-0.00001363,-0.00190818,-0.00175879,0.00143089,0.02783503,-0.1680,0.1901,-9.7332,-0.006756,-0.002844,-0.001122,28.7612,0.0360,136,0,0,0.000709,0.000802,-0.036506,0.000129,0.002122,0.001927,-1.0800,-1.0064,-0.0318
12116,11.0,0.000499,0.000512,-0.036598,0.001177,0.000406,-0.003378,-1.1454,-1.0546,0.0045,0.00001162,-0.00001551,-0.00190818,-0.00173260,0.00140407,0.02801330,-0.1664,0.1872,-9.7295,-0.002559,-0.003443,0.002439,28.7823,0.0360,143,0,0,0.000718,0.000810,-0.036180,0.000135,0.002101,0.005969,-1.0820,-1.0068,-0.0314
12127,11.0,0.000509,0.000520,-0.036278,0.001059,0.000483,0.001223,-1.1484,-1.0571,0.0047,0.00001069,-0.00001419,-0.00190819,-0.00172677,0.00143030,0.02533766,-0.1885,0.1981,-9.7407,-0.005054,-0.003176,-0.002168,28.7823,0.0360,138,0,0,0.000735,0.000825,-0.036064,0.000190,0.002092,0.007321,-1.0837,-1.0078,-0.0284
12138,11.0,0.000519,0.000527,-0.036280,0.001023,0.000604,0.001297,-1.1503,-1.0592,0.0058,0.00000998,-0.00001518,-0.00190820,-0.00171281,0.00141940,0.02547376,-0.1817,0.2058,-9.7546,-0.003231,-0.003814,-0.000350,28.7823,0.0360,133,0,0,0.000744,0.000832,-0.035988,0.000081,0.002157,0.007998,-1.0851,-1.0074,-0.0282
12150,12.0,0.000530,0.000535,-0.036261,0.000976,0.000399,0.002028,-1.1505,-1.0625,0.0081,0.00000020,-0.00001533,-0.00190825,-0.00169666,0.00153018,0.02547552,-0.1836,0.1725,-9.7205,-0.004253,-0.004867,-0.000477,28.7823,0.0360,138,0,0,0.000760,0.000848,-0.035888,0.000193,0.002208,0.008463,-1.0888,-1.0070,-0.0275
12161,11.0,0.000565,0.000543,-0.036112,0.001415,0.000439,0.003755,-1.1516,-1.0660,0.0059,-0.00000221,-0.00000053,-0.00190780,-0.00187597,0.00152204,0.02455956,-0.1969,0.1927,-9.7573,-0.002650,-0.000141,-0.002250,28.7823,0.0360,136,0,-1,0.000769,0.000856,-0.035823,0.000156,0.002143,0.009122,-1.0892,-1.0085,-0.0273
12172,11.0,0.000576,0.000551,-0.036068,0.001458,0.000568,0.004195,-1.1539,-1.0638,0.0050,-0.00000150,-0.00001014,-0.00190779,-0.00192602,0.00146882,0.02455929,-0.1650,0.2044,-9.7420,-0.003228,-0.000421,-0.001601,28.7823,0.0360,138,0,0,0.000806,0.000864,-0.035728,0.000052,0.002168,0.009770,-1.0894,-1.0075,-0.0277
12183,11.0,0.000586,0.000560,-0.036043,0.001374,0.000425,0.004259,-1.1544,-1.0653,0.0039,-0.00000356,-0.00001360,-0.00190782,-0.00188636,0.00144364,0.02473198,-0.1791,0.1782,-9.7508,-0.001485,-0.003433,-0.003933,28.7823,0.0360,136,0,0,0.000822,0.000880,-0.035777,0.000209,0.002175,0.008762,-1.0911,-1.0067,-0.0282
12194,11.0,0.000596,0.000567,-0.035990,0.001617,0.000507,0.004750,-1.1564,-1.0626,0.0026,-0.00000412,-0.00003242,-0.00190777,-0.00204872,0.00141491,0.02470494,-0.1419,0.2007,-9.7420,-0.003321,-0.003296,-0.000674,28.8404,0.0360,135,0,0,0.000830,0.000888,-0.035686,0.000213,0.002100,0.009455,-1.0905,-1.0071,-0.0366
12205,11.0,0.000581,0.000575,-0.035970,0.001093,0.000461,0.004595,-1.1580,-1.0598,0.0060,-0.00000614,-0.00005347,-0.00190828,-0.00183210,0.00138853,0.02495541,-0.1602,0.1879,-9.7583,-0.003183,-0.002429,0.000109,28.8404,0.0360,144,0,1,0.000838,0.000895,-0.035645,0.000432,0.002169,0.009563,-1.0918,-1.0078,-0.0361
12216,11.0,0.000591,0.000584,-0.035918,0.001050,0.000253,0.005012,-1.1567,-1.0617,0.0067,-0.00002027,-0.00005464,-0.00190834,-0.00181789,0.00151908,0.02495754,-0.1822,0.1674,-9.7441,-0.003271,-0.003354,-0.003196,28.8404,0.0360,136,0,0,0.000827,0.000912,-0.035735,0.000411,0.001736,0.008022,-1.0915,-1.0065,-0.0362
12227,11.0,0.000601,0.000591,-0.035956,0.001007,0.000184,0.004407,-1.1572,-1.0637,0.0065,-0.00002411,-0.00005575,-0.00190828,-0.00179485,0.00146881,0.02563491,-0.1830,0.1799,-9.7341,-0.002030,-0.003571,-0.001898,28.8404,0.0360,135,0,0,0.000835,0.000920,-0.035697,0.000386,0.001652,0.008218,-1.0909,-1.0068,-0.0370
12238,11.0,0.000610,0.000598,-0.035905,0.001090,0.000198,0.004802,-1.1578,-1.0653,0.0070,-0.00003118,-0.00006194,-0.00190823,-0.00184618,0.00148822,0.02563607,-0.1698,0.1884,-9.7453,-0.003328,-0.004871,-0.000570,28.8404,0.0360,135,0,0,0.000845,0.000928,-0.035611,0.000209,0.001621,0.008919,-1.0914,-1.0065,-0.0379
12249,11.0,0.000620,0.000605,-0.035895,0.001149,0.000069,0.004570,-1.1593,-1.0680,0.0076,-0.00003565,-0.00006402,-0.00190817,-0.00182103,0.00144050,0.02595760,-0.1719,0.1733,-9.7530,-0.003580,-0.004968,-0.000648,28.8404,0.0360,136,0,0,0.000861,0.000942,-0.035764,0.000363,0.001704,0.006730,-1.0914,-1.0077,-0.0371
12260,11.0,0.000629,0.000613,-0.035922,0.001224,0.000041,0.004070,-1.1583,-1.0678,0.0077,-0.00004797,-0.00007225,-0.00190813,-0.00186518,0.00148277,0.02650593,-0.1680,0.1794,-9.7422,-0.002546,-0.002497,-0.001741,28.8061,0.0360,136,0,0,0.000869,0.000949,-0.035694,0.000380,0.001625,0.007312,-1.0915,-1.0083,-0.0367
12271,11.0,0.000639,0.000619,-0.035900,0.001242,0.000094,0.004050,-1.1585,-1.0699,0.0074,-0.00005258,-0.00007518,-0.00190809,-0.00183572,0.00143813,0.02667940,-0.1736,0.1900,-9.7548,-0.001540,-0.004209,-0.002149,28.8061,0.0360,137,0,0,0.000886,0.000965,-0.035825,0.000480,0.001336,0.005405,-1.0901,-1.0084,-0.0358
12282,11.0,0.000649,0.000627,-0.035853,0.001167,0.000158,0.004523,-1.1578,-1.0708,0.0077,-0.00006025,-0.00007747,-0.00190807,-0.00181267,0.00143904,0.02667886,-0.1837,0.1903,-9.7368,-0.001240,-0.001990,-0.001866,28.8061,0.0360,137,0,0,0.000895,0.000973,-0.035794,0.000467,0.001304,0.005659,-1.0899,-1.0088,-0.0358
12293,11.0,0.000659,0.000634,-0.035921,0.001152,0.000096,0.003672,-1.1579,-1.0737,0.0059,-0.00006482,-0.00007983,-0.00190802,-0.00177764,0.00138413,0.02750164,-0.1787,0.1795,-9.7280,-0.001532,-0.005211,-0.004527,28.8061,0.0360,140,0,0,0.000912,0.000987,-0.035667,0.000298,0.001431,0.007124,-1.0888,-1.0097,-0.1015
12304,11.0,0.000669,0.000641,-0.035878,0.001248,0.000178,0.004106,-1.1580,-1.0730,0.0049,-0.00007159,-0.00008969,-0.00190794,-0.00184296,0.00137562,0.02750246,-0.1663,0.1926,-9.7397,-0.002154,-0.002141,-0.002165,28.8061,0.0360,138,0,0,0.000920,0.000995,-0.035850,0.000268,0.001398,0.005051,-1.0887,-1.0108,-0.1023
12315,11.0,0.000678,0.000648,-0.035862,0.001407,0.000281,0.004263,-1.1602,-1.0731,0.0045,-0.00007552,-0.00009389,-0.00190796,-0.00180394,0.00133857,0.02772248,-0.1581,0.1967,-9.7298,-0.004523,-0.001312,-0.002785,28.8061,0.0360,141,0,0,0.000929,0.001002,-0.035796,0.000316,0.001447,0.005761,-1.0890,-1.0102,-0.1024
12326,11.0,0.000688,0.000655,-0.035908,0.001451,0.000336,0.003597,-1.1620,-1.0740,0.0033,-0.00007960,-0.00010542,-0.00190795,-0.00184422,0.00131967,0.02835854,-0.1667,0.1959,-9.7377,-0.003925,-0.004819,-0.002800,28.8061,0.0360,134,0,0,0.000945,0.001017,-0.035704,0.000506,0.001594,0.006528,-1.0903,-1.0089,-0.1029
12337,11.0,0.000699,0.000662,-0.035880,0.001399,0.000445,0.003971,-1.1621,-1.0753,0.0042,-0.00008202,-0.00010989,-0.00190802,-0.00180644,0.00129808,0.02845810,-0.1769,0.2024,-9.7278,-0.000806,-0.003207,-0.000897,28.7717,0.0360,137,0,0,0.000954,0.001024,-0.035847,0.000511,0.001617,0.004917,-1.0915,-1.0095,-0.1024
12348,11.0,0.000709,0.000669,-0.035834,0.001377,0.000434,0.004380,-1.1618,-1.0763,0.0050,-0.00008741,-0.00011811,-0.00190806,-0.00182209,0.00131792,0.02845862,-0.1747,0.1915,-9.7410,-0.001110,-0.003922,-0.000840,28.7717,0.0360,139,0,0,0.000962,0.001031,-0.035809,0.000474,0.001694,0.005510,-1.0907,-1.0094,-0.1019
12359,11.0,0.000720,0.000678,-0.035906,0.001237,0.000310,0.003176,-1.1626,-1.0765,0.0050,-0.00009144,-0.00012134,-0.00190805,-0.00178304,0.00127133,0.02925467,-0.1897,0.1776,-9.7576,-0.002185,-0.001245,-0.001832,28.7717,0.0360,138,0,0,0.000980,0.001047,-0.035708,0.000361,0.001493,0.006669,-1.0913,-1.0102,-0.1016
12370,11.0,0.000730,0.000686,-0.035869,0.001264,0.000285,0.003537,-1.1637,-1.0760,0.0052,-0.00010130,-0.00012896,-0.00190805,-0.00181246,0.00131099,0.02925580,-0.1738,0.1855,-9.7446,-0.004591,-0.001269,-0.001622,28.7717,0.0360,134,0,0,0.000988,0.001055,-0.035639,0.000276,0.001419,0.007156,-1.0906,-1.0112,-0.1014
12381,11.0,0.000740,0.000694,-0.035849,0.001187,0.000363,0.003450,-1.1640,-1.0770,0.0039,-0.00010471,-0.00013185,-0.00190804,-0.00178840,0.00128278,0.02938237,-0.1851,0.1982,-9.7639,-0.001282,-0.002354,-0.004060,28.7717,0.0360,134,0,0,0.000997,0.001062,-0.035839,0.000254,0.001484,0.004886,-1.0910,-1.0110,-0.1009
12392,11.0,0.000750,0.000702,-0.035906,0.001207,0.000308,0.002726,-1.1642,-1.0766,0.0031,-0.00011568,-0.00013860,-0.00190804,-0.00180142,0.00132316,0.03000863,-0.1755,0.1832,-9.7394,-0.003351,-0.001149,-0.003474,28.8510,0.0360,138,0,0,0.001014,0.001078,-0.035749,0.000205,0.001431,0.005693,-1.0905,-1.0116,-0.0976
12403,11.0,0.000760,0.000710,-0.035912,0.001138,0.000186,0.002479,-1.1660,-1.0782,0.0016,-0.00012043,-0.00014097,-0.00190798,-0.00177966,0.00128377,0.03025401,-0.1859,0.1768,-9.7580,-0.003981,-0.003145,-0.003984,28.8510,0.0360,145,0,0,0.001022,0.001086,-0.035755,0.000190,0.001388,0.005560,-1.0902,-1.0114,-0.0985
12414,11.0,0.000770,0.000717,-0.035882,0.001052,0.000243,0.002931,-1.1675,-1.0799,0.0017,-0.00012756,-0.00014064,-0.00190796,-0.00174504,0.00128432,0.03025330,-0.1894,0.1936,-9.7350,-0.004209,-0.002606,-0.002462,28.8510,0.0360,144,0,0,0.001040,0.001102,-0.035830,-0.000013,0.001146,0.004837,-1.0890,-1.0118,-0.0980
12425,11.0,0.000781,0.000724,-0.035952,0.000946,0.000223,0.002045,-1.1692,-1.0814,-0.0006,-0.00013227,-0.00014140,-0.00190786,-0.00172770,0.00123846,0.03090894,-0.1938,0.1867,-9.7456,-0.003875,-0.002538,-0.005029,28.8510,0.0360,138,0,0,0.001049,0.001109,-0.035827,-0.000086,0.001099,0.005003,-1.0897,-1.0118,-0.0977
12436,11.0,0.000790,0.000732,-0.035929,0.001086,0.000225,0.002180,-1.1692,-1.0817,-0.0022,-0.00014161,-0.00015102,-0.00190776,-0.00180126,0.00126253,0.03091057,-0.1680,0.1893,-9.7636,-0.002417,-0.003202,-0.003432,28.8510,0.0360,135,0,0,0.001057,0.001117,-0.035775,-0.000130,0.001052,0.005571,-1.0897,-1.0125,-0.0990
12447,11.0,0.000799,0.000738,-0.035952,0.001168,0.000324,0.001886,-1.1717,-1.0839,-0.0025,-0.00014508,-0.00015370,-0.00190775,-0.00177703,0.00123266,0.03122187,-0.1724,0.2013,-9.7489,-0.004741,-0.004096,-0.002428,28.8510,0.0360,139,0,0,0.001074,0.001132,-0.035869,-0.000053,0.001194,0.004414,-1.0914,-1.0133,-0.1006
12458,11.0,0.000809,0.000747,-0.035961,0.001237,0.000221,0.001583,-1.1710,-1.0837,-0.0030,-0.00015951,-0.00016332,-0.00190775,-0.00182053,0.00130403,0.03141006,-0.1718,0.1792,-9.7712,-0.002645,-0.002262,-0.003022,28.8510,0.0360,138,0,0,0.001082,0.001138,-0.035822,0.000005,0.001281,0.005041,-1.0925,-1.0140,-0.1008
12469,11.0,0.000819,0.000755,-0.035979,0.001215,0.000080,0.001526,-1.1723,-1.0829,-0.0029,-0.00016646,-0.00016658,-0.00190766,-0.00179414,0.00125301,0.03164599,-0.1808,0.1713,-9.7395,-0.003421,0.000525,-0.001383,28.8510,0.0360,138,0,0,0.001099,0.001153,-0.035875,-0.000073,0.001346,0.004442,-1.0920,-1.0136,-0.1024
12480,11.0,0.000829,0.000762,-0.035960,0.001269,0.000073,0.001976,-1.1714,-1.0848,-0.0030,-0.00017862,-0.00017701,-0.00190761,-0.00184115,0.00128914,0.03164733,-0.1714,0.1862,-9.7343,-0.001498,-0.005537,-0.001756,28.9646,0.0360,137,0,0,0.001108,0.001162,-0.035912,-0.000044,0.001268,0.004124,-1.0913,-1.0124,-0.1022
12491,11.0,0.000839,0.000769,-0.036017,0.001358,0.000209,0.001291,-1.1735,-1.0858,-0.0458,-0.00018383,-0.00018156,-0.00190030,-0.00177071,0.00127491,0.03213619,-0.1684,0.2010,-9.7513,-0.005136,-0.001883,-0.003398,28.9646,0.0360,137,0,0,0.001116,0.001169,-0.035867,0.000016,0.001268,0.004854,-1.0908,-1.0140,-0.1356
12502,11.0,0.000848,0.000778,-0.036002,0.001445,0.000053,0.001354,-1.1724,-1.0821,-0.0460,-0.00020675,-0.00019599,-0.00190030,-0.00183426,0.00139056,0.03213928,-0.1659,0.1680,-9.7694,-0.003854,0.002290,-0.002749,28.9646,0.0360,137,0,0,0.001132,0.001184,-0.035967,0.000097,0.001397,0.003490,-1.0939,-1.0130,-0.1347
12513,11.0,0.000859,0.000785,-0.036076,0.001427,0.000011,0.000667,-1.1741,-1.0834,-0.0460,-0.00021367,-0.00020136,-0.00190027,-0.00178978,0.00133576,0.03270047,-0.1755,0.1814,-9.7374,-0.004109,-0.003191,-0.001729,28.9646,0.0360,138,0,0,0.001141,0.001192,-0.035931,0.000159,0.001294,0.003851,-1.0934,-1.0108,-0.1347
12524,11.0,0.000869,0.000792,-0.036023,0.001427,0.000045,0.001328,-1.1746,-1.0843,-0.0451,-0.00022547,-0.00021225,-0.00190025,-0.00181981,0.00135856,0.03243240,-0.1739,0.1896,-9.7618,-0.003447,-0.003858,-0.000319,28.9646,0.0360,137,0,0,0.001149,0.001200,-0.035987,0.000180,0.001254,0.003330,-1.0936,-1.0110,-0.1345
12536,12.0,0.000880,0.000799,-0.036084,0.001522,0.000085,0.000561,-1.1747,-1.0863,-0.0464,-0.00023178,-0.00021895,-0.00190028,-0.00176964,0.00131032,0.03291166,-0.1652,0.1922,-9.7592,-0.001451,-0.004126,-0.004030,28.9884,0.0360,139,0,0,0.001165,0.001215,-0.035956,0.000351,0.001094,0.004072,-1.0942,-1.0110,-0.1341
12547,11.0,0.000891,0.000806,-0.036076,0.001457,0.000060,0.000895,-1.1733,-1.0874,-0.0468,-0.00024651,-0.00022852,-0.00190031,-0.00176993,0.00135593,0.03291233,-0.1788,0.1837,-9.7434,-0.001212,-0.003858,-0.003155,28.9884,0.0360,143,0,0,0.001174,0.001223,-0.035995,0.000400,0.001108,0.003659,-1.0941,-1.0114,-0.1353
12558,11.0,0.000901,0.000813,-0.036080,0.001481,0.000118,0.001005,-1.1749,-1.0882,-0.0470,-0.00025280,-0.00023464,-0.00190032,-0.00173116,0.00131601,0.03300190,-0.1714,0.1926,-9.7472,-0.003820,-0.002569,-0.002295,28.9884,0.0360,137,0,0,0.001190,0.001237,-0.036039,0.000439,0.001007,0.003181,-1.0918,-1.0130,-0.1353
12570,12.0,0.000913,0.000821,-0.036067,0.001397,0.000070,0.001198,-1.1741,-1.0884,-0.0462,-0.00026886,-0.00024176,-0.00190036,-0.00171486,0.00136464,0.03300233,-0.1831,0.1826,-9.7576,-0.002156,-0.001783,-0.001520,28.9884,0.0360,136,0,0,0.001199,0.001244,-0.035994,0.000510,0.001063,0.003943,-1.0924,-1.0125,-0.1359
12581,11.0,0.000924,0.000829,-0.036156,0.001248,0.000093,0.000062,-1.1739,-1.0886,-0.0465,-0.00027610,-0.00024594,-0.00190029,-0.00167920,0.00131040,0.03361182,-0.1922,0.1882,-9.7646,-0.001049,-0.001171,-0.002173,28.9884,0.0360,136,0,0,0.001216,0.001260,-0.036008,0.000462,0.001076,0.003727,-1.0925,-1.0118,-0.1356
12592,11.0,0.000934,0.000836,-0.036061,0.001223,0.000049,0.001241,-1.1736,-1.0897,-0.0473,-0.00029246,-0.00025195,-0.00190027,-0.00169182,0.00137554,0.03307502,-0.1818,0.1817,-9.7650,-0.003242,-0.003092,-0.003849,28.9884,0.0360,138,0,0,0.001224,0.001268,-0.035969,0.000427,0.001128,0.004101,-1.0921,-1.0125,-0.1954
12603,11.0,0.000943,0.000843,-0.036123,0.001359,0.000101,0.000663,-1.1756,-1.0909,0.0461,-0.00029871,-0.00025712,-0.00191847,-0.00172994,0.00126040,0.03352977,-0.1636,0.1932,-9.7418,-0.002869,-0.004594,-0.001309,28.9884,0.0360,141,0,0,0.001233,0.001275,-0.036085,0.000373,0.001094,0.002703,-1.0927,-1.0124,-0.1964
12614,11.0,0.000953,0.000851,-0.036115,0.001495,0.000050,0.000687,-1.1737,-1.0890,0.0453,-0.00031657,-0.00027674,-0.00191844,-0.00182088,0.00131940,0.03353228,-0.1604,0.1803,-9.7714,-0.000916,-0.001386,-0.002755,28.9303,0.0360,138,0,0,0.001250,0.001291,-0.035973,0.000299,0.000796,0.004176,-1.0927,-1.0134,-0.1963
12625,11.0,0.000963,0.000857,-0.036086,0.001507,0.000248,0.001351,-1.1755,-1.0912,0.0447,-0.00032114,-0.00028337,-0.00191850,-0.00178533,0.00129542,0.03341991,-0.1720,0.2094,-9.7332,-0.003928,-0.004779,-0.003028,28.9303,0.0360,136,0,0,0.001258,0.001299,-0.036014,0.000381,0.000750,0.003623,-1.0914,-1.0125,-0.1966
12636,11.0,0.000974,0.000865,-0.036069,0.001388,0.000226,0.001758,-1.1760,-1.0922,0.0451,-0.00033355,-0.00028883,-0.00191857,-0.00175518,0.00133327,0.03341993,-0.1870,0.1874,-9.7360,-0.003645,-0.002681,-0.002305,28.9303,0.0360,137,0,0,0.001267,0.001305,-0.035975,0.000329,0.000902,0.004152,-1.0925,-1.0131,-0.1969
12647,11.0,0.000984,0.000872,-0.036126,0.001430,0.000156,0.001161,-1.1756,-1.0951,0.0440,-0.00033908,-0.00029507,-0.00191859,-0.00171251,0.00129381,0.03386955,-0.1710,0.1839,-9.7423,-0.000475,-0.005746,-0.003794,28.9303,0.0360,142,0,0,0.001284,0.001321,-0.035976,0.000325,0.000780,0.004345,-1.0929,-1.0134,-0.1973
12659,12.0,0.000995,0.000880,-0.036041,0.001417,-0.000002,0.002260,-1.1749,-1.0946,0.0426,-0.00036254,-0.00030571,-0.00191862,-0.00173387,0.00140112,0.03349071,-0.1780,0.1714,-9.7480,-0.003810,-0.001346,-0.004963,28.9303,0.0360,141,0,0,0.001293,0.001327,-0.035930,0.000342,0.000770,0.004894,-1.0921,-1.0148,-0.1985
12670,11.0,0.001005,0.000888,-0.036072,0.001532,-0.000074,0.001680,-1.1757,-1.0944,0.0435,-0.00037187,-0.00031299,-0.00191859,-0.00168842,0.00134414,0.03381224,-0.1631,0.1762,-9.7645,-0.002883,-0.001144,-0.000373,28.9170,0.0360,145,0,0,0.001309,0.001343,-0.035939,0.000416,0.000605,0.004707,-1.0910,-1.0135,-0.1967
12681,11.0,0.001015,0.000895,-0.036053,0.001616,-0.000084,0.001887,-1.1759,-1.0943,0.0438,-0.00038987,-0.00033332,-0.00191856,-0.00176279,0.00138967,0.03381417,-0.1633,0.1828,-9.7545,-0.004122,-0.004176,-0.000975,28.9170,0.0360,140,0,0,0.001317,0.001352,-0.035958,0.000502,0.000453,0.004228,-1.0912,-1.0129,-0.1962
12692,11.0,0.001026,0.000903,-0.036049,0.001487,-0.000285,0.002058,-1.1746,-1.0970,0.0433,-0.00040033,-0.00034037,-0.00191848,-0.00172309,0.00133178,0.03391608,-0.1855,0.1618,-9.7375,0.000146,-0.005602,-0.002418,28.9170,0.0360,134,0,0,0.001335,0.001367,-0.035864,0.000521,0.000261,0.005352,-1.0914,-1.0130,-0.1594
12703,11.0,0.001036,0.000908,-0.036024,0.001415,-0.000138,0.002370,-1.1741,-1.0987,0.0448,-0.00041200,-0.00034937,-0.00191842,-0.00171747,0.00130774,0.03391529,-0.1826,0.1961,-9.7441,-0.001499,-0.004635,0.000663,28.9170,0.0360,134,0,0,0.001343,0.001374,-0.035972,0.000454,0.000203,0.004134,-1.0897,-1.0147,-0.1585
12713,10.0,0.001045,0.000915,-0.036071,0.001372,-0.000080,0.001683,-1.1759,-1.0991,0.1309,-0.00042073,-0.00035487,-0.00193748,-0.00175818,0.00118346,0.03431446,-0.1810,0.1885,-9.7552,-0.003335,-0.003626,-0.004180,28.9170,0.0360,140,0,0,0.001351,0.001382,-0.035928,0.000541,0.000170,0.004618,-1.0897,-1.0140,-0.1575
12724,11.0,0.001055,0.000922,-0.036016,0.001411,0.000006,0.002225,-1.1768,-1.0977,0.1296,-0.00043424,-0.00036817,-0.00193741,-0.00180060,0.00118865,0.03412011,-0.1736,0.1920,-9.7613,-0.004181,-0.000593,-0.003442,28.9170,0.0360,133,0,0,0.001368,0.001396,-0.035915,0.000519,0.000167,0.004557,-1.0899,-1.0142,-0.1585
12735,11.0,0.001066,0.000929,-0.036046,0.001482,0.000186,0.001721,-1.1785,-1.0983,0.1278,-0.00044082,-0.00037465,-0.00193742,-0.00176159,0.00114884,0.03442892,-0.1698,0.2054,-9.7569,-0.004073,-0.002100,-0.004948,28.9170,0.0370,132,0,0,0.001377,0.001404,-0.036549,0.000553,0.000204,-0.002479,-1.0902,-1.0123,-0.1592
12746,11.0,0.001077,0.000937,-0.036025,0.001333,0.000213,0.002147,-1.1804,-1.0979,0.1276,-0.00045396,-0.00037662,-0.00193745,-0.00171268,0.00117111,0.03442831,-0.1932,0.1901,-9.7331,-0.005885,0.000078,-0.003041,28.9170,0.0370,140,0,0,0.001386,0.001412,-0.036632,0.000548,0.000328,-0.002779,-1.0906,-1.0117,-0.1603
12757,11.0,0.001062,0.000945,-0.036579,0.000751,0.000188,-0.004366,-1.1821,-1.0963,0.1286,-0.00046102,-0.00040812,-0.00193804,-0.00149808,0.00107649,0.03752356,-0.1793,0.1873,-9.7464,-0.004108,-0.002140,-0.001914,28.9170,0.0370,142,0,1,0.001375,0.001427,-0.036770,0.000375,0.000291,-0.002807,-1.0925,-1.0126,-0.1603
12768,11.0,0.001070,0.000952,-0.036626,0.000932,0.000251,-0.004091,-1.1831,-1.0959,0.1295,-0.00046980,-0.00041827,-0.00193788,-0.00157865,0.00107579,0.03752488,-0.1699,0.1968,-9.7441,-0.003432,-0.002075,0.000479,28.9170,0.0360,136,0,0,0.001384,0.001434,-0.036312,0.000365,0.000335,0.003015,-1.0932,-1.0121,-0.1605
12779,11.0,0.001079,0.000960,-0.036743,0.001057,0.000357,-0.004862,-1.1834,-1.0971,0.1307,-0.00047436,-0.00042067,-0.00193784,-0.00155949,0.00104554,0.03791915,-0.1730,0.2040,-9.7594,-0.001617,-0.002662,0.000067,28.9170,0.0360,143,0,0,0.001392,0.001441,-0.036279,0.000382,0.000466,0.003563,-1.0933,-1.0115,-0.1593
12790,11.0,0.001088,0.000967,-0.036353,0.001289,0.000361,0.000562,-1.1844,-1.0972,0.1311,-0.00048151,-0.00044152,-0.00193777,-0.00172511,0.00110695,0.03559889,-0.1572,0.1958,-9.7459,-0.003287,-0.004744,-0.000022,28.9170,0.0360,135,0,0,0.001409,0.001456,-0.036281,0.000381,0.000577,0.003572,-1.0959,-1.0111,-0.1211
12801,11.0,0.001098,0.000975,-0.036402,0.001281,0.000313,-0.000053,-1.1833,-1.0985,0.1310,-0.00048677,-0.00044638,-0.00193777,-0.00169579,0.00107518,0.03589975,-0.1807,0.1890,-9.7655,0.000568,-0.003168,-0.002110,28.9170,0.0370,137,0,0,0.001418,0.001463,-0.036734,0.000450,0.000612,-0.001335,-1.0962,-1.0109,-0.1207
12813,12.0,0.001109,0.000984,-0.036401,0.001348,-0.000039,0.000314,-1.1798,-1.1000,0.1328,-0.00052003,-0.00046010,-0.00193784,-0.00174248,0.00124997,0.03590371,-0.1731,0.1563,-9.7409,-0.001268,-0.005000,-0.000750,28.9170,0.0370,135,0,0,0.001435,0.001479,-0.036753,0.000451,0.000667,-0.000454,-1.0963,-1.0095,-0.1215
12823,10.0,0.001118,0.000991,-0.036753,0.001266,-0.000016,-0.003527,-1.1814,-1.1006,0.2163,-0.00052892,-0.00046470,-0.00195774,-0.00176383,0.00110023,0.03774963,-0.1878,0.1866,-9.7373,-0.002935,-0.003884,0.000671,28.8827,0.0370,137,0,0,0.001444,0.001487,-0.036832,0.000488,0.000505,-0.000864,-1.0956,-1.0102,-0.1208
12835,12.0,0.001130,0.000997,-0.036794,0.001287,0.000016,-0.003291,-1.1825,-1.1024,0.2170,-0.00054298,-0.00047482,-0.00195768,-0.00178663,0.00111675,0.03775017,-0.1790,0.1910,-9.7491,-0.004335,-0.004700,-0.000923,28.8827,0.0360,137,0,0,0.001453,0.001494,-0.036330,0.000435,0.000504,0.005266,-1.0955,-1.0120,-0.1194
12846,11.0,0.001140,0.001004,-0.036890,0.001322,0.000140,-0.003814,-1.1829,-1.1025,0.2164,-0.00055060,-0.00048030,-0.00195764,-0.00175452,0.00107404,0.03807075,-0.1764,0.1997,-9.7494,-0.002254,-0.001293,-0.002732,28.8827,0.0360,137,0,0,0.001470,0.001508,-0.036267,0.000328,0.000397,0.005781,-1.0955,-1.0132,-0.1191
12857,11.0,0.001149,0.001012,-0.036961,0.001385,0.000137,-0.003858,-1.1817,-1.1029,0.2173,-0.00056534,-0.00049547,-0.00195761,-0.00180279,0.00110352,0.03822511,-0.1720,0.1883,-9.7408,-0.001142,-0.003864,-0.000345,28.8827,0.0370,138,0,0,0.001479,0.001516,-0.036207,0.000295,0.000451,0.006217,-1.0952,-1.0128,-0.1190
12868,11.0,0.001160,0.001020,-0.037049,0.001284,0.000097,-0.004379,-1.1847,-1.1041,0.2175,-0.00057297,-0.00049987,-0.00195754,-0.00177755,0.00106282,0.03846550,-0.1913,0.1850,-9.7650,-0.006274,-0.003051,-0.001453,28.8827,0.0370,138,0,0,0.001496,0.001531,-0.036676,0.000242,0.000466,0.001257,-1.0943,-1.0135,-0.1180
12879,11.0,0.001197,0.001026,-0.037097,0.001946,0.000287,-0.004285,-1.1863,-1.1070,0.2139,-0.00057405,-0.00048736,-0.00195677,-0.00196068,0.00100328,0.03846783,-0.1720,0.2108,-9.7593,-0.003098,-0.004058,-0.004703,28.8827,0.0370,134,0,-1,0.001505,0.001538,-0.036723,0.000180,0.000491,0.000760,-1.0961,-1.0146,-0.1181
12890,11.0,0.001208,0.001035,-0.037092,0.001880,0.000257,-0.003591,-1.1879,-1.1061,0.2128,-0.00058072,-0.00049884,-0.00195690,-0.00191191,0.00097694,0.03820883,-0.1753,0.1884,-9.7595,-0.004081,-0.000514,-0.004126,28.8827,0.0370,135,0,0,0.001543,0.001544,-0.036714,0.000286,0.000699,0.001106,-1.0968,-1.0153,-0.0804
12901,11.0,0.001219,0.001043,-0.037131,0.001878,0.000178,-0.003416,-1.1881,-1.1042,0.2131,-0.00059927,-0.00052240,-0.00195702,-0.00195790,0.00104242,0.03821063,-0.1677,0.1825,-9.7529,-0.004124,-0.001570,-0.001648,28.9408,0.0360,135,0,0,0.001552,0.001552,-0.036701,0.000325,0.000688,0.001498,-1.0972,-1.0148,-0.0810
12912,11.0,0.001230,0.001050,-0.037248,0.001862,0.000118,-0.004057,-1.1877,-1.1060,0.2149,-0.00060621,-0.00053439,-0.00195716,-0.00189525,0.00100210,0.03862452,-0.1691,0.1852,-9.7382,-0.000846,-0.004888,0.000594,28.9408,0.0360,142,0,0,0.001568,0.001567,-0.036227,0.000329,0.000586,0.006639,-1.0981,-1.0164,-0.0807
12923,11.0,0.001241,0.001058,-0.037124,0.001876,0.000151,-0.001847,-1.1884,-1.1043,0.2149,-0.00061995,-0.00055821,-0.00195722,-0.00196247,0.00103810,0.03780085,-0.1666,0.1920,-9.7441,-0.004080,-0.002024,-0.001585,28.9408,0.0370,138,0,0,0.001577,0.001574,-0.036246,0.000315,0.000566,0.006164,-1.0972,-1.0171,-0.0798
12934,11.0,0.001252,0.001066,-0.037205,0.001831,-0.000167,-0.002330,-1.1876,-1.1068,0.0939,-0.00063065,-0.00056950,-0.00192473,-0.00178674,0.00109259,0.03811600,-0.1740,0.1541,-9.7451,-0.002806,-0.003583,-0.003148,28.9408,0.0370,141,0,0,0.001594,0.001590,-0.036610,0.000501,0.000478,0.002367,-1.0994,-1.0159,-0.0809
12945,11.0,0.001263,0.001074,-0.037228,0.001848,-0.000150,-0.001886,-1.1868,-1.1051,0.0928,-0.00065280,-0.00059338,-0.00192474,-0.00184063,0.00113467,0.03811746,-0.1666,0.1833,-9.7285,-0.003151,-0.001935,-0.003414,28.9408,0.0370,135,0,0,0.001602,0.001598,-0.036661,0.000471,0.000321,0.001961,-1.0974,-1.0167,-0.0809
12956,11.0,0.001273,0.001080,-0.036612,0.001866,-0.000100,0.005514,-1.1864,-1.1065,0.0920,-0.00066189,-0.00060484,-0.00192481,-0.00184370,0.00115293,0.03500907,-0.1668,0.1907,-9.7715,-0.001196,-0.004323,-0.003486,28.9620,0.0360,142,0,0,0.001611,0.001606,-0.036638,0.000493,0.000272,0.002550,-1.0976,-1.0165,-0.0814
12967,11.0,0.001284,0.001086,-0.036549,0.001820,0.000173,0.005862,-1.1866,-1.1071,0.0906,-0.00066051,-0.00062614,-0.00192481,-0.00187155,0.00106114,0.03500757,-0.1722,0.2170,-9.7395,-0.000302,-0.004905,-0.002997,28.9620,0.0360,137,0,0,0.001628,0.001621,-0.036239,0.000527,0.000288,0.006666,-1.0963,-1.0155,-0.0829
12980,13.0,0.001299,0.001093,-0.036565,0.001695,0.000058,0.005017,-1.1884,-1.1100,0.0917,-0.00066814,-0.00063643,-0.00192490,-0.00181765,0.00101816,0.03546825,-0.1844,0.1829,-9.7507,-0.003893,-0.005655,-0.000715,28.9620,0.0360,137,0,0,0.001637,0.001627,-0.036169,0.000521,0.000421,0.007186,-1.0977,-1.0163,-0.0835
12991,11.0,0.001309,0.001100,-0.036217,0.001638,0.000307,0.008627,-1.1892,-1.1094,0.0899,-0.00066637,-0.00065248,-0.00192490,-0.00185483,0.00096164,0.03407909,-0.1780,0.2165,-9.7485,-0.001211,-0.002203,-0.003853,28.9620,0.0360,136,0,0,0.001654,0.001641,-0.036141,0.000532,0.000471,0.006913,-1.0982,-1.0184,-0.1541
13002,11.0,0.001320,0.001108,-0.036190,0.001598,0.000343,0.008194,-1.1913,-1.1090,0.0908,-0.00067205,-0.00066103,-0.00192499,-0.00181112,0.00092973,0.03442070,-0.1789,0.1965,-9.7357,-0.004763,-0.001213,-0.000588,28.9620,0.0370,138,0,0,0.001663,0.001648,-0.036725,0.000458,0.000729,0.000396,-1.0979,-1.0180,-0.1549
13013,11.0,0.001332,0.001116,-0.036099,0.001436,0.000255,0.008300,-1.1907,-1.1104,0.0905,-0.00068886,-0.00066570,-0.00192512,-0.00176566,0.00099084,0.03442090,-0.1938,0.1846,-9.7624,-0.002658,-0.003380,-0.003567,28.9620,0.0370,134,0,0,0.001681,0.001663,-0.036708,0.000267,0.000858,0.001236,-1.0991,-1.0173,-0.1557
13024,11.0,0.001341,0.001124,-0.035498,0.001536,0.000058,0.014654,-1.1904,-1.1114,0.0905,-0.00069650,-0.00067381,-0.00192515,-0.00177195,0.00100376,0.03203352,-0.1660,0.1710,-9.7288,-0.001146,-0.003211,-0.002119,28.9620,0.0350,137,0,0,0.001690,0.001671,-0.036815,0.000197,0.000838,0.000238,-1.0986,-1.0183,-0.1559
13035,11.0,0.001351,0.001131,-0.035334,0.001498,0.000145,0.015141,-1.1892,-1.1119,0.0899,-0.00070602,-0.00068845,-0.00192516,-0.00178851,0.00099598,0.03203347,-0.1789,0.1988,-9.7301,-0.000328,-0.003820,-0.002627,28.9276,0.0350,137,0,0,0.001698,0.001679,-0.035700,0.000255,0.000702,0.012636,-1.0981,-1.0184,-0.1560
13046,11.0,0.001361,0.001139,-0.035243,0.001431,-0.000019,0.014672,-1.1906,-1.1126,0.1242,-0.00071489,-0.00069562,-0.00193516,-0.00178529,0.00091799,0.03240455,-0.1840,0.1727,-9.7334,-0.003377,-0.003468,-0.000595,28.9276,0.0350,142,0,0,0.001714,0.001692,-0.035506,0.000235,0.000797,0.013092,-1.0987,-1.0198,-0.1560
13057,11.0,0.001372,0.001146,-0.036121,0.001461,-0.000101,0.002782,-1.1901,-1.1130,0.1232,-0.00074087,-0.00071160,-0.00193514,-0.00173226,0.00089809,0.03726042,-0.1760,0.1770,-9.7552,-0.004441,-0.003814,-0.003928,28.9276,0.0370,137,0,0,0.001723,0.001700,-0.035373,0.000209,0.000718,0.013636,-1.0978,-1.0207,-0.1543
13068,11.0,0.001382,0.001154,-0.036149,0.001490,-0.000188,0.002092,-1.1890,-1.1133,0.1225,-0.00075278,-0.00071921,-0.00193505,-0.00169423,0.00084135,0.03754174,-0.1756,0.1746,-9.7680,-0.000402,-0.002253,-0.002774,28.9276,0.0370,140,0,0,0.001731,0.001707,-0.036332,0.000206,0.000655,0.002121,-1.0990,-1.0212,-0.1554
13080,12.0,0.001393,0.001161,-0.036122,0.001634,-0.000199,0.002438,-1.1884,-1.1119,0.1228,-0.00077703,-0.00074371,-0.00193496,-0.00177816,0.00088905,0.03754387,-0.1632,0.1817,-9.7407,-0.003545,-0.002503,-0.001099,28.9276,0.0370,139,0,0,0.001749,0.001723,-0.036363,0.000219,0.000602,0.001691,-1.0964,-1.0189,-0.1551
13091,11.0,0.001403,0.001194,-0.035529,0.001681,0.000251,0.009091,-1.1837,-1.1130,0.1220,-0.00081634,-0.00075397,-0.00193433,-0.00178006,0.00077099,0.03494345,-0.1678,0.1712,-9.7612,0.001636,-0.003822,-0.001916,28.9276,0.0350,139,-1,0,0.001757,0.001731,-0.036344,0.000297,0.000558,0.002119,-1.0965,-1.0173,-0.1403
13102,11.0,0.001413,0.001227,-0.035427,0.001622,0.000702,0.009487,-1.1806,-1.1132,0.1214,-0.00086309,-0.00077036,-0.00193384,-0.00179297,0.00072778,0.03494230,-0.1786,0.1798,-9.7358,-0.002829,-0.003713,-0.002377,28.8563,0.0350,139,-1,0,0.001773,0.001800,-0.035452,0.000397,0.000589,0.011232,-1.0923,-1.0177,-0.1397
13113,11.0,0.001423,0.001235,-0.035371,0.001626,0.000455,0.009245,-1.1826,-1.1146,0.1201,-0.00086604,-0.00077987,-0.00193399,-0.00174842,0.00071070,0.03518001,-0.1740,0.1743,-9.7387,-0.004539,-0.004051,-0.004178,28.8563,0.0350,135,0,0,0.001782,0.001808,-0.035338,0.000321,0.000619,0.011602,-1.0929,-1.0173,-0.1418
13124,11.0,0.001434,0.001244,-0.036208,0.001733,0.000381,-0.001512,-1.1829,-1.1119,0.1192,-0.00088191,-0.00080669,-0.00193403,-0.00175078,0.00068082,0.03944391,-0.1625,0.1857,-9.7578,-0.004059,-0.000985,-0.002999,28.8563,0.0370,141,0,0,0.001799,0.001823,-0.035168,0.000285,0.000553,0.011869,-1.0936,-1.0169,-0.1436
13135,11.0,0.001444,0.001253,-0.036263,0.001732,0.000239,-0.001931,-1.1836,-1.1119,0.1197,-0.00088863,-0.00081704,-0.00193412,-0.00170406,0.00064915,0.03962295,-0.1732,0.1778,-9.7634,-0.002909,-0.002217,-0.001273,28.8563,0.0370,139,0,0,0.001807,0.001830,-0.036304,0.000397,0.000562,-0.001047,-1.0940,-1.0151,-0.1437
13146,11.0,0.001455,0.001260,-0.036284,0.001716,0.000196,-0.001912,-1.1827,-1.1118,0.1196,-0.00090442,-0.00083642,-0.00193420,-0.00173445,0.00069335,0.03962412,-0.1741,0.1863,-9.7654,-0.002049,-0.003821,-0.002092,28.8563,0.0370,139,0,0,0.001816,0.001838,-0.036356,0.000443,0.000530,-0.001290,-1.0944,-1.0149,-0.1432
13157,11.0,0.001467,0.001268,-0.036705,0.001572,0.000230,-0.006192,-1.1828,-1.1126,0.0970,-0.00091149,-0.00084528,-0.00192606,-0.00163893,0.00065590,0.04142550,-0.1890,0.1933,-9.7308,-0.002460,-0.002795,0.001504,28.8563,0.0370,141,0,0,0.001833,0.001853,-0.036446,0.000566,0.000649,-0.001486,-1.0945,-1.0133,-0.1423
13168,11.0,0.001477,0.001276,-0.036772,0.001441,0.000161,-0.006013,-1.1813,-1.1132,0.0971,-0.00092986,-0.00085259,-0.00192616,-0.00161028,0.00071362,0.04142591,-0.1904,0.1825,-9.7488,-0.001573,-0.002785,-0.002433,28.8563,0.0360,137,0,0,0.001842,0.001861,-0.036172,0.000506,0.000667,0.002122,-1.0950,-1.0137,-0.1413
13180,12.0,0.001490,0.001284,-0.036881,0.001274,0.000136,-0.006248,-1.1811,-1.1138,0.0976,-0.00093770,-0.00085790,-0.00192610,-0.00158503,0.00067793,0.04159885,-0.1969,0.1873,-9.7465,-0.001580,-0.002364,-0.001208,28.8219,0.0360,136,0,0,0.001851,0.001869,-0.036148,0.000381,0.000649,0.002532,-1.0949,-1.0135,-0.1413
13191,11.0,0.001499,0.001291,-0.036418,0.001271,0.000187,0.000104,-1.1812,-1.1151,0.0970,-0.00094749,-0.00086720,-0.00192606,-0.00164475,0.00072834,0.03925713,-0.1826,0.1951,-9.7466,-0.002564,-0.004328,-0.002733,28.8219,0.0360,140,0,0,0.001868,0.001883,-0.036132,0.000191,0.000708,0.002985,-1.0931,-1.0152,-0.1582
13202,11.0,0.001509,0.001299,-0.036444,0.001347,0.000023,0.000033,-1.1815,-1.1158,0.0961,-0.00095670,-0.00087292,-0.00192598,-0.00161857,0.00068797,0.03938744,-0.1747,0.1706,-9.7427,-0.002774,-0.002743,-0.003185,28.8219,0.0370,140,0,0,0.001877,0.001890,-0.036655,0.000204,0.000746,-0.002674,-1.0933,-1.0163,-0.1586
13213,11.0,0.001519,0.001306,-0.036443,0.001414,0.000018,0.000246,-1.1814,-1.1161,0.0958,-0.00097490,-0.00088911,-0.00192592,-0.00166900,0.00072680,0.03938890,-0.1737,0.1854,-9.7480,-0.003787,-0.004053,-0.002216,28.8219,0.0370,140,0,0,0.001894,0.001906,-0.036701,0.000202,0.000669,-0.001894,-1.0935,-1.0160,-0.1596
13224,11.0,0.001529,0.001313,-0.035666,0.001474,0.000013,0.009424,-1.1808,-1.1173,0.0960,-0.00098249,-0.00089646,-0.00192592,-0.00170027,0.00075721,0.03601722,-0.1722,0.1865,-9.7481,-0.000866,-0.003797,-0.001663,28.8219,0.0350,143,0,0,0.001902,0.001914,-0.036765,0.000257,0.000667,-0.002060,-1.0937,-1.0163,-0.1595
13235,11.0,0.001538,0.001321,-0.035561,0.001552,-0.000008,0.009671,-1.1797,-1.1164,0.0956,-0.00100179,-0.00091794,-0.00192589,-0.00176397,0.00080245,0.03601900,-0.1685,0.1835,-9.7484,-0.002492,-0.003061,-0.002225,28.8457,0.0350,143,0,0,0.001910,0.001921,-0.035713,0.000311,0.000675,0.010097,-1.0933,-1.0159,-0.1594
13246,11.0,0.001548,0.001327,-0.035500,0.001620,-0.000023,0.009422,-1.1796,-1.1177,0.0945,-0.00101058,-0.00092758,-0.00192592,-0.00172064,0.00076257,0.03622522,-0.1684,0.1847,-9.7428,-0.002091,-0.004175,-0.003713,28.8457,0.0350,140,0,0,0.001927,0.001935,-0.035545,0.000334,0.000625,0.010437,-1.0927,-1.0170,-0.1585
13257,11.0,0.001559,0.001334,-0.036263,0.001658,0.000060,-0.000508,-1.1797,-1.1170,0.0960,-0.00102445,-0.00094891,-0.00192588,-0.00169849,0.00069059,0.03997011,-0.1713,0.1940,-9.7564,-0.003161,-0.003391,0.000947,28.8457,0.0370,140,0,0,0.001935,0.001942,-0.035439,0.000375,0.000609,0.010832,-1.0928,-1.0178,-0.1582
13268,11.0,0.001570,0.001342,-0.036301,0.001618,0.000057,-0.000546,-1.1796,-1.1172,0.0725,-0.00103336,-0.00095792,-0.00191750,-0.00163279,0.00067538,0.04012639,-0.1795,0.1851,-9.7314,-0.002448,-0.002039,-0.002505,28.8457,0.0370,138,0,0,0.001953,0.001957,-0.036347,0.000300,0.000656,0.000263,-1.0951,-1.0186,-0.1576
13279,11.0,0.001581,0.001350,-0.036307,0.001486,-0.000155,-0.000518,-1.1768,-1.1184,0.0719,-0.00106658,-0.00096535,-0.00191763,-0.00160460,0.00080430,0.04012814,-0.1913,0.1617,-9.7642,-0.002549,-0.003762,-0.004151,28.8457,0.0370,136,0,0,0.001962,0.001965,-0.036389,0.000277,0.000656,0.000252,-1.0952,-1.0187,-0.1578
13290,11.0,0.001590,0.001357,-0.035617,0.001581,-0.000136,0.007684,-1.1769,-1.1182,0.0724,-0.00107666,-0.00097379,-0.00191760,-0.00162389,0.00081837,0.03715718,-0.1675,0.1839,-9.7571,-0.002370,-0.001721,-0.001000,28.8457,0.0350,146,0,0,0.001971,0.001973,-0.036385,0.000190,0.000487,0.000543,-1.0949,-1.0191,-0.1778
13301,11.0,0.001601,0.001364,-0.035530,0.001530,-0.000205,0.008057,-1.1759,-1.1183,0.0717,-0.00110305,-0.00098779,-0.00191763,-0.00163498,0.00089293,0.03715857,-0.1813,0.1739,-9.7358,-0.004093,-0.003437,-0.003467,28.8457,0.0350,146,0,0,0.001988,0.001987,-0.035483,0.000180,0.000374,0.010147,-1.0962,-1.0205,-0.1768
13312,11.0,0.001610,0.001371,-0.035464,0.001631,-0.000171,0.008257,-1.1762,-1.1185,0.0714,-0.00111403,-0.00099740,-0.00191760,-0.00159395,0.00084638,0.03726574,-0.1653,0.1840,-9.7244,-0.003052,-0.002484,-0.002382,28.7876,0.0350,135,0,0,0.001996,0.001995,-0.035379,0.000208,0.000342,0.010603,-1.0959,-1.0202,-0.1775
13323,11.0,0.001622,0.001377,-0.036251,0.001480,-0.000036,-0.001704,-1.1752,-1.1193,0.0725,-0.00112770,-0.00100500,-0.00191758,-0.00148974,0.00075847,0.04097357,-0.1927,0.1959,-9.7442,-0.001486,-0.003151,-0.000331,28.7876,0.0370,135,0,0,0.002003,0.002002,-0.035303,0.000320,0.000341,0.010797,-1.0956,-1.0200,-0.1776
13334,11.0,0.001631,0.001384,-0.036287,0.001683,0.000105,-0.001618,-1.1763,-1.1204,0.0723,-0.00113526,-0.00101457,-0.00191765,-0.00144959,0.00072629,0.04105444,-0.1564,0.2002,-9.7372,-0.003857,-0.004101,-0.002383,28.7876,0.0370,141,0,0,0.002021,0.002016,-0.036265,0.000190,0.000525,0.000014,-1.0955,-1.0201,-0.1775
13345,11.0,0.001642,0.001392,-0.036303,0.001671,0.000166,-0.001311,-1.1738,-1.1191,0.0726,-0.00114776,-0.00103374,-0.00191767,-0.00148192,0.00073239,0.04105493,-0.1749,0.1924,-9.7377,0.000985,-0.002046,-0.001250,28.7876,0.0370,136,0,0,0.002030,0.002024,-0.036288,0.000265,0.000589,0.000118,-1.0972,-1.0193,-0.1781
13356,11.0,0.001652,0.001398,-0.035062,0.001669,0.000316,0.013359,-1.1753,-1.1185,0.0721,-0.00115160,-0.00104274,-0.00191782,-0.00153951,0.00081370,0.03582411,-0.1742,0.2058,-9.7590,-0.004029,-0.001278,-0.002959,28.7876,0.0340,134,0,0,0.002038,0.002032,-0.036285,0.000268,0.000590,0.000541,-1.0960,-1.0188,-0.1782
13367,11.0,0.001662,0.001406,-0.034914,0.001690,0.000295,0.013532,-1.1745,-1.1164,0.0725,-0.00116358,-0.00106506,-0.00191791,-0.00158703,0.00084292,0.03582532,-0.1701,0.1892,-9.7552,-0.001882,-0.001495,-0.000988,28.7876,0.0340,142,0,0,0.002054,0.002046,-0.034771,0.000438,0.000603,0.015896,-1.0966,-1.0188,-0.1787
13378,11.0,0.001672,0.001414,-0.034810,0.001587,0.000217,0.013334,-1.1761,-1.1149,0.1655,-0.00117009,-0.00107432,-0.00195490,-0.00165482,0.00071233,0.03602271,-0.1837,0.1829,-9.7380,-0.002831,-0.001744,-0.002595,28.8457,0.0340,137,0,0,0.002062,0.002053,-0.034610,0.000481,0.000613,0.016247,-1.0965,-1.0179,-0.1789
13389,11.0,0.001683,0.001422,-0.035928,0.001647,0.000221,-0.001219,-1.1757,-1.1127,0.1658,-0.00118540,-0.00109676,-0.00195492,-0.00161290,0.00063608,0.04123421,-0.1689,0.1883,-9.7556,-0.003040,-0.001358,-0.001228,28.8457,0.0370,136,0,0,0.002070,0.002061,-0.034505,0.000455,0.000525,0.016037,-1.0965,-1.0175,-0.1797
13401,12.0,0.001695,0.001429,-0.035977,0.001631,0.000391,-0.001422,-1.1770,-1.1142,0.1667,-0.00118955,-0.00110588,-0.00195506,-0.00157377,0.00061634,0.04138723,-0.1775,0.2086,-9.7455,-0.003506,-0.004300,-0.000893,28.8457,0.0370,137,0,0,0.002087,0.002075,-0.035927,0.000542,0.000540,-0.000562,-1.0978,-1.0192,-0.1261
13412,11.0,0.001706,0.001437,-0.035991,0.001537,0.000379,-0.001113,-1.1764,-1.1143,0.1680,-0.00119990,-0.00111705,-0.00195519,-0.00156623,0.00064086,0.04138742,-0.1851,0.1912,-9.7369,-0.001997,-0.003075,-0.000165,28.8457,0.0370,137,0,0,0.002105,0.002089,-0.035983,0.000509,0.000682,-0.000266,-1.0990,-1.0193,-0.1268
13423,11.0,0.001716,0.001445,-0.035470,0.001591,0.000337,0.005426,-1.1770,-1.1153,0.1690,-0.00120397,-0.00112562,-0.00195532,-0.00157009,0.00066640,0.03923496,-0.1698,0.1892,-9.7301,-0.002616,-0.003836,-0.000558,28.8457,0.0350,137,0,0,0.002105,0.002089,-0.035983,0.000509,0.000682,-0.000266,-1.0990,-1.0198,-0.1263
13434,11.0,0.001726,0.001453,-0.035410,0.001646,0.000208,0.005554,-1.1761,-1.1142,0.1695,-0.00122309,-0.00114770,-0.00195543,-0.00162722,0.00074205,0.03923725,-0.1682,0.1777,-9.7561,-0.003122,-0.003083,-0.001348,28.8457,0.0350,141,0,0,0.002121,0.002104,-0.035354,0.000462,0.000667,0.006797,-1.0984,-1.0189,-0.1272
13445,11.0,0.001736,0.001460,-0.035395,0.001624,0.000156,0.005086,-1.1759,-1.1147,0.1710,-0.00122989,-0.00115727,-0.00195552,-0.00158566,0.00071102,0.03942975,-0.1764,0.1844,-9.7593,-0.001786,-0.003293,0.000287,28.8457,0.0350,135,0,0,0.002138,0.002119,-0.035264,0.000458,0.000618,0.006921,-1.0975,-1.0185,-0.1271
13456,11.0,0.001746,0.001468,-0.036239,0.001729,0.000090,-0.005467,-1.1750,-1.1131,0.1708,-0.00124990,-0.00118324,-0.00195555,-0.00159433,0.00069436,0.04303407,-0.1632,0.1803,-9.7799,-0.003223,-0.003048,-0.002159,28.8457,0.0370,140,0,0,0.002147,0.002127,-0.036262,0.000403,0.000624,-0.004459,-1.0980,-1.0189,-0.1269
13467,11.0,0.001757,0.001475,-0.036340,0.001654,0.000161,-0.005933,-1.1747,-1.1142,0.1698,-0.00125683,-0.00119258,-0.00195563,-0.00155426,0.00066337,0.04320420,-0.1814,0.1952,-9.7605,-0.001698,-0.004139,-0.003652,28.8668,0.0370,136,0,0,0.002155,0.002135,-0.036350,0.000494,0.000594,-0.004864,-1.0981,-1.0192,-0.1269
13478,11.0,0.001768,0.001483,-0.036404,0.001555,-0.000007,-0.005646,-1.1726,-1.1145,0.1697,-0.00128393,-0.00120336,-0.00195580,-0.00154502,0.00076644,0.04320582,-0.1857,0.1676,-9.7376,-0.002836,-0.003334,-0.003019,28.8668,0.0370,137,0,0,0.002172,0.002149,-0.036510,0.000555,0.000706,-0.004961,-1.0975,-1.0192,-0.1278
13489,11.0,0.001778,0.001490,-0.035691,0.001606,-0.000005,0.003547,-1.1745,-1.1156,0.1844,-0.00129158,-0.00121145,-0.00196274,-0.00158613,0.00077787,0.04013265,-0.1705,0.1860,-9.7447,-0.005078,-0.004272,-0.004078,28.8668,0.0350,139,0,0,0.002181,0.002129,-0.035622,0.000507,0.000525,0.005720,-1.0965,-1.0200,-0.1201
13501,12.0,0.001790,0.001498,-0.035648,0.001729,-0.000116,0.003580,-1.1740,-1.1121,0.1832,-0.00131793,-0.00123689,-0.00196274,-0.00165936,0.00085422,0.04013518,-0.1630,0.1725,-9.7644,-0.004762,-0.000194,-0.003696,28.8668,0.0350,139,0,0,0.002189,0.002136,-0.035563,0.000552,0.000484,0.006121,-1.0974,-1.0208,-0.1211
13513,12.0,0.001802,0.001505,-0.035649,0.001832,-0.000056,0.003038,-1.1738,-1.1115,0.1833,-0.00132840,-0.00124849,-0.00196279,-0.00161031,0.00080934,0.04030861,-0.1634,0.1887,-9.7689,-0.002324,-0.001790,-0.001839,28.8325,0.0370,136,0,0,0.002204,0.002151,-0.035497,0.000818,0.000371,0.005944,-1.0973,-1.0195,-0.1222
13524,11.0,0.001813,0.001513,-0.036376,0.001780,-0.000026,-0.005470,-1.1725,-1.1105,0.1831,-0.00134705,-0.00126834,-0.00196284,-0.00157638,0.00077789,0.04327631,-0.1749,0.1851,-9.7414,-0.002386,-0.002892,-0.002323,28.8325,0.0370,142,0,0,0.002222,0.002166,-0.036430,0.000835,0.000413,-0.004080,-1.0959,-1.0206,-0.1211
13535,11.0,0.001824,0.001520,-0.036467,0.001673,-0.000061,-0.005666,-1.1728,-1.1120,0.1830,-0.00135629,-0.00127774,-0.00196286,-0.00153684,0.00073879,0.04340397,-0.1833,0.1805,-9.7464,-0.003084,-0.004898,-0.002130,28.8325,0.0370,138,0,0,0.002231,0.002173,-0.036469,0.000835,0.000367,-0.003696,-1.0957,-1.0206,-0.1212
13546,11.0,0.001835,0.001527,-0.036529,0.001571,0.000062,-0.005581,-1.1710,-1.1131,0.1857,-0.00136586,-0.00128932,-0.00196286,-0.00152804,0.00072071,0.04340330,-0.1847,0.1973,-9.7552,0.000216,-0.004821,0.002429,28.8325,0.0370,132,0,0,0.002240,0.002181,-0.036557,0.000758,0.000293,-0.003980,-1.0957,-1.0204,-0.1211
13557,11.0,0.001844,0.001534,-0.035736,0.001651,0.000060,0.004360,-1.1721,-1.1137,0.1849,-0.00137273,-0.00129788,-0.00196292,-0.00155149,0.00075509,0.04010564,-0.1667,0.1863,-9.7567,-0.004010,-0.003367,-0.003433,28.8325,0.0350,138,0,0,0.002249,0.002188,-0.036595,0.000721,0.000334,-0.003658,-1.0956,-1.0214,-0.1196
13568,11.0,0.001854,0.001541,-0.035686,0.001727,0.000075,0.004654,-1.1713,-1.1117,0.1841,-0.00138782,-0.00132256,-0.00196290,-0.00162063,0.00078160,0.04010718,-0.1637,0.1868,-9.7400,-0.002743,-0.002543,-0.002741,28.8325,0.0350,139,0,0,0.002265,0.002202,-0.035521,0.000746,0.000354,0.007853,-1.0966,-1.0226,-0.1197
13579,11.0,0.001864,0.001548,-0.035676,0.001784,0.000010,0.004262,-1.1698,-1.1122,0.1854,-0.00139613,-0.00133390,-0.00196300,-0.00157288,0.00074546,0.04027008,-0.1650,0.1793,-9.7575,-0.000029,-0.003648,-0.000087,28.8325,0.0350,137,0,0,0.002273,0.002210,-0.035441,0.000805,0.000361,0.008254,-1.0964,-1.0226,-0.1203
