timestamp_ms,dt_ms,pos_x,pos_y,pos_z,vel_x,vel_y,vel_z,roll_deg,pitch_deg,yaw_deg,gyro_bias_x,gyro_bias_y,gyro_bias_z,accel_bias_x,accel_bias_y,accel_bias_z,raw_accel_x,raw_accel_y,raw_accel_z,raw_gyro_x,raw_gyro_y,raw_gyro_z,raw_baro_alt,raw_tof,raw_flow_squal,raw_flow_dx,raw_flow_dy,dev_pos_x,dev_pos_y,dev_pos_z,dev_vel_x,dev_vel_y,dev_vel_z,dev_roll_deg,dev_pitch_deg,dev_yaw_deg
11499,10.0,0.000017,0.000001,-0.037059,0.000785,0.000821,0.000630,-0.0024,-0.0015,-0.0010,0.00000000,0.00000000,-0.00190810,-0.00107644,0.00115986,0.00000000,-0.1818,0.1462,-9.7377,-0.003905,-0.001695,-0.003643,28.8695,0.0370,136,0,0,0.000090,0.000203,-0.036951,-0.000940,0.002369,-0.001818,-0.9760,-0.9147,-0.1100
11510,11.0,0.000018,0.000018,-0.037048,0.000363,0.001251,0.001301,-0.4722,-0.4837,0.0015,0.00000171,0.00000176,-0.00190810,-0.00108172,0.00116478,0.00000000,-0.1679,0.1636,-9.7438,-0.002645,-0.001243,-0.001172,28.8695,0.0360,132,0,0,0.000104,0.000218,-0.036375,-0.000840,0.002276,0.007282,-0.9651,-0.9287,-0.1095
11521,11.0,0.000031,0.000019,-0.038857,-0.000075,0.001973,-0.078415,-0.4795,-0.4916,0.0035,0.00000172,0.00000177,-0.00190810,-0.00109713,0.00118621,0.00005002,-0.1667,0.2075,-9.7448,-0.001551,-0.005178,0.001199,28.8695,0.0360,128,0,0,0.000111,0.000227,-0.036343,-0.000776,0.002217,0.008014,-0.9700,-0.9356,-0.1090
11532,11.0,0.000033,0.000041,-0.036048,-0.000040,0.002060,0.031710,-0.7687,-0.6429,0.0043,0.00000493,0.00000343,-0.00190810,-0.00111059,0.00120277,-0.00004201,-0.1611,0.2305,-9.7572,-0.002794,-0.002696,-0.003190,28.8695,0.0360,133,0,0,0.000119,0.000233,-0.036257,-0.000776,0.002542,0.009241,-0.9701,-0.9372,-0.1076
11543,11.0,0.000045,0.000047,-0.035807,-0.000370,0.002315,0.029355,-0.7793,-0.6507,0.0039,0.00000498,0.00000347,-0.00190810,-0.00114357,0.00124425,-0.00000277,-0.1736,0.1966,-9.7522,-0.004056,-0.002129,-0.002806,28.8695,0.0360,136,0,0,0.000135,0.000250,-0.036145,-0.000717,0.002683,0.010423,-0.9981,-0.9413,-0.1098
11554,11.0,0.000046,0.000063,-0.035481,-0.000310,0.002159,0.029898,-0.8700,-0.7601,0.0068,0.00000692,0.00000589,-0.00190810,-0.00115932,0.00127066,-0.00000223,-0.1851,0.1923,-9.7562,-0.003451,-0.001214,0.000046,28.7981,0.0360,137,0,0,0.000143,0.000259,-0.036005,-0.000660,0.002622,0.011822,-1.0058,-0.9446,-0.1105
11565,11.0,0.000057,0.000072,-0.035876,-0.000587,0.002047,0.017113,-0.8792,-0.7701,0.0083,0.00000699,0.00000597,-0.00190810,-0.00120738,0.00131359,0.00041091,-0.1859,0.1666,-9.7533,-0.002798,-0.003227,0.000442,28.7981,0.0360,138,0,0,0.000159,0.000276,-0.035776,-0.000719,0.002664,0.013754,-1.0112,-0.9536,-0.1078
11576,11.0,0.000061,0.000086,-0.035683,-0.000436,0.001922,0.018017,-0.9257,-0.8168,0.0084,0.00000867,0.00000760,-0.00190810,-0.00123660,0.00133748,0.00041159,-0.1681,0.1878,-9.7239,-0.000985,-0.002728,-0.002903,28.7981,0.0360,138,0,0,0.000168,0.000284,-0.035632,-0.000898,0.002497,0.014939,-1.0109,-0.9538,-0.1068
11587,11.0,0.000071,0.000095,-0.035537,-0.000652,0.001996,0.017816,-0.9326,-0.8255,0.0084,0.00000877,0.00000774,-0.00190809,-0.00130003,0.00138866,0.00050336,-0.1872,0.1877,-9.7468,-0.001354,-0.001858,-0.001904,28.7981,0.0360,137,0,0,0.000175,0.000293,-0.035813,-0.000849,0.002444,0.012669,-1.0145,-0.9588,-0.1077
11598,11.0,0.000075,0.000107,-0.035801,-0.000486,0.001855,0.011954,-0.9611,-0.8585,0.0114,0.00001024,0.00000933,-0.00190809,-0.00132450,0.00140512,0.00137023,-0.1691,0.1851,-9.7541,-0.001208,-0.004463,0.002132,28.7981,0.0360,135,0,0,0.000191,0.000310,-0.035568,-0.000930,0.002407,0.014538,-1.0207,-0.9588,-0.0280
11609,11.0,0.000083,0.000114,-0.035696,-0.000406,0.002097,0.012073,-0.9686,-0.8665,0.0094,0.00001042,0.00000949,-0.00190809,-0.00138422,0.00146981,0.00145917,-0.1617,0.2103,-9.7573,-0.001698,-0.003395,-0.005160,28.7981,0.0360,135,0,0,0.000199,0.000316,-0.035418,-0.000781,0.002719,0.015451,-1.0218,-0.9601,-0.0282
11620,11.0,0.000087,0.000128,-0.035559,-0.000369,0.002038,0.012879,-1.0114,-0.9095,0.0107,0.00001379,0.00001281,-0.00190809,-0.00137887,0.00147020,0.00145913,-0.1970,0.2150,-9.7308,-0.003685,-0.005512,-0.001160,28.7981,0.0360,135,0,0,0.000207,0.000325,-0.035703,-0.000723,0.002688,0.011532,-1.0326,-0.9617,-0.0296
11631,11.0,0.000095,0.000137,-0.035786,-0.000475,0.002016,0.008985,-1.0192,-0.9183,0.0117,0.00001402,0.00001304,-0.00190809,-0.00142863,0.00151596,0.00292239,-0.1880,0.1934,-9.7490,-0.002506,-0.004048,-0.000414,28.7612,0.0360,133,0,0,0.000222,0.000340,-0.035474,-0.000910,0.002866,0.013732,-1.0380,-0.9779,-0.0286
11641,10.0,0.000101,0.000146,-0.035694,-0.000358,0.001840,0.009465,-1.0275,-0.9413,0.0116,0.00001458,0.00001536,-0.00190810,-0.00144161,0.00156527,0.00292325,-0.1854,0.1797,-9.7556,-0.001954,-0.003095,-0.003533,28.7612,0.0360,132,0,0,0.000231,0.000347,-0.035352,-0.001022,0.002875,0.014602,-1.0390,-0.9783,-0.0283
11652,11.0,0.000108,0.000157,-0.035603,-0.000114,0.001715,0.009949,-1.0337,-0.9456,0.0105,0.00001479,0.00001558,-0.00190809,-0.00149315,0.00161302,0.00302678,-0.1547,0.1792,-9.7412,-0.004036,-0.000637,-0.003554,28.7612,0.0360,141,0,0,0.000246,0.000364,-0.035571,-0.000968,0.002739,0.011334,-1.0411,-0.9827,-0.0287
11663,11.0,0.000116,0.000166,-0.035778,0.000063,0.001537,0.007230,-1.0330,-0.9464,0.0089,0.00001429,0.00001505,-0.00190809,-0.00152748,0.00164342,0.00484261,-0.1542,0.1693,-9.7449,-0.000064,-0.002560,-0.004387,28.7612,0.0360,138,0,0,0.000255,0.000373,-0.035468,-0.000875,0.002681,0.012225,-1.0422,-0.9772,-0.0291
11675,12.0,0.000124,0.000179,-0.035699,0.000196,0.000992,0.008012,-1.0360,-0.9512,0.0091,0.00001437,0.00001524,-0.00190809,-0.00156331,0.00165659,0.00493954,-0.1606,0.1354,-9.7250,-0.002890,-0.003509,-0.001445,28.7612,0.0360,138,0,0,0.000262,0.000382,-0.035341,-0.000697,0.002521,0.013315,-1.0414,-0.9774,-0.0301
11686,11.0,0.000132,0.000185,-0.035608,0.000256,0.000822,0.008477,-1.0265,-0.9604,0.0110,0.00001191,0.00001617,-0.00190810,-0.00157715,0.00173263,0.00494108,-0.1711,0.1522,-9.7602,-0.001385,-0.006316,-0.000162,28.7612,0.0360,133,0,0,0.000280,0.000396,-0.035594,-0.000710,0.002317,0.010015,-1.0354,-0.9745,0.0933
11697,11.0,0.000140,0.000193,-0.035784,0.000365,0.000887,0.005727,-1.0288,-0.9642,0.0104,0.00001194,0.00001634,-0.00190809,-0.00156944,0.00170168,0.00721595,-0.1633,0.1851,-9.7620,-0.002527,-0.002975,-0.002561,28.7294,0.0360,137,0,0,0.000287,0.000403,-0.035489,-0.000673,0.002231,0.011022,-1.0316,-0.9775,0.0942
11708,11.0,0.000148,0.000202,-0.035718,0.000380,0.000948,0.006292,-1.0373,-0.9720,0.0088,0.00001407,0.00001762,-0.00190808,-0.00156430,0.00166062,0.00721497,-0.1757,0.1949,-9.7480,-0.001368,-0.004251,-0.004167,28.7294,0.0350,134,0,0,0.000295,0.000411,-0.035379,-0.000622,0.002242,0.011869,-1.0317,-0.9778,0.0935
11719,11.0,0.000157,0.000210,-0.035650,0.000247,0.001189,0.006766,-1.0407,-0.9747,0.0081,0.00001426,0.00001788,-0.00190808,-0.00159696,0.00168396,0.00725057,-0.1880,0.2066,-9.7519,-0.003362,-0.001370,-0.002981,28.7294,0.0350,133,0,0,0.000311,0.000426,-0.034947,-0.000763,0.002359,0.015450,-1.0359,-0.9823,0.0914
11730,11.0,0.000165,0.000219,-0.035248,0.000349,0.001257,0.011112,-1.0521,-0.9777,0.0066,0.00001775,0.00001762,-0.00190806,-0.00168752,0.00168454,0.00411990,-0.1634,0.2050,-9.7548,-0.001979,-0.005094,-0.002838,28.7294,0.0350,138,0,0,0.000319,0.000435,-0.034787,-0.000742,0.002366,0.016424,-1.0417,-0.9848,0.0904
11741,11.0,0.000175,0.000227,-0.035123,0.000224,0.001381,0.012005,-1.0567,-0.9815,0.0079,0.00001808,0.00001795,-0.00190806,-0.00172294,0.00172019,0.00415051,-0.1884,0.2010,-9.7176,-0.004394,-0.003236,0.000137,28.7294,0.0360,138,0,0,0.000327,0.000441,-0.034618,-0.000722,0.002650,0.017408,-1.0427,-0.9853,0.0900
11752,11.0,0.000183,0.000236,-0.034987,0.000294,0.001284,0.012803,-1.0594,-0.9856,0.0085,0.00001813,0.00001863,-0.00190806,-0.00174394,0.00175656,0.00415143,-0.1713,0.1795,-9.7302,-0.002936,-0.002948,-0.001357,28.7294,0.0360,135,0,0,0.000343,0.000457,-0.035292,-0.000635,0.002455,0.008980,-1.0482,-0.9886,0.0886
11763,11.0,0.000192,0.000247,-0.035480,0.000352,0.001045,0.005709,-1.0619,-0.9883,0.0075,0.00001829,0.00001892,-0.00190806,-0.00166394,0.00165497,0.01063950,-0.1719,0.1646,-9.7554,-0.002677,-0.001793,-0.003283,28.7294,0.0360,134,0,0,0.000351,0.000465,-0.035201,-0.000597,0.002392,0.010011,-1.0474,-0.9893,0.0894
11774,11.0,0.000200,0.000256,-0.035414,0.000416,0.001072,0.006315,-1.0676,-0.9912,0.0076,0.00002004,0.00001940,-0.00190804,-0.00168271,0.00163062,0.01063928,-0.1709,0.1931,-9.7409,-0.003301,-0.002362,-0.001210,28.7294,0.0360,139,0,0,0.000367,0.000481,-0.035590,-0.000574,0.002150,0.005080,-1.0465,-0.9914,0.0894
11785,11.0,0.000209,0.000265,-0.035366,0.000378,0.000945,0.006616,-1.0684,-0.9946,0.0078,0.00002019,0.00001971,-0.00190804,-0.00170298,0.00163730,0.01090185,-0.1803,0.1748,-9.7411,-0.000394,-0.003782,-0.001479,28.7849,0.0360,137,0,0,0.000375,0.000489,-0.035554,-0.000563,0.002241,0.005814,-1.0473,-0.9913,0.0895
11796,11.0,0.000217,0.000274,-0.035677,0.000411,0.001041,0.002500,-1.0751,-0.9988,0.0070,0.00002344,0.00002088,-0.00190802,-0.00163754,0.00150244,0.01484603,-0.1762,0.2030,-9.7491,-0.002175,-0.002937,-0.002230,28.7849,0.0360,140,0,0,0.000383,0.000497,-0.035491,-0.000576,0.002174,0.006751,-1.0481,-0.9925,0.1350
11807,11.0,0.000227,0.000281,-0.035666,0.000321,0.001141,0.002772,-1.0786,-1.0032,0.0068,0.00002377,0.00002132,-0.00190801,-0.00166404,0.00152177,0.01504438,-0.1879,0.1997,-9.7456,-0.004053,-0.005036,-0.002149,28.7849,0.0370,137,0,0,0.000400,0.000513,-0.036348,-0.000472,0.002321,-0.002959,-1.0531,-0.9939,0.1342
11818,11.0,0.000236,0.000291,-0.035633,0.000453,0.001236,0.003145,-1.0853,-1.0047,0.0070,0.00002791,0.00002031,-0.00190798,-0.00171920,0.00145295,0.01504398,-0.1641,0.2077,-9.7575,-0.001300,-0.003918,0.000351,28.7849,0.0370,137,0,0,0.000409,0.000519,-0.036373,-0.000588,0.002543,-0.002175,-1.0544,-0.9946,0.1342
11829,11.0,0.000245,0.000301,-0.036381,0.000488,0.001007,-0.005756,-1.0881,-1.0073,0.0071,0.00002816,0.00002069,-0.00190797,-0.00160508,0.00132063,0.02285484,-0.1753,0.1690,-9.7492,-0.003482,-0.002795,-0.001710,28.7849,0.0370,139,0,0,0.000425,0.000536,-0.036428,-0.000486,0.002502,-0.000838,-1.0607,-0.9969,0.1343
11841,12.0,0.000255,0.000311,-0.036448,0.000588,0.000952,-0.005323,-1.0906,-1.0080,0.0049,0.00002781,0.00001997,-0.00190796,-0.00164324,0.00134260,0.02285591,-0.1671,0.1838,-9.7480,-0.004119,-0.001844,-0.004810,28.8087,0.0360,139,0,0,0.000433,0.000544,-0.036186,-0.000460,0.002472,0.002702,-1.0623,-0.9978,0.1340
11852,11.0,0.000263,0.000319,-0.036538,0.000845,0.000843,-0.005327,-1.0926,-1.0112,0.0048,0.00002796,0.00001998,-0.00190797,-0.00163789,0.00134389,0.02319561,-0.1503,0.1794,-9.7468,-0.002717,-0.005003,-0.002266,28.8087,0.0360,137,0,0,0.000441,0.000552,-0.036155,-0.000386,0.002433,0.003527,-1.0634,-0.9976,0.1328
11863,11.0,0.000272,0.000328,-0.036255,0.000914,0.000871,-0.000897,-1.0942,-1.0093,0.0041,0.00002881,0.00001836,-0.00190795,-0.00172683,0.00138593,0.01996457,-0.1648,0.1917,-9.7462,-0.001150,0.000532,-0.002096,28.8087,0.0360,137,0,0,0.000457,0.000569,-0.036111,-0.000167,0.002131,0.004674,-1.0636,-0.9953,0.1321
11874,11.0,0.000282,0.000336,-0.036288,0.000938,0.000983,-0.000655,-1.0977,-1.0118,0.0041,0.00002909,0.00001832,-0.00190796,-0.00172047,0.00139380,0.02021447,-0.1709,0.2013,-9.7359,-0.004840,-0.004113,-0.002355,28.8087,0.0370,137,0,0,0.000466,0.000578,-0.036060,-0.000110,0.002109,0.005487,-1.0641,-0.9932,0.1324
11885,11.0,0.000291,0.000345,-0.036292,0.000785,0.000856,-0.000143,-1.0967,-1.0175,0.0066,0.00002664,0.00002242,-0.00190802,-0.00163323,0.00145656,0.02021410,-0.1939,0.1752,-9.7398,-0.001680,-0.003330,-0.000444,28.8087,0.0370,134,0,0,0.000474,0.000585,-0.036668,-0.000080,0.002217,-0.000790,-1.0647,-0.9937,0.1320
11896,11.0,0.000301,0.000353,-0.036697,0.000696,0.000857,-0.004531,-1.0989,-1.0199,0.0070,0.00002679,0.00002264,-0.00190801,-0.00157754,0.00139130,0.02392549,-0.1857,0.1899,-9.7494,-0.003208,-0.003375,-0.001329,28.8087,0.0370,141,0,0,0.000491,0.000601,-0.036665,-0.000208,0.002096,0.001109,-1.0608,-0.9976,0.0807
11907,11.0,0.000310,0.000361,-0.036745,0.000661,0.000916,-0.004255,-1.1035,-1.0236,0.0055,0.00002919,0.00002462,-0.00190801,-0.00154882,0.00135164,0.02392420,-0.1833,0.1991,-9.7573,-0.004104,-0.003209,-0.004186,28.8087,0.0360,138,0,0,0.000499,0.000609,-0.036299,-0.000207,0.002081,0.005780,-1.0617,-0.9993,0.0805
11918,11.0,0.000320,0.000370,-0.036797,0.000706,0.000790,-0.004211,-1.1069,-1.0258,0.0048,0.00002926,0.00002484,-0.00190800,-0.00155576,0.00135327,0.02398031,-0.1747,0.1793,-9.7722,-0.005339,-0.003049,-0.003001,28.7374,0.0360,138,0,0,0.000516,0.000624,-0.036173,-0.000325,0.002237,0.007255,-1.0646,-1.0005,0.0786
11929,11.0,0.000329,0.000378,-0.036922,0.000777,0.000811,-0.004847,-1.1098,-1.0279,0.0047,0.00003033,0.00002374,-0.00190799,-0.00157473,0.00132372,0.02468964,-0.1704,0.1942,-9.7541,-0.003358,-0.004439,-0.001439,28.7374,0.0370,138,0,0,0.000524,0.000631,-0.036097,-0.000292,0.002318,0.007996,-1.0650,-1.0005,0.0777
11940,11.0,0.000339,0.000386,-0.036977,0.000797,0.000763,-0.004370,-1.1116,-1.0321,0.0057,0.00003046,0.00002385,-0.00190799,-0.00157771,0.00132722,0.02473112,-0.1759,0.1872,-9.7335,-0.002559,-0.006509,-0.000402,28.7374,0.0370,138,0,0,0.000533,0.000639,-0.036586,-0.000256,0.002295,0.002244,-1.0666,-1.0007,0.0776
11951,11.0,0.000348,0.000394,-0.037023,0.000860,0.000862,-0.003921,-1.1157,-1.0342,0.0048,0.00003377,0.00002243,-0.00190795,-0.00160854,0.00126981,0.02473057,-0.1709,0.2042,-9.7408,-0.003113,-0.004725,-0.001999,28.7374,0.0370,136,0,0,0.000550,0.000654,-0.036527,-0.000224,0.002163,0.004214,-1.0663,-1.0031,0.0795
11962,11.0,0.000357,0.000401,-0.035923,0.000973,0.000973,0.009988,-1.1175,-1.0374,0.0028,0.00003418,0.00002218,-0.00190797,-0.00177506,0.00147065,0.01499015,-0.1660,0.2055,-9.7443,-0.002330,-0.005315,-0.005509,28.7374,0.0350,138,0,0,0.000558,0.000661,-0.036489,-0.000151,0.002235,0.004932,-1.0669,-1.0041,0.0794
11973,11.0,0.000366,0.000409,-0.035810,0.001073,0.000923,0.010602,-1.1192,-1.0367,0.0025,0.00003379,0.00001845,-0.00190797,-0.00183163,0.00149202,0.01499156,-0.1638,0.1888,-9.7361,-0.002931,-0.002210,-0.001754,28.7612,0.0350,137,0,0,0.000574,0.000676,-0.035409,0.000077,0.002336,0.016422,-1.0698,-1.0037,0.0792
11984,11.0,0.000376,0.000418,-0.035706,0.001003,0.000966,0.010893,-1.1205,-1.0373,0.0030,0.00003409,0.00001817,-0.00190799,-0.00182153,0.00149784,0.01512437,-0.1827,0.1985,-9.7478,-0.001662,-0.001266,-0.001477,28.7612,0.0350,135,0,0,0.000582,0.000684,-0.035256,0.000081,0.002345,0.017114,-1.0714,-1.0041,0.0790
11995,11.0,0.000385,0.000426,-0.035255,0.001092,0.000936,0.015234,-1.1224,-1.0373,0.0034,0.00003452,0.00001458,-0.00190798,-0.00191950,0.00155840,0.01240522,-0.1653,0.1925,-9.7499,-0.002536,-0.003148,-0.000462,28.7612,0.0350,144,0,0,0.000590,0.000691,-0.035081,0.000041,0.002459,0.017923,-1.0701,-1.0045,0.0060
12006,11.0,0.000395,0.000434,-0.035098,0.001023,0.000839,0.015434,-1.1255,-1.0401,0.0023,0.00003474,0.00001437,-0.00190800,-0.00191227,0.00156185,0.01250673,-0.1836,0.1858,-9.7627,-0.004742,-0.004645,-0.003969,28.7612,0.0370,140,0,0,0.000607,0.000707,-0.036204,0.000079,0.002455,0.003535,-1.0726,-1.0031,0.0068
12017,11.0,0.000405,0.000443,-0.034924,0.001015,0.000812,0.016178,-1.1270,-1.0422,0.0015,0.00003431,0.00001395,-0.00190801,-0.00190992,0.00157458,0.01250693,-0.1778,0.1909,-9.7265,-0.002587,-0.003655,-0.003376,28.7612,0.0370,134,0,0,0.000615,0.000715,-0.036166,0.000070,0.002434,0.004198,-1.0745,-1.0045,0.0061
12028,11.0,0.000415,0.000451,-0.035987,0.001045,0.000878,0.002086,-1.1294,-1.0444,0.0016,0.00003463,0.00001361,-0.00190803,-0.00172455,0.00138369,0.02253972,-0.1745,0.2011,-9.7386,-0.003577,-0.003753,-0.002110,28.7612,0.0370,140,0,0,0.000624,0.000722,-0.036136,0.000030,0.002492,0.004916,-1.0746,-1.0053,0.0057
12039,11.0,0.000424,0.000459,-0.035962,0.001191,0.000831,0.002396,-1.1307,-1.0428,0.0009,0.00003372,0.00000782,-0.00190801,-0.00180395,0.00140408,0.02254151,-0.1598,0.1899,-9.7562,-0.002665,-0.001560,-0.002052,28.7612,0.0360,142,0,0,0.000641,0.000738,-0.036011,0.000099,0.002489,0.006588,-1.0763,-1.0072,0.0058
12050,11.0,0.000433,0.000468,-0.035948,0.001289,0.000697,0.002742,-1.1332,-1.0440,-0.0012,0.00003361,0.00000701,-0.00190803,-0.00178431,0.00139930,0.02266604,-0.1654,0.1811,-9.7360,-0.004002,-0.002546,-0.005506,28.7612,0.0360,139,0,0,0.000649,0.000746,-0.035941,0.000202,0.002470,0.007317,-1.0773,-1.0048,0.0056
12061,11.0,0.000444,0.000476,-0.035955,0.001129,0.000672,0.002504,-1.1355,-1.0481,-0.0000,0.00003286,0.00001054,-0.00190809,-0.00169757,0.00140342,0.02296954,-0.1936,0.1920,-9.7637,-0.004175,-0.004172,-0.001725,28.7612,0.0360,139,0,0,0.000657,0.000753,-0.035864,0.000254,0.002570,0.008111,-1.0773,-1.0049,0.0047
12072,11.0,0.000454,0.000485,-0.035938,0.001180,0.000590,0.002650,-1.1382,-1.0499,0.0001,0.00003254,0.00000996,-0.00190810,-0.00168430,0.00139506,0.02306367,-0.1726,0.1858,-9.7576,-0.004426,-0.003310,-0.001830,28.7612,0.0370,136,0,0,0.000674,0.000769,-0.035711,0.000213,0.002411,0.009261,-1.0800,-1.0071,0.0054
12083,11.0,0.000463,0.000494,-0.035908,0.001241,0.000488,0.002702,-1.1379,-1.0494,0.0004,0.00002782,0.00000637,-0.00190811,-0.00171790,0.00145082,0.02306532,-0.1701,0.1811,-9.7792,-0.002424,-0.001404,-0.001751,28.7612,0.0370,139,0,0,0.000683,0.000777,-0.036520,0.000229,0.002335,0.000321,-1.0805,-1.0069,0.0056
12094,11.0,0.000474,0.000502,-0.036495,0.001109,0.000380,-0.004148,-1.1396,-1.0514,0.0017,0.00002701,0.00000583,-0.00190811,-0.00162368,0.00134247,0.02782889,-0.1899,0.1812,-9.7418,-0.003211,-0.003539,0.000131,28.7612,0.0370,142,0,0,0.000700,0.000794,-0.036503,0.000270,0.002198,0.001410,-1.0798,-1.0063,-0.0324
12105,11.0,0.000484,0.000510,-0.036538,0.001192,0.000375,-0.003644,-1.1430,-1.0516,0.0018,0.00002451,0.00000147,-0.00190809,-0.00167208,0.00135686,0.02782999,-0.1680,0.1901,-9.7332,-0.006756,-0.002844,-0.001122,28.7612,0.0360,136,0,0,0.000709,0.000802,-0.036506,0.000129,0.002122,0.001927,-1.0800,-1.0064,-0.0318
12116,11.0,0.000493,0.000518,-0.036598,0.001293,0.000330,-0.003378,-1.1444,-1.0533,0.0046,0.00002360,0.00000049,-0.00190809,-0.00165170,0.00133754,0.02800857,-0.1664,0.1872,-9.7295,-0.002559,-0.003443,0.002439,28.7823,0.0360,143,0,0,0.000718,0.000810,-0.036180,0.000135,0.002101,0.005969,-1.0820,-1.0068,-0.0314
12127,11.0,0.000504,0.000525,-0.036278,0.001184,0.000390,0.001223,-1.1475,-1.0559,0.0048,0.00002340,0.00000226,-0.00190811,-0.00164892,0.00136797,0.02533312,-0.1885,0.1981,-9.7407,-0.005054,-0.003176,-0.002168,28.7823,0.0360,138,0,0,0.000735,0.000825,-0.036064,0.000190,0.002092,0.007321,-1.0837,-1.0078,-0.0284
12138,11.0,0.000513,0.000532,-0.036280,0.001149,0.000511,0.001298,-1.1494,-1.0581,0.0059,0.00002290,0.00000157,-0.00190811,-0.00163532,0.00135720,0.02546925,-0.1817,0.2058,-9.7546,-0.003231,-0.003814,-0.000350,28.7823,0.0360,133,0,0,0.000744,0.000832,-0.035988,0.000081,0.002157,0.007998,-1.0851,-1.0074,-0.0282
12150,12.0,0.000525,0.000541,-0.036261,0.001098,0.000302,0.002028,-1.1495,-1.0614,0.0082,0.00001401,0.00000162,-0.00190818,-0.00161761,0.00146425,0.02547096,-0.1836,0.1725,-9.7205,-0.004253,-0.004867,-0.000477,28.7823,0.0360,138,0,0,0.000760,0.000848,-0.035888,0.000193,0.002208,0.008463,-1.0888,-1.0070,-0.0275
12161,11.0,0.000563,0.000549,-0.036112,0.001265,0.000313,0.003756,-1.1508,-1.0634,0.0068,0.00001276,0.00000777,-0.00190797,-0.00172816,0.00146332,0.02455379,-0.1969,0.1927,-9.7573,-0.002650,-0.000141,-0.002250,28.7823,0.0360,136,0,-1,0.000769,0.000856,-0.035823,0.000156,0.002143,0.009122,-1.0892,-1.0085,-0.0273
12172,11.0,0.000572,0.000557,-0.036068,0.001375,0.000427,0.004195,-1.1533,-1.0616,0.0058,0.00001413,0.00000082,-0.00190790,-0.00179263,0.00141430,0.02455395,-0.1650,0.2044,-9.7420,-0.003228,-0.000421,-0.001601,28.7823,0.0360,138,0,0,0.000806,0.000864,-0.035728,0.000052,0.002168,0.009770,-1.0894,-1.0075,-0.0277
12183,11.0,0.000582,0.000566,-0.036043,0.001353,0.000268,0.004260,-1.1538,-1.0634,0.0046,0.00001291,-0.00000049,-0.00190791,-0.00177044,0.00139322,0.02472711,-0.1791,0.1782,-9.7508,-0.001485,-0.003433,-0.003933,28.7823,0.0360,136,0,0,0.000822,0.000880,-0.035777,0.000209,0.002175,0.008762,-1.0911,-1.0067,-0.0282
12194,11.0,0.000591,0.000573,-0.035990,0.001654,0.000344,0.004750,-1.1559,-1.0610,0.0032,0.00001286,-0.00001638,-0.00190780,-0.00194114,0.00136598,0.02470042,-0.1419,0.2007,-9.7420,-0.003321,-0.003296,-0.000674,28.8404,0.0360,135,0,0,0.000830,0.000888,-0.035686,0.000213,0.002100,0.009455,-1.0905,-1.0071,-0.0366
12205,11.0,0.000573,0.000582,-0.035970,0.001460,0.000285,0.004595,-1.1576,-1.0601,0.0057,0.00001158,-0.00002574,-0.00190804,-0.00180836,0.00134289,0.02495275,-0.1602,0.1879,-9.7583,-0.003183,-0.002429,0.000109,28.8404,0.0360,144,0,1,0.000838,0.000895,-0.035645,0.000432,0.002169,0.009563,-1.0918,-1.0078,-0.0361
12216,11.0,0.000583,0.000590,-0.035918,0.001397,0.000062,0.005012,-1.1563,-1.0618,0.0064,-0.00000116,-0.00002708,-0.00190813,-0.00178762,0.00147193,0.02495480,-0.1822,0.1674,-9.7441,-0.003271,-0.003354,-0.003196,28.8404,0.0360,136,0,0,0.000827,0.000912,-0.035735,0.000411,0.001736,0.008022,-1.0915,-1.0065,-0.0362
12227,11.0,0.000593,0.000598,-0.035956,0.001332,-0.000043,0.004408,-1.1571,-1.0637,0.0064,-0.00000334,-0.00002845,-0.00190811,-0.00175771,0.00143038,0.02563223,-0.1830,0.1799,-9.7341,-0.002030,-0.003571,-0.001898,28.8404,0.0360,135,0,0,0.000835,0.000920,-0.035697,0.000386,0.001652,0.008218,-1.0909,-1.0068,-0.0370
12238,11.0,0.000603,0.000605,-0.035905,0.001396,-0.000051,0.004802,-1.1577,-1.0652,0.0070,-0.00000905,-0.00003457,-0.00190809,-0.00180157,0.00145317,0.02563338,-0.1698,0.1884,-9.7453,-0.003328,-0.004871,-0.000570,28.8404,0.0360,135,0,0,0.000845,0.000928,-0.035611,0.000209,0.001621,0.008919,-1.0914,-1.0065,-0.0379
12249,11.0,0.000612,0.000613,-0.035895,0.001450,-0.000219,0.004570,-1.1594,-1.0679,0.0077,-0.00001169,-0.00003628,-0.00190807,-0.00177453,0.00141427,0.02595511,-0.1719,0.1733,-9.7530,-0.003580,-0.004968,-0.000648,28.8404,0.0360,136,0,0,0.000861,0.000942,-0.035764,0.000363,0.001704,0.006730,-1.0914,-1.0077,-0.0371
12260,11.0,0.000622,0.000620,-0.035922,0.001523,-0.000283,0.004070,-1.1586,-1.0677,0.0079,-0.00002193,-0.00004383,-0.00190805,-0.00181530,0.00146215,0.02650359,-0.1680,0.1794,-9.7422,-0.002546,-0.002497,-0.001741,28.8061,0.0360,136,0,0,0.000869,0.000949,-0.035694,0.000380,0.001625,0.007312,-1.0915,-1.0083,-0.0367
12271,11.0,0.000632,0.000627,-0.035900,0.001550,-0.000261,0.004050,-1.1589,-1.0698,0.0077,-0.00002487,-0.00004595,-0.00190803,-0.00178715,0.00142410,0.02667728,-0.1736,0.1900,-9.7548,-0.001540,-0.004209,-0.002149,28.8061,0.0360,137,0,0,0.000886,0.000965,-0.035825,0.000480,0.001336,0.005405,-1.0901,-1.0084,-0.0358
12282,11.0,0.000642,0.000635,-0.035853,0.001476,-0.000222,0.004524,-1.1583,-1.0707,0.0080,-0.00003101,-0.00004774,-0.00190804,-0.00176325,0.00142908,0.02667686,-0.1837,0.1903,-9.7368,-0.001240,-0.001990,-0.001866,28.8061,0.0360,137,0,0,0.000895,0.000973,-0.035794,0.000467,0.001304,0.005659,-1.0899,-1.0088,-0.0358
12293,11.0,0.000652,0.000642,-0.035921,0.001459,-0.000306,0.003672,-1.1586,-1.0736,0.0063,-0.00003415,-0.00004968,-0.00190801,-0.00172685,0.00137823,0.02749976,-0.1787,0.1795,-9.7280,-0.001532,-0.005211,-0.004527,28.8061,0.0360,140,0,0,0.000912,0.000987,-0.035667,0.000298,0.001431,0.007124,-1.0888,-1.0097,-0.1015
12304,11.0,0.000662,0.000649,-0.035878,0.001555,-0.000242,0.004106,-1.1588,-1.0729,0.0054,-0.00003962,-0.00005876,-0.00190794,-0.00178939,0.00137242,0.02750065,-0.1663,0.1926,-9.7397,-0.002154,-0.002141,-0.002165,28.8061,0.0360,138,0,0,0.000920,0.000995,-0.035850,0.000268,0.001398,0.005051,-1.0887,-1.0108,-0.1023
12315,11.0,0.000671,0.000657,-0.035862,0.001737,-0.000148,0.004263,-1.1610,-1.0732,0.0048,-0.00004262,-0.00006155,-0.00190794,-0.00175535,0.00133590,0.02772082,-0.1581,0.1967,-9.7298,-0.004523,-0.001312,-0.002785,28.8061,0.0360,141,0,0,0.000929,0.001002,-0.035796,0.000316,0.001447,0.005761,-1.0890,-1.0102,-0.1024
12326,11.0,0.000681,0.000663,-0.035908,0.001800,-0.000084,0.003598,-1.1627,-1.0742,0.0036,-0.00004648,-0.00007156,-0.00190791,-0.00179750,0.00131331,0.02835690,-0.1667,0.1959,-9.7377,-0.003925,-0.004819,-0.002800,28.8061,0.0360,134,0,0,0.000945,0.001017,-0.035704,0.000506,0.001594,0.006528,-1.0903,-1.0089,-0.1029
12337,11.0,0.000691,0.000670,-0.035880,0.001770,0.000038,0.003971,-1.1628,-1.0756,0.0044,-0.00004883,-0.00007463,-0.00190793,-0.00176397,0.00128704,0.02845648,-0.1769,0.2024,-9.7278,-0.000806,-0.003207,-0.000897,28.7717,0.0360,137,0,0,0.000954,0.001024,-0.035847,0.000511,0.001617,0.004917,-1.0915,-1.0095,-0.1024
12348,11.0,0.000701,0.000678,-0.035834,0.001761,0.000042,0.004380,-1.1624,-1.0766,0.0051,-0.00005422,-0.00008167,-0.00190795,-0.00178086,0.00130138,0.02845695,-0.1747,0.1915,-9.7410,-0.001110,-0.003922,-0.000840,28.7717,0.0360,139,0,0,0.000962,0.001031,-0.035809,0.000474,0.001694,0.005510,-1.0907,-1.0094,-0.1019
12359,11.0,0.000712,0.000686,-0.035906,0.001621,-0.000092,0.003176,-1.1632,-1.0769,0.0051,-0.00005728,-0.00008434,-0.00190795,-0.00174049,0.00125579,0.02925305,-0.1897,0.1776,-9.7576,-0.002185,-0.001245,-0.001832,28.7717,0.0360,138,0,0,0.000980,0.001047,-0.035708,0.000361,0.001493,0.006669,-1.0913,-1.0102,-0.1016
12370,11.0,0.000722,0.000694,-0.035869,0.001643,-0.000122,0.003537,-1.1644,-1.0763,0.0054,-0.00006624,-0.00009144,-0.00190795,-0.00176710,0.00129446,0.02925415,-0.1738,0.1855,-9.7446,-0.004591,-0.001269,-0.001622,28.7717,0.0360,134,0,0,0.000988,0.001055,-0.035639,0.000276,0.001419,0.007156,-1.0906,-1.0112,-0.1014
12381,11.0,0.000733,0.000702,-0.035849,0.001562,-0.000044,0.003451,-1.1647,-1.0774,0.0040,-0.00006910,-0.00009397,-0.00190795,-0.00174080,0.00126482,0.02938067,-0.1851,0.1982,-9.7639,-0.001282,-0.002354,-0.004060,28.7717,0.0360,134,0,0,0.000997,0.001062,-0.035839,0.000254,0.001484,0.004886,-1.0910,-1.0110,-0.1009
12392,11.0,0.000743,0.000710,-0.035906,0.001574,-0.000100,0.002726,-1.1649,-1.0769,0.0033,-0.00007926,-0.00010038,-0.00190796,-0.00175043,0.00130335,0.03000689,-0.1755,0.1832,-9.7394,-0.003351,-0.001149,-0.003474,28.8510,0.0360,138,0,0,0.001014,0.001078,-0.035749,0.000205,0.001431,0.005693,-1.0905,-1.0116,-0.0976
12403,11.0,0.000753,0.000718,-0.035912,0.001494,-0.000238,0.002479,-1.1668,-1.0785,0.0019,-0.00008279,-0.00010266,-0.00190793,-0.00172505,0.00126632,0.03025228,-0.1859,0.1768,-9.7580,-0.003981,-0.003145,-0.003984,28.8510,0.0360,145,0,0,0.001022,0.001086,-0.035755,0.000190,0.001388,0.005560,-1.0902,-1.0114,-0.0985
12414,11.0,0.000764,0.000725,-0.035882,0.001391,-0.000188,0.002931,-1.1683,-1.0801,0.0020,-0.00008903,-0.00010263,-0.00190794,-0.00168597,0.00126721,0.03025151,-0.1894,0.1936,-9.7350,-0.004209,-0.002606,-0.002462,28.8510,0.0360,144,0,0,0.001040,0.001102,-0.035830,-0.000013,0.001146,0.004837,-1.0890,-1.0118,-0.0980
12425,11.0,0.000774,0.000733,-0.035952,0.001257,-0.000220,0.002045,-1.1701,-1.0815,-0.0001,-0.00009267,-0.00010412,-0.00190788,-0.00166094,0.00122251,0.03090706,-0.1938,0.1867,-9.7456,-0.003875,-0.002538,-0.005029,28.8510,0.0360,138,0,0,0.001049,0.001109,-0.035827,-0.000086,0.001099,0.005003,-1.0897,-1.0118,-0.0977
12436,11.0,0.000783,0.000740,-0.035929,0.001380,-0.000222,0.002180,-1.1701,-1.0818,-0.0016,-0.00010118,-0.00011377,-0.00190781,-0.00172870,0.00124596,0.03090860,-0.1680,0.1893,-9.7636,-0.002417,-0.003202,-0.003432,28.8510,0.0360,135,0,0,0.001057,0.001117,-0.035775,-0.000130,0.001052,0.005571,-1.0897,-1.0125,-0.0990
12447,11.0,0.000793,0.000747,-0.035952,0.001462,-0.000117,0.001886,-1.1726,-1.0840,-0.0020,-0.00010433,-0.00011602,-0.00190779,-0.00170371,0.00121313,0.03121985,-0.1724,0.2013,-9.7489,-0.004741,-0.004096,-0.002428,28.8510,0.0360,139,0,0,0.001074,0.001132,-0.035869,-0.000053,0.001194,0.004414,-1.0914,-1.0133,-0.1006
12458,11.0,0.000803,0.000755,-0.035961,0.001534,-0.000224,0.001583,-1.1720,-1.0839,-0.0025,-0.00011785,-0.00012489,-0.00190779,-0.00174650,0.00128309,0.03140808,-0.1718,0.1792,-9.7712,-0.002645,-0.002262,-0.003022,28.8510,0.0360,138,0,0,0.001082,0.001138,-0.035822,0.000005,0.001281,0.005041,-1.0925,-1.0140,-0.1008
12469,11.0,0.000813,0.000764,-0.035979,0.001518,-0.000400,0.001527,-1.1734,-1.0831,-0.0023,-0.00012267,-0.00012745,-0.00190774,-0.00172087,0.00123886,0.03164420,-0.1808,0.1713,-9.7395,-0.003421,0.000525,-0.001383,28.8510,0.0360,138,0,0,0.001099,0.001153,-0.035875,-0.000073,0.001346,0.004442,-1.0920,-1.0136,-0.1024
12480,11.0,0.000822,0.000770,-0.035960,0.001579,-0.000417,0.001976,-1.1725,-1.0850,-0.0024,-0.00013371,-0.00013696,-0.00190770,-0.00176812,0.00127567,0.03164561,-0.1714,0.1862,-9.7343,-0.001498,-0.005537,-0.001756,28.9646,0.0360,137,0,0,0.001108,0.001162,-0.035912,-0.000044,0.001268,0.004124,-1.0913,-1.0124,-0.1022
12491,11.0,0.000832,0.000777,-0.036017,0.001689,-0.000288,0.001291,-1.1747,-1.0862,-0.0453,-0.00013793,-0.00014024,-0.00190036,-0.00170231,0.00126099,0.03213462,-0.1684,0.2010,-9.7513,-0.005136,-0.001883,-0.003398,28.9646,0.0360,137,0,0,0.001116,0.001169,-0.035867,0.000016,0.001268,0.004854,-1.0908,-1.0140,-0.1356
12502,11.0,0.000842,0.000787,-0.036002,0.001795,-0.000469,0.001354,-1.1737,-1.0826,-0.0455,-0.00015882,-0.00015311,-0.00190037,-0.00176882,0.00137988,0.03213790,-0.1659,0.1680,-9.7694,-0.003854,0.002290,-0.002749,28.9646,0.0360,137,0,0,0.001132,0.001184,-0.035967,0.000097,0.001397,0.003490,-1.0939,-1.0130,-0.1347
12513,11.0,0.000852,0.000794,-0.036076,0.001800,-0.000535,0.000667,-1.1755,-1.0840,-0.0455,-0.00016403,-0.00015695,-0.00190034,-0.00172890,0.00132892,0.03269930,-0.1755,0.1814,-9.7374,-0.004109,-0.003191,-0.001729,28.9646,0.0360,138,0,0,0.001141,0.001192,-0.035931,0.000159,0.001294,0.003851,-1.0934,-1.0108,-0.1347
12524,11.0,0.000862,0.000801,-0.036023,0.001817,-0.000513,0.001328,-1.1761,-1.0849,-0.0446,-0.00017465,-0.00016650,-0.00190032,-0.00176181,0.00135321,0.03243136,-0.1739,0.1896,-9.7618,-0.003447,-0.003858,-0.000319,28.9646,0.0360,137,0,0,0.001149,0.001200,-0.035987,0.000180,0.001254,0.003330,-1.0936,-1.0110,-0.1345
12536,12.0,0.000874,0.000807,-0.036084,0.001945,-0.000485,0.000561,-1.1763,-1.0871,-0.0460,-0.00017976,-0.00017115,-0.00190032,-0.00171833,0.00130590,0.03291081,-0.1652,0.1922,-9.7592,-0.001451,-0.004126,-0.004030,28.9884,0.0360,139,0,0,0.001165,0.001215,-0.035956,0.000351,0.001094,0.004072,-1.0942,-1.0110,-0.1341
12547,11.0,0.000884,0.000814,-0.036076,0.001900,-0.000517,0.000895,-1.1749,-1.0883,-0.0464,-0.00019346,-0.00017928,-0.00190034,-0.00172235,0.00135171,0.03291159,-0.1788,0.1837,-9.7434,-0.001212,-0.003858,-0.003155,28.9884,0.0360,143,0,0,0.001174,0.001223,-0.035995,0.000400,0.001108,0.003659,-1.0941,-1.0114,-0.1353
12558,11.0,0.000894,0.000822,-0.036080,0.001944,-0.000469,0.001005,-1.1766,-1.0893,-0.0467,-0.00019868,-0.00018389,-0.00190034,-0.00168708,0.00131202,0.03300122,-0.1714,0.1926,-9.7472,-0.003820,-0.002569,-0.002295,28.9884,0.0360,137,0,0,0.001190,0.001237,-0.036039,0.000439,0.001007,0.003181,-1.0918,-1.0130,-0.1353
12570,12.0,0.000906,0.000829,-0.036067,0.001871,-0.000527,0.001198,-1.1759,-1.0896,-0.0458,-0.00021354,-0.00019004,-0.00190037,-0.00167261,0.00136167,0.03300173,-0.1831,0.1826,-9.7576,-0.002156,-0.001783,-0.001520,28.9884,0.0360,136,0,0,0.001199,0.001244,-0.035994,0.000510,0.001063,0.003943,-1.0924,-1.0125,-0.1359
12581,11.0,0.000917,0.000837,-0.036156,0.001717,-0.000520,0.000062,-1.1757,-1.0898,-0.0461,-0.00021938,-0.00019393,-0.00190033,-0.00163428,0.00130895,0.03361123,-0.1922,0.1882,-9.7646,-0.001049,-0.001171,-0.002173,28.9884,0.0360,136,0,0,0.001216,0.001260,-0.036008,0.000462,0.001076,0.003727,-1.0925,-1.0118,-0.1356
12592,11.0,0.000927,0.000844,-0.036061,0.001680,-0.000569,0.001241,-1.1755,-1.0908,-0.0469,-0.00023483,-0.00020000,-0.00190034,-0.00164366,0.00137376,0.03307436,-0.1818,0.1817,-9.7650,-0.003242,-0.003092,-0.003849,28.9884,0.0360,138,0,0,0.001224,0.001268,-0.035969,0.000427,0.001128,0.004101,-1.0921,-1.0125,-0.1954
12603,11.0,0.000936,0.000851,-0.036123,0.001818,-0.000522,0.000663,-1.1775,-1.0921,0.0466,-0.00024036,-0.00020430,-0.00191853,-0.00167999,0.00125878,0.03352910,-0.1636,0.1932,-9.7418,-0.002869,-0.004594,-0.001309,28.9884,0.0360,141,0,0,0.001233,0.001275,-0.036085,0.000373,0.001094,0.002703,-1.0927,-1.0124,-0.1964
12614,11.0,0.000946,0.000859,-0.036115,0.001968,-0.000581,0.000687,-1.1756,-1.0903,0.0457,-0.00025710,-0.00022262,-0.00191849,-0.00177253,0.00131849,0.03353168,-0.1604,0.1803,-9.7714,-0.000916,-0.001386,-0.002755,28.9303,0.0360,138,0,0,0.001250,0.001291,-0.035973,0.000299,0.000796,0.004176,-1.0927,-1.0134,-0.1963
12625,11.0,0.000956,0.000865,-0.036086,0.002000,-0.000367,0.001351,-1.1774,-1.0926,0.0451,-0.00026186,-0.00022772,-0.00191851,-0.00174028,0.00128864,0.03341928,-0.1720,0.2094,-9.7332,-0.003928,-0.004779,-0.003028,28.9303,0.0360,136,0,0,0.001258,0.001299,-0.036014,0.000381,0.000750,0.003623,-1.0914,-1.0125,-0.1966
12636,11.0,0.000967,0.000873,-0.036069,0.001886,-0.000377,0.001758,-1.1779,-1.0936,0.0454,-0.00027425,-0.00023250,-0.00191856,-0.00171114,0.00132294,0.03341925,-0.1870,0.1874,-9.7360,-0.003645,-0.002681,-0.002305,28.9303,0.0360,137,0,0,0.001267,0.001305,-0.035975,0.000329,0.000902,0.004152,-1.0925,-1.0131,-0.1969
12647,11.0,0.000976,0.000880,-0.036126,0.001941,-0.000442,0.001161,-1.1775,-1.0966,0.0443,-0.00027943,-0.00023759,-0.00191856,-0.00166984,0.00128043,0.03386885,-0.1710,0.1839,-9.7423,-0.000475,-0.005746,-0.003794,28.9303,0.0360,142,0,0,0.001284,0.001321,-0.035976,0.000325,0.000780,0.004345,-1.0929,-1.0134,-0.1973
12659,12.0,0.000988,0.000888,-0.036041,0.001932,-0.000615,0.002260,-1.1769,-1.0961,0.0428,-0.00030149,-0.00024753,-0.00191861,-0.00169175,0.00138979,0.03349007,-0.1780,0.1714,-9.7480,-0.003810,-0.001346,-0.004963,28.9303,0.0360,141,0,0,0.001293,0.001327,-0.035930,0.000342,0.000770,0.004894,-1.0921,-1.0148,-0.1985
12670,11.0,0.000998,0.000896,-0.036072,0.002069,-0.000719,0.001680,-1.1778,-1.0961,0.0438,-0.00030861,-0.00025324,-0.00191858,-0.00164955,0.00133826,0.03381180,-0.1631,0.1762,-9.7645,-0.002883,-0.001144,-0.000373,28.9170,0.0360,145,0,0,0.001309,0.001343,-0.035939,0.000416,0.000605,0.004707,-1.0910,-1.0135,-0.1967
12681,11.0,0.001008,0.000903,-0.036053,0.002169,-0.000742,0.001887,-1.1781,-1.0961,0.0441,-0.00032535,-0.00027211,-0.00191855,-0.00172698,0.00138604,0.03381387,-0.1633,0.1828,-9.7545,-0.004122,-0.004176,-0.000975,28.9170,0.0360,140,0,0,0.001317,0.001352,-0.035958,0.000502,0.000453,0.004228,-1.0912,-1.0129,-0.1962
12692,11.0,0.001018,0.000911,-0.036049,0.002055,-0.000982,0.002058,-1.1770,-1.0989,0.0437,-0.00033326,-0.00027790,-0.00191851,-0.00168892,0.00133480,0.03391599,-0.1855,0.1618,-9.7375,0.000146,-0.005602,-0.002418,28.9170,0.0360,134,0,0,0.001335,0.001367,-0.035864,0.000521,0.000261,0.005352,-1.0914,-1.0130,-0.1594
12703,11.0,0.001029,0.000917,-0.036024,0.001984,-0.000854,0.002370,-1.1766,-1.1006,0.0452,-0.00034352,-0.00028642,-0.00191846,-0.00168337,0.00131470,0.03391529,-0.1826,0.1961,-9.7441,-0.001499,-0.004635,0.000663,28.9170,0.0360,134,0,0,0.001343,0.001374,-0.035972,0.000454,0.000203,0.004134,-1.0897,-1.0147,-0.1585
12713,10.0,0.001037,0.000925,-0.036071,0.001933,-0.000813,0.001683,-1.1785,-1.1010,0.1314,-0.00035093,-0.00029154,-0.00193755,-0.00171990,0.00119277,0.03431445,-0.1810,0.1885,-9.7552,-0.003335,-0.003626,-0.004180,28.9170,0.0360,140,0,0,0.001351,0.001382,-0.035928,0.000541,0.000170,0.004618,-1.0897,-1.0140,-0.1575
12724,11.0,0.001047,0.000932,-0.036016,0.001968,-0.000735,0.002225,-1.1795,-1.0996,0.1301,-0.00036355,-0.00030460,-0.00193748,-0.00176098,0.00119945,0.03412010,-0.1736,0.1920,-9.7613,-0.004181,-0.000593,-0.003442,28.9170,0.0360,133,0,0,0.001368,0.001396,-0.035915,0.000519,0.000167,0.004557,-1.0899,-1.0142,-0.1585
12735,11.0,0.001058,0.000938,-0.036046,0.002046,-0.000544,0.001721,-1.1811,-1.1002,0.1282,-0.00037001,-0.00031020,-0.00193748,-0.00172192,0.00115510,0.03442882,-0.1698,0.2054,-9.7569,-0.004073,-0.002100,-0.004948,28.9170,0.0370,132,0,0,0.001377,0.001404,-0.036549,0.000553,0.000204,-0.002479,-1.0902,-1.0123,-0.1592
12746,11.0,0.001069,0.000946,-0.036025,0.001888,-0.000507,0.002148,-1.1830,-1.0999,0.1280,-0.00038322,-0.00031235,-0.00193751,-0.00167110,0.00117473,0.03442812,-0.1932,0.1901,-9.7331,-0.005885,0.000078,-0.003041,28.9170,0.0370,140,0,0,0.001386,0.001412,-0.036632,0.000548,0.000328,-0.002779,-1.0906,-1.0117,-0.1603
12757,11.0,0.001051,0.000954,-0.036579,0.001558,-0.000522,-0.004365,-1.1847,-1.0993,0.1285,-0.00039009,-0.00033045,-0.00193779,-0.00151034,0.00107626,0.03752442,-0.1793,0.1873,-9.7464,-0.004108,-0.002140,-0.001914,28.9170,0.0370,142,0,1,0.001375,0.001427,-0.036770,0.000375,0.000291,-0.002807,-1.0925,-1.0126,-0.1603
12768,11.0,0.001060,0.000961,-0.036626,0.001658,-0.000442,-0.004091,-1.1856,-1.0986,0.1295,-0.00039940,-0.00034423,-0.00193770,-0.00157265,0.00107138,0.03752527,-0.1699,0.1968,-9.7441,-0.003432,-0.002075,0.000479,28.9170,0.0360,136,0,0,0.001384,0.001434,-0.036312,0.000365,0.000335,0.003015,-1.0932,-1.0121,-0.1605
12779,11.0,0.001070,0.000968,-0.036743,0.001732,-0.000309,-0.004861,-1.1859,-1.0997,0.1308,-0.00040475,-0.00034866,-0.00193769,-0.00154011,0.00103318,0.03791910,-0.1730,0.2040,-9.7594,-0.001617,-0.002662,0.000067,28.9170,0.0360,143,0,0,0.001392,0.001441,-0.036279,0.000382,0.000466,0.003563,-1.0933,-1.0115,-0.1593
12790,11.0,0.001079,0.000975,-0.036353,0.001931,-0.000271,0.000562,-1.1868,-1.0996,0.1311,-0.00041330,-0.00037072,-0.00193761,-0.00169818,0.00108731,0.03559853,-0.1572,0.1958,-9.7459,-0.003287,-0.004744,-0.000022,28.9170,0.0360,135,0,0,0.001409,0.001456,-0.036281,0.000381,0.000577,0.003572,-1.0959,-1.0111,-0.1211
12801,11.0,0.001090,0.000983,-0.036402,0.001905,-0.000306,-0.000053,-1.1857,-1.1009,0.1311,-0.00041876,-0.00037602,-0.00193762,-0.00166291,0.00105069,0.03589917,-0.1807,0.1890,-9.7655,0.000568,-0.003168,-0.002110,28.9170,0.0370,137,0,0,0.001418,0.001463,-0.036734,0.000450,0.000612,-0.001335,-1.0962,-1.0109,-0.1207
12813,12.0,0.001102,0.000991,-0.036401,0.001957,-0.000663,0.000314,-1.1822,-1.1024,0.1329,-0.00045125,-0.00039020,-0.00193771,-0.00170608,0.00122603,0.03590308,-0.1731,0.1563,-9.7409,-0.001268,-0.005000,-0.000750,28.9170,0.0370,135,0,0,0.001435,0.001479,-0.036753,0.000451,0.000667,-0.000454,-1.0963,-1.0095,-0.1215
12823,10.0,0.001111,0.000999,-0.036753,0.001851,-0.000662,-0.003527,-1.1839,-1.1029,0.2165,-0.00045866,-0.00039534,-0.00195766,-0.00171976,0.00107993,0.03774897,-0.1878,0.1866,-9.7373,-0.002935,-0.003884,0.000671,28.8827,0.0370,137,0,0,0.001444,0.001487,-0.036832,0.000488,0.000505,-0.000864,-1.0956,-1.0102,-0.1208
12835,12.0,0.001123,0.001005,-0.036794,0.001855,-0.000636,-0.003291,-1.1851,-1.1046,0.2172,-0.00047212,-0.00040605,-0.00195763,-0.00173907,0.00109776,0.03774947,-0.1790,0.1910,-9.7491,-0.004335,-0.004700,-0.000923,28.8827,0.0360,137,0,0,0.001453,0.001494,-0.036330,0.000435,0.000504,0.005266,-1.0955,-1.0120,-0.1194
12846,11.0,0.001133,0.001012,-0.036890,0.001884,-0.000518,-0.003814,-1.1856,-1.1047,0.2167,-0.00047894,-0.00041141,-0.00195760,-0.00170412,0.00105452,0.03806998,-0.1764,0.1997,-9.7494,-0.002254,-0.001293,-0.002732,28.8827,0.0360,137,0,0,0.001470,0.001508,-0.036267,0.000328,0.000397,0.005781,-1.0955,-1.0132,-0.1191
12857,11.0,0.001143,0.001019,-0.036961,0.001940,-0.000516,-0.003858,-1.1844,-1.1051,0.2175,-0.00049361,-0.00042662,-0.00195758,-0.00175112,0.00108319,0.03822432,-0.1720,0.1883,-9.7408,-0.001142,-0.003864,-0.000345,28.8827,0.0370,138,0,0,0.001479,0.001516,-0.036207,0.000295,0.000451,0.006217,-1.0952,-1.0128,-0.1190
12868,11.0,0.001154,0.001027,-0.037049,0.001824,-0.000562,-0.004379,-1.1874,-1.1063,0.2178,-0.00050048,-0.00043141,-0.00195754,-0.00172112,0.00104185,0.03846460,-0.1913,0.1850,-9.7650,-0.006274,-0.003051,-0.001453,28.8827,0.0370,138,0,0,0.001496,0.001531,-0.036676,0.000242,0.000466,0.001257,-1.0943,-1.0135,-0.1180
12879,11.0,0.001193,0.001034,-0.037097,0.002216,-0.000358,-0.004285,-1.1890,-1.1081,0.2147,-0.00050215,-0.00043285,-0.00195709,-0.00184607,0.00097916,0.03846565,-0.1720,0.2108,-9.7593,-0.003098,-0.004058,-0.004703,28.8827,0.0370,134,0,-1,0.001505,0.001538,-0.036723,0.000180,0.000491,0.000760,-1.0961,-1.0146,-0.1181
12890,11.0,0.001203,0.001042,-0.037092,0.002230,-0.000385,-0.003591,-1.1907,-1.1076,0.2134,-0.00050849,-0.00043982,-0.00195712,-0.00181405,0.00095074,0.03820700,-0.1753,0.1884,-9.7595,-0.004081,-0.000514,-0.004126,28.8827,0.0370,135,0,0,0.001543,0.001544,-0.036714,0.000286,0.000699,0.001106,-1.0968,-1.0153,-0.0804
12901,11.0,0.001214,0.001050,-0.037130,0.002297,-0.000458,-0.003416,-1.1908,-1.1061,0.2135,-0.00052713,-0.00045962,-0.00195715,-0.00187482,0.00101524,0.03820909,-0.1677,0.1825,-9.7529,-0.004124,-0.001570,-0.001648,28.9408,0.0360,135,0,0,0.001552,0.001552,-0.036701,0.000325,0.000688,0.001498,-1.0972,-1.0148,-0.0810
12912,11.0,0.001224,0.001057,-0.037248,0.002350,-0.000517,-0.004057,-1.1905,-1.1081,0.2153,-0.00053365,-0.00046762,-0.00195720,-0.00182593,0.00097331,0.03862324,-0.1691,0.1852,-9.7382,-0.000846,-0.004888,0.000594,28.9408,0.0360,142,0,0,0.001568,0.001567,-0.036227,0.000329,0.000586,0.006639,-1.0981,-1.0164,-0.0807
12923,11.0,0.001234,0.001065,-0.037124,0.002415,-0.000486,-0.001847,-1.1913,-1.1067,0.2152,-0.00054711,-0.00048856,-0.00195720,-0.00190446,0.00101031,0.03779980,-0.1666,0.1920,-9.7441,-0.004080,-0.002024,-0.001585,28.9408,0.0370,138,0,0,0.001577,0.001574,-0.036246,0.000315,0.000566,0.006164,-1.0972,-1.0171,-0.0798
12934,11.0,0.001245,0.001074,-0.037205,0.002425,-0.000836,-0.002330,-1.1906,-1.1095,0.0941,-0.00055548,-0.00049686,-0.00192469,-0.00174003,0.00106900,0.03811528,-0.1740,0.1541,-9.7451,-0.002806,-0.003583,-0.003148,28.9408,0.0370,141,0,0,0.001594,0.001590,-0.036610,0.000501,0.000478,0.002367,-1.0994,-1.0159,-0.0809
12945,11.0,0.001255,0.001082,-0.037228,0.002480,-0.000848,-0.001886,-1.1899,-1.1080,0.0930,-0.00057591,-0.00051857,-0.00192468,-0.00180255,0.00111787,0.03811706,-0.1666,0.1833,-9.7285,-0.003151,-0.001935,-0.003414,28.9408,0.0370,135,0,0,0.001602,0.001598,-0.036661,0.000471,0.000321,0.001961,-1.0974,-1.0167,-0.0809
12956,11.0,0.001265,0.001088,-0.036612,0.002546,-0.000817,0.005515,-1.1896,-1.1096,0.0921,-0.00058356,-0.00052707,-0.00192471,-0.00181450,0.00113869,0.03500888,-0.1668,0.1907,-9.7715,-0.001196,-0.004323,-0.003486,28.9620,0.0360,142,0,0,0.001611,0.001606,-0.036638,0.000493,0.000272,0.002550,-1.0976,-1.0165,-0.0814
12967,11.0,0.001276,0.001094,-0.036549,0.002534,-0.000535,0.005862,-1.1898,-1.1103,0.0907,-0.00058260,-0.00054648,-0.00192466,-0.00185002,0.00104569,0.03500750,-0.1722,0.2170,-9.7395,-0.000302,-0.004905,-0.002997,28.9620,0.0360,137,0,0,0.001628,0.001621,-0.036239,0.000527,0.000288,0.006666,-1.0963,-1.0155,-0.0829
12980,13.0,0.001292,0.001100,-0.036565,0.002433,-0.000649,0.005017,-1.1917,-1.1134,0.0917,-0.00058994,-0.00055516,-0.00192471,-0.00179893,0.00100037,0.03546820,-0.1844,0.1829,-9.7507,-0.003893,-0.005655,-0.000715,28.9620,0.0360,137,0,0,0.001637,0.001627,-0.036169,0.000521,0.000421,0.007186,-1.0977,-1.0163,-0.0835
12991,11.0,0.001302,0.001106,-0.036217,0.002386,-0.000384,0.008627,-1.1924,-1.1128,0.0898,-0.00058891,-0.00057056,-0.00192467,-0.00183911,0.00094152,0.03407902,-0.1780,0.2165,-9.7485,-0.001211,-0.002203,-0.003853,28.9620,0.0360,136,0,0,0.001654,0.001641,-0.036141,0.000532,0.000471,0.006913,-1.0982,-1.0184,-0.1541
13002,11.0,0.001313,0.001114,-0.036190,0.002348,-0.000329,0.008194,-1.1945,-1.1125,0.0908,-0.00059522,-0.00057858,-0.00192473,-0.00179389,0.00090388,0.03442047,-0.1789,0.1965,-9.7357,-0.004763,-0.001213,-0.000588,28.9620,0.0370,138,0,0,0.001663,0.001648,-0.036725,0.000458,0.000729,0.000396,-1.0979,-1.0180,-0.1549
13013,11.0,0.001324,0.001122,-0.036099,0.002172,-0.000398,0.008300,-1.1938,-1.1139,0.0905,-0.00061301,-0.00058391,-0.00192486,-0.00174643,0.00096159,0.03442053,-0.1938,0.1846,-9.7624,-0.002658,-0.003380,-0.003567,28.9620,0.0370,134,0,0,0.001681,0.001663,-0.036708,0.000267,0.000858,0.001236,-1.0991,-1.0173,-0.1557
13024,11.0,0.001333,0.001131,-0.035498,0.002277,-0.000603,0.014654,-1.1936,-1.1149,0.0904,-0.00061992,-0.00059140,-0.00192489,-0.00175199,0.00097459,0.03203316,-0.1660,0.1710,-9.7288,-0.001146,-0.003211,-0.002119,28.9620,0.0350,137,0,0,0.001690,0.001671,-0.036815,0.000197,0.000838,0.000238,-1.0986,-1.0183,-0.1559
13035,11.0,0.001343,0.001137,-0.035334,0.002235,-0.000510,0.015141,-1.1924,-1.1154,0.0898,-0.00062974,-0.00060621,-0.00192489,-0.00176867,0.00096635,0.03203308,-0.1789,0.1988,-9.7301,-0.000328,-0.003820,-0.002627,28.9276,0.0350,137,0,0,0.001698,0.001679,-0.035700,0.000255,0.000702,0.012636,-1.0981,-1.0184,-0.1560
13046,11.0,0.001354,0.001145,-0.035243,0.002158,-0.000688,0.014672,-1.1939,-1.1162,0.1242,-0.00063753,-0.00061350,-0.00193493,-0.00176118,0.00089007,0.03240412,-0.1840,0.1727,-9.7334,-0.003377,-0.003468,-0.000595,28.9276,0.0350,142,0,0,0.001714,0.001692,-0.035506,0.000235,0.000797,0.013092,-1.0987,-1.0198,-0.1560
13057,11.0,0.001364,0.001153,-0.036121,0.002171,-0.000786,0.002782,-1.1935,-1.1165,0.1232,-0.00066269,-0.00063033,-0.00193496,-0.00170538,0.00087386,0.03726003,-0.1760,0.1770,-9.7552,-0.004441,-0.003814,-0.003928,28.9276,0.0370,137,0,0,0.001723,0.001700,-0.035373,0.000209,0.000718,0.013636,-1.0978,-1.0207,-0.1543
13068,11.0,0.001374,0.001161,-0.036149,0.002198,-0.000912,0.002092,-1.1925,-1.1169,0.1226,-0.00067217,-0.00063773,-0.00193492,-0.00166511,0.00082346,0.03754145,-0.1756,0.1746,-9.7680,-0.000402,-0.002253,-0.002774,28.9276,0.0370,140,0,0,0.001731,0.001707,-0.036332,0.000206,0.000655,0.002121,-1.0990,-1.0212,-0.1554
13080,12.0,0.001387,0.001168,-0.036122,0.002346,-0.000953,0.002439,-1.1921,-1.1154,0.1229,-0.00069491,-0.00066211,-0.00193486,-0.00175078,0.00087818,0.03754375,-0.1632,0.1817,-9.7407,-0.003545,-0.002503,-0.001099,28.9276,0.0370,139,0,0,0.001749,0.001723,-0.036363,0.000219,0.000602,0.001691,-1.0964,-1.0189,-0.1551
13091,11.0,0.001396,0.001204,-0.035529,0.002420,-0.000792,0.009091,-1.1886,-1.1167,0.1226,-0.00071838,-0.00067064,-0.00193454,-0.00175693,0.00081782,0.03494474,-0.1678,0.1712,-9.7612,0.001636,-0.003822,-0.001916,28.9276,0.0350,139,-1,0,0.001757,0.001731,-0.036344,0.000297,0.000558,0.002119,-1.0965,-1.0173,-0.1403
13102,11.0,0.001406,0.001239,-0.035427,0.002371,-0.000539,0.009487,-1.1864,-1.1170,0.1221,-0.00075461,-0.00068660,-0.00193427,-0.00177308,0.00081685,0.03494456,-0.1786,0.1798,-9.7358,-0.002829,-0.003713,-0.002377,28.8563,0.0350,139,-1,0,0.001773,0.001800,-0.035452,0.000397,0.000589,0.011232,-1.0923,-1.0177,-0.1397
13113,11.0,0.001416,0.001246,-0.035371,0.002385,-0.000688,0.009246,-1.1881,-1.1184,0.1208,-0.00076236,-0.00069521,-0.00193430,-0.00172880,0.00077635,0.03518176,-0.1740,0.1743,-9.7387,-0.004539,-0.004051,-0.004178,28.8563,0.0350,135,0,0,0.001782,0.001808,-0.035338,0.000321,0.000619,0.011602,-1.0929,-1.0173,-0.1418
13124,11.0,0.001426,0.001254,-0.036208,0.002499,-0.000687,-0.001511,-1.1880,-1.1157,0.1197,-0.00078225,-0.00072176,-0.00193426,-0.00173343,0.00073248,0.03944535,-0.1625,0.1857,-9.7578,-0.004059,-0.000985,-0.002999,28.8563,0.0370,141,0,0,0.001799,0.001823,-0.035168,0.000285,0.000553,0.011869,-1.0936,-1.0169,-0.1436
13135,11.0,0.001437,0.001263,-0.036263,0.002515,-0.000783,-0.001931,-1.1887,-1.1159,0.1201,-0.00079107,-0.00073090,-0.00193427,-0.00168820,0.00068856,0.03962415,-0.1732,0.1778,-9.7634,-0.002909,-0.002217,-0.001273,28.8563,0.0370,139,0,0,0.001807,0.001830,-0.036304,0.000397,0.000562,-0.001047,-1.0940,-1.0151,-0.1437
13146,11.0,0.001447,0.001270,-0.036284,0.002507,-0.000779,-0.001911,-1.1875,-1.1159,0.1200,-0.00080955,-0.00074995,-0.00193429,-0.00172153,0.00072443,0.03962517,-0.1741,0.1863,-9.7654,-0.002049,-0.003821,-0.002092,28.8563,0.0370,139,0,0,0.001816,0.001838,-0.036356,0.000443,0.000530,-0.001290,-1.0944,-1.0149,-0.1432
13157,11.0,0.001459,0.001277,-0.036705,0.002361,-0.000706,-0.006192,-1.1876,-1.1167,0.0973,-0.00081831,-0.00075868,-0.00192610,-0.00162365,0.00067636,0.04142629,-0.1890,0.1933,-9.7308,-0.002460,-0.002795,0.001504,28.8563,0.0370,141,0,0,0.001833,0.001853,-0.036446,0.000566,0.000649,-0.001486,-1.0945,-1.0133,-0.1423
13168,11.0,0.001470,0.001285,-0.036772,0.002217,-0.000740,-0.006012,-1.1858,-1.1173,0.0975,-0.00083873,-0.00076684,-0.00192618,-0.00159336,0.00072835,0.04142652,-0.1904,0.1825,-9.7488,-0.001573,-0.002785,-0.002433,28.8563,0.0360,137,0,0,0.001842,0.001861,-0.036172,0.000506,0.000667,0.002122,-1.0950,-1.0137,-0.1413
13180,12.0,0.001483,0.001291,-0.036881,0.002021,-0.000746,-0.006248,-1.1856,-1.1178,0.0979,-0.00084734,-0.00077350,-0.00192613,-0.00156014,0.00068637,0.04159915,-0.1969,0.1873,-9.7465,-0.001580,-0.002364,-0.001208,28.8219,0.0360,136,0,0,0.001851,0.001869,-0.036148,0.000381,0.000649,0.002532,-1.0949,-1.0135,-0.1413
13191,11.0,0.001493,0.001298,-0.036418,0.001985,-0.000662,0.000104,-1.1856,-1.1189,0.0973,-0.00085905,-0.00078464,-0.00192610,-0.00161495,0.00073166,0.03925726,-0.1826,0.1951,-9.7466,-0.002564,-0.004328,-0.002733,28.8219,0.0360,140,0,0,0.001868,0.001883,-0.036132,0.000191,0.000708,0.002985,-1.0931,-1.0152,-0.1582
13202,11.0,0.001503,0.001307,-0.036444,0.002042,-0.000824,0.000033,-1.1860,-1.1196,0.0965,-0.00086809,-0.00079120,-0.00192604,-0.00158306,0.00068876,0.03938739,-0.1747,0.1706,-9.7427,-0.002774,-0.002743,-0.003185,28.8219,0.0370,140,0,0,0.001877,0.001890,-0.036655,0.000204,0.000746,-0.002674,-1.0933,-1.0163,-0.1586
13213,11.0,0.001513,0.001314,-0.036442,0.002091,-0.000817,0.000246,-1.1858,-1.1198,0.0962,-0.00088716,-0.00080854,-0.00192599,-0.00163138,0.00072668,0.03938875,-0.1737,0.1854,-9.7480,-0.003787,-0.004053,-0.002216,28.8219,0.0370,140,0,0,0.001894,0.001906,-0.036701,0.000202,0.000669,-0.001894,-1.0935,-1.0160,-0.1596
13224,11.0,0.001522,0.001321,-0.035666,0.002157,-0.000817,0.009424,-1.1852,-1.1211,0.0964,-0.00089483,-0.00081542,-0.00192598,-0.00166228,0.00075411,0.03601706,-0.1722,0.1865,-9.7481,-0.000866,-0.003797,-0.001663,28.8219,0.0350,143,0,0,0.001902,0.001914,-0.036765,0.000257,0.000667,-0.002060,-1.0937,-1.0163,-0.1595
13235,11.0,0.001532,0.001328,-0.035561,0.002238,-0.000828,0.009671,-1.1841,-1.1202,0.0960,-0.00091485,-0.00083697,-0.00192594,-0.00172823,0.00079917,0.03601886,-0.1685,0.1835,-9.7484,-0.002492,-0.003061,-0.002225,28.8457,0.0350,143,0,0,0.001910,0.001921,-0.035713,0.000311,0.000675,0.010097,-1.0933,-1.0159,-0.1594
13246,11.0,0.001541,0.001335,-0.035499,0.002325,-0.000841,0.009422,-1.1841,-1.1216,0.0949,-0.00092357,-0.00084542,-0.00192594,-0.00168703,0.00075682,0.03622506,-0.1684,0.1847,-9.7428,-0.002091,-0.004175,-0.003713,28.8457,0.0350,140,0,0,0.001927,0.001935,-0.035545,0.000334,0.000625,0.010437,-1.0927,-1.0170,-0.1585
13257,11.0,0.001552,0.001341,-0.036262,0.002370,-0.000750,-0.000508,-1.1841,-1.1210,0.0963,-0.00093814,-0.00086661,-0.00192588,-0.00166774,0.00068437,0.03996997,-0.1713,0.1940,-9.7564,-0.003161,-0.003391,0.000947,28.8457,0.0370,140,0,0,0.001935,0.001942,-0.035439,0.000375,0.000609,0.010832,-1.0928,-1.0178,-0.1582
13268,11.0,0.001563,0.001349,-0.036301,0.002342,-0.000752,-0.000546,-1.1840,-1.1213,0.0727,-0.00094684,-0.00087488,-0.00191747,-0.00160275,0.00066706,0.04012621,-0.1795,0.1851,-9.7314,-0.002448,-0.002039,-0.002505,28.8457,0.0370,138,0,0,0.001953,0.001957,-0.036347,0.000300,0.000656,0.000263,-1.0951,-1.0186,-0.1576
13279,11.0,0.001574,0.001357,-0.036307,0.002204,-0.000969,-0.000517,-1.1813,-1.1225,0.0722,-0.00098020,-0.00088283,-0.00191762,-0.00157487,0.00079894,0.04012799,-0.1913,0.1617,-9.7642,-0.002549,-0.003762,-0.004151,28.8457,0.0370,136,0,0,0.001962,0.001965,-0.036389,0.000277,0.000656,0.000252,-1.0952,-1.0187,-0.1578
13290,11.0,0.001583,0.001365,-0.035616,0.002311,-0.000968,0.007684,-1.1814,-1.1223,0.0727,-0.00098914,-0.00089049,-0.00191759,-0.00159501,0.00081486,0.03715710,-0.1675,0.1839,-9.7571,-0.002370,-0.001721,-0.001000,28.8457,0.0350,146,0,0,0.001971,0.001973,-0.036385,0.000190,0.000487,0.000543,-1.0949,-1.0191,-0.1778
13301,11.0,0.001594,0.001372,-0.035530,0.002260,-0.001045,0.008057,-1.1805,-1.1225,0.0721,-0.00101548,-0.00090481,-0.00191764,-0.00160760,0.00089296,0.03715856,-0.1813,0.1739,-9.7358,-0.004093,-0.003437,-0.003467,28.8457,0.0350,146,0,0,0.001988,0.001987,-0.035483,0.000180,0.000374,0.010147,-1.0962,-1.0205,-0.1768
13312,11.0,0.001603,0.001379,-0.035464,0.002376,-0.001028,0.008257,-1.1810,-1.1228,0.0717,-0.00102542,-0.00091347,-0.00191761,-0.00156791,0.00084774,0.03726577,-0.1653,0.1840,-9.7244,-0.003052,-0.002484,-0.002382,28.7876,0.0350,135,0,0,0.001996,0.001995,-0.035379,0.000208,0.000342,0.010603,-1.0959,-1.0202,-0.1775
13323,11.0,0.001615,0.001385,-0.036251,0.002218,-0.000893,-0.001704,-1.1800,-1.1235,0.0728,-0.00103937,-0.00092170,-0.00191761,-0.00146351,0.00076133,0.04097361,-0.1927,0.1959,-9.7442,-0.001486,-0.003151,-0.000331,28.7876,0.0370,135,0,0,0.002003,0.002002,-0.035303,0.000320,0.000341,0.010797,-1.0956,-1.0200,-0.1776
13334,11.0,0.001624,0.001392,-0.036287,0.002435,-0.000736,-0.001617,-1.1810,-1.1248,0.0726,-0.00104764,-0.00093038,-0.00191763,-0.00142446,0.00072404,0.04105438,-0.1564,0.2002,-9.7372,-0.003857,-0.004101,-0.002383,28.7876,0.0370,141,0,0,0.002021,0.002016,-0.036265,0.000190,0.000525,0.000014,-1.0955,-1.0201,-0.1775
13345,11.0,0.001634,0.001399,-0.036303,0.002433,-0.000660,-0.001311,-1.1784,-1.1235,0.0728,-0.00106133,-0.00094940,-0.00191761,-0.00146053,0.00072874,0.04105489,-0.1749,0.1924,-9.7377,0.000985,-0.002046,-0.001250,28.7876,0.0370,136,0,0,0.002030,0.002024,-0.036288,0.000265,0.000589,0.000118,-1.0972,-1.0193,-0.1781
13356,11.0,0.001644,0.001405,-0.035062,0.002451,-0.000476,0.013359,-1.1798,-1.1230,0.0722,-0.00106682,-0.00095729,-0.00191769,-0.00152038,0.00080192,0.03582393,-0.1742,0.2058,-9.7590,-0.004029,-0.001278,-0.002959,28.7876,0.0340,134,0,0,0.002038,0.002032,-0.036285,0.000268,0.000590,0.000541,-1.0960,-1.0188,-0.1782
13367,11.0,0.001654,0.001413,-0.034914,0.002485,-0.000464,0.013532,-1.1789,-1.1210,0.0726,-0.00108089,-0.00097935,-0.00191771,-0.00157238,0.00082645,0.03582510,-0.1701,0.1892,-9.7552,-0.001882,-0.001495,-0.000988,28.7876,0.0340,142,0,0,0.002054,0.002046,-0.034771,0.000438,0.000603,0.015896,-1.0966,-1.0188,-0.1787
13378,11.0,0.001665,0.001420,-0.034809,0.002386,-0.000527,0.013334,-1.1805,-1.1196,0.1655,-0.00108823,-0.00098812,-0.00195466,-0.00163848,0.00069183,0.03602236,-0.1837,0.1829,-9.7380,-0.002831,-0.001744,-0.002595,28.8457,0.0340,137,0,0,0.002062,0.002053,-0.034610,0.000481,0.000613,0.016247,-1.0965,-1.0179,-0.1789
13389,11.0,0.001675,0.001428,-0.035928,0.002443,-0.000509,-0.001218,-1.1800,-1.1173,0.1658,-0.00110465,-0.00101116,-0.00195466,-0.00159763,0.00061430,0.04123382,-0.1689,0.1883,-9.7556,-0.003040,-0.001358,-0.001228,28.8457,0.0370,136,0,0,0.002070,0.002061,-0.034505,0.000455,0.000525,0.016037,-1.0965,-1.0175,-0.1797
13401,12.0,0.001688,0.001434,-0.035977,0.002433,-0.000305,-0.001422,-1.1812,-1.1189,0.1666,-0.00111053,-0.00101993,-0.00195475,-0.00155757,0.00058618,0.04138664,-0.1775,0.2086,-9.7455,-0.003506,-0.004300,-0.000893,28.8457,0.0370,137,0,0,0.002087,0.002075,-0.035927,0.000542,0.000540,-0.000562,-1.0978,-1.0192,-0.1261
13412,11.0,0.001699,0.001442,-0.035991,0.002331,-0.000288,-0.001113,-1.1805,-1.1190,0.1679,-0.00112278,-0.00103189,-0.00195485,-0.00155024,0.00060670,0.04138672,-0.1851,0.1912,-9.7369,-0.001997,-0.003075,-0.000165,28.8457,0.0370,137,0,0,0.002105,0.002089,-0.035983,0.000509,0.000682,-0.000266,-1.0990,-1.0193,-0.1268
13423,11.0,0.001709,0.001449,-0.035470,0.002391,-0.000304,0.005426,-1.1810,-1.1200,0.1689,-0.00112808,-0.00104007,-0.00195494,-0.00155361,0.00062606,0.03923414,-0.1698,0.1892,-9.7301,-0.002616,-0.003836,-0.000558,28.8457,0.0350,137,0,0,0.002105,0.002089,-0.035983,0.000509,0.000682,-0.000266,-1.0990,-1.0198,-0.1263
13434,11.0,0.001719,0.001457,-0.035410,0.002449,-0.000418,0.005555,-1.1800,-1.1189,0.1694,-0.00114844,-0.00106252,-0.00195502,-0.00161335,0.00070083,0.03923642,-0.1682,0.1777,-9.7561,-0.003122,-0.003083,-0.001348,28.8457,0.0350,141,0,0,0.002121,0.002104,-0.035354,0.000462,0.000667,0.006797,-1.0984,-1.0189,-0.1272
13445,11.0,0.001729,0.001465,-0.035395,0.002436,-0.000471,0.005086,-1.1799,-1.1195,0.1709,-0.00115516,-0.00107157,-0.00195509,-0.00157166,0.00066848,0.03942887,-0.1764,0.1844,-9.7593,-0.001786,-0.003293,0.000287,28.8457,0.0350,135,0,0,0.002138,0.002119,-0.035264,0.000458,0.000618,0.006921,-1.0975,-1.0185,-0.1271
13456,11.0,0.001739,0.001473,-0.036239,0.002543,-0.000541,-0.005466,-1.1790,-1.1178,0.1706,-0.00117539,-0.00109795,-0.00195512,-0.00158289,0.00065442,0.04303328,-0.1632,0.1803,-9.7799,-0.003223,-0.003048,-0.002159,28.8457,0.0370,140,0,0,0.002147,0.002127,-0.036262,0.000403,0.000624,-0.004459,-1.0980,-1.0189,-0.1269
13467,11.0,0.001750,0.001480,-0.036340,0.002475,-0.000472,-0.005933,-1.1787,-1.1190,0.1696,-0.00118219,-0.00110692,-0.00195520,-0.00154210,0.00062227,0.04320336,-0.1814,0.1952,-9.7605,-0.001698,-0.004139,-0.003652,28.8668,0.0370,136,0,0,0.002155,0.002135,-0.036350,0.000494,0.000594,-0.004864,-1.0981,-1.0192,-0.1269
13478,11.0,0.001761,0.001488,-0.036404,0.002366,-0.000650,-0.005646,-1.1767,-1.1193,0.1696,-0.00120933,-0.00111859,-0.00195539,-0.00153301,0.00072956,0.04320503,-0.1857,0.1676,-9.7376,-0.002836,-0.003334,-0.003019,28.8668,0.0370,137,0,0,0.002172,0.002149,-0.036510,0.000555,0.000706,-0.004961,-1.0975,-1.0192,-0.1278
13489,11.0,0.001771,0.001495,-0.035691,0.002421,-0.000661,0.003548,-1.1787,-1.1204,0.1843,-0.00121628,-0.00112644,-0.00196235,-0.00157308,0.00074236,0.04013189,-0.1705,0.1860,-9.7447,-0.005078,-0.004272,-0.004078,28.8668,0.0350,139,0,0,0.002181,0.002129,-0.035622,0.000507,0.000525,0.005720,-1.0965,-1.0200,-0.1201
13501,12.0,0.001783,0.001503,-0.035648,0.002553,-0.000800,0.003580,-1.1783,-1.1170,0.1831,-0.00124181,-0.00115203,-0.00196238,-0.00165038,0.00082611,0.04013462,-0.1630,0.1725,-9.7644,-0.004762,-0.000194,-0.003696,28.8668,0.0350,139,0,0,0.002189,0.002136,-0.035563,0.000552,0.000484,0.006121,-1.0974,-1.0208,-0.1211
13513,12.0,0.001796,0.001510,-0.035649,0.002684,-0.000771,0.003038,-1.1782,-1.1166,0.1832,-0.00125073,-0.00116225,-0.00196243,-0.00160454,0.00078533,0.04030820,-0.1634,0.1887,-9.7689,-0.002324,-0.001790,-0.001839,28.8325,0.0370,136,0,0,0.002204,0.002151,-0.035497,0.000818,0.000371,0.005944,-1.0973,-1.0195,-0.1222
13524,11.0,0.001806,0.001517,-0.036376,0.002643,-0.000754,-0.005470,-1.1770,-1.1156,0.1830,-0.00126925,-0.00118210,-0.00196248,-0.00157460,0.00075809,0.04327604,-0.1749,0.1851,-9.7414,-0.002386,-0.002892,-0.002323,28.8325,0.0370,142,0,0,0.002222,0.002166,-0.036430,0.000835,0.000413,-0.004080,-1.0959,-1.0206,-0.1211
13535,11.0,0.001817,0.001525,-0.036467,0.002539,-0.000803,-0.005666,-1.1774,-1.1171,0.1830,-0.00127775,-0.00119136,-0.00196251,-0.00153364,0.00072003,0.04340368,-0.1833,0.1805,-9.7464,-0.003084,-0.004898,-0.002130,28.8325,0.0370,138,0,0,0.002231,0.002173,-0.036469,0.000835,0.000367,-0.003696,-1.0957,-1.0206,-0.1212
13546,11.0,0.001828,0.001531,-0.036529,0.002428,-0.000679,-0.005581,-1.1756,-1.1181,0.1857,-0.00128780,-0.00120389,-0.00196253,-0.00152511,0.00070349,0.04340301,-0.1847,0.1973,-9.7552,0.000216,-0.004821,0.002429,28.8325,0.0370,132,0,0,0.002240,0.002181,-0.036557,0.000758,0.000293,-0.003980,-1.0957,-1.0204,-0.1211
13557,11.0,0.001838,0.001539,-0.035735,0.002513,-0.000680,0.004360,-1.1767,-1.1188,0.1848,-0.00129470,-0.00121217,-0.00196258,-0.00154791,0.00073631,0.04010533,-0.1667,0.1863,-9.7567,-0.004010,-0.003367,-0.003433,28.8325,0.0350,138,0,0,0.002249,0.002188,-0.036595,0.000721,0.000334,-0.003658,-1.0956,-1.0214,-0.1196
13568,11.0,0.001847,0.001546,-0.035686,0.002593,-0.000659,0.004655,-1.1759,-1.1169,0.1841,-0.00131056,-0.00123730,-0.00196255,-0.00162034,0.00076394,0.04010693,-0.1637,0.1868,-9.7400,-0.002743,-0.002543,-0.002741,28.8325,0.0350,139,0,0,0.002265,0.002202,-0.035521,0.000746,0.000354,0.007853,-1.0966,-1.0226,-0.1197
13579,11.0,0.001857,0.001553,-0.035676,0.002672,-0.000730,0.004262,-1.1744,-1.1175,0.1853,-0.00131858,-0.00124755,-0.00196262,-0.00157477,0.00072728,0.04026984,-0.1650,0.1793,-9.7575,-0.000029,-0.003648,-0.000087,28.8325,0.0350,137,0,0,0.002273,0.002210,-0.035441,0.000805,0.000361,0.008254,-1.0964,-1.0226,-0.1203
