timestamp_ms,dt_ms,pos_x,pos_y,pos_z,vel_x,vel_y,vel_z,roll_deg,pitch_deg,yaw_deg,gyro_bias_x,gyro_bias_y,gyro_bias_z,accel_bias_x,accel_bias_y,accel_bias_z,raw_accel_x,raw_accel_y,raw_accel_z,raw_gyro_x,raw_gyro_y,raw_gyro_z,raw_mag_x,raw_mag_y,raw_mag_z,raw_baro_alt,raw_tof,raw_flow_squal,raw_flow_dx,raw_flow_dy,dev_pos_x,dev_pos_y,dev_pos_z,dev_vel_x,dev_vel_y,dev_vel_z,dev_roll_deg,dev_pitch_deg,dev_yaw_deg
10865,10.0,-0.000025,-0.000045,-0.299894,-0.003302,-0.005344,0.000394,-0.0255,0.0083,0.0062,0.00000000,0.00000000,0.00571188,-0.00002676,-0.00022049,0.00000000,-0.1546,-0.1728,-9.6956,-0.043148,0.013818,0.016472,23.6245,-7.1930,17.0920,26.4703,0.3000,122,0,0,0.000181,-0.000337,-0.300055,-0.000562,-0.008543,0.012758,0.9014,-0.6758,0.0967
10876,11.0,0.000615,-0.000099,-0.299883,0.029535,-0.005178,0.001578,0.5296,-0.5988,0.0105,-0.00000209,0.00000180,0.00571188,-0.00041929,-0.00023425,-0.00000006,-0.1720,-0.1915,-9.6957,-0.030883,0.002610,0.010960,23.6245,-7.1930,17.0920,26.4703,0.3010,123,1,0,0.000207,-0.000332,-0.300446,-0.000453,-0.007999,0.008227,0.9019,-0.6986,0.1018
10888,12.0,0.000749,-0.000098,-0.296320,0.021917,-0.004795,0.152239,0.5522,-0.5430,0.0039,-0.00000215,0.00000164,0.00571189,-0.00017881,-0.00031760,-0.00009512,-0.1475,-0.2617,-9.6859,-0.000724,-0.018512,0.001155,22.3869,-8.0136,16.5738,26.4703,0.3010,124,0,0,0.000227,-0.000560,-0.300358,-0.000819,-0.009192,0.009406,0.8921,-0.7067,0.1055
10899,11.0,0.000880,-0.000063,-0.300850,0.019045,-0.002679,-0.027292,0.9570,-0.7169,-0.0178,-0.00000624,0.00000371,0.00571191,-0.00001566,-0.00047640,0.00005890,-0.1922,-0.2803,-9.7472,0.039836,-0.033061,-0.018934,22.3869,-8.0136,16.5738,26.4703,0.3010,121,0,0,0.000222,-0.000656,-0.300038,-0.001198,-0.009967,0.012829,0.9622,-0.7665,0.0042
10910,11.0,0.000368,-0.000029,-0.300888,0.002231,-0.002832,-0.020575,0.9991,-0.4527,-0.0592,-0.00000641,0.00000208,0.00571206,0.00145491,-0.00062812,-0.00004934,-0.2120,-0.3260,-9.8167,0.020869,-0.028542,-0.026370,22.3869,-8.0136,16.5738,26.3752,0.3000,121,-1,0,0.000201,-0.000718,-0.299907,-0.001383,-0.010004,0.013428,1.0391,-0.8174,-0.0097
10921,11.0,0.000399,-0.000035,-0.301116,0.002305,-0.002401,-0.020810,1.1965,-0.5433,-0.0835,-0.00001068,0.00000401,0.00571206,0.00143706,-0.00069484,-0.00004809,-0.1357,-0.2985,-9.8241,0.007048,-0.008661,-0.029591,22.3869,-8.0136,16.5738,26.3752,0.3000,125,0,0,0.000183,-0.000588,-0.299640,-0.002206,-0.009927,0.012994,1.1407,-0.8710,-0.0473
10932,11.0,0.000311,-0.000020,-0.300048,-0.000144,-0.001470,0.003381,1.2211,-0.4833,-0.1112,-0.00001087,0.00000350,0.00571211,0.00175486,-0.00082283,-0.00082070,-0.1258,-0.1872,-9.7420,0.014357,0.018465,-0.031033,22.3869,-8.0136,16.5738,26.3752,0.3000,120,0,0,0.000176,-0.000599,-0.299364,-0.002029,-0.010465,0.014645,1.1587,-0.8829,-0.0686
10943,11.0,0.000160,-0.000016,-0.299999,-0.002716,-0.001030,0.005487,1.0510,-0.4086,-0.1290,-0.00000419,0.00000307,0.00571217,0.00225135,-0.00091552,-0.00082374,-0.0830,-0.0567,-9.6210,-0.008602,0.034837,-0.014212,22.3869,-8.0136,16.5738,26.3752,0.3010,125,0,0,0.000165,-0.000566,-0.299215,-0.001956,-0.009883,0.015252,1.1817,-0.8743,-0.0900
10954,11.0,0.000129,-0.000032,-0.299674,-0.002369,0.001279,0.012114,1.0407,-0.4027,-0.1185,-0.00000406,0.00000304,0.00571217,0.00226206,-0.00085233,-0.00124694,-0.0284,0.0636,-9.5592,-0.002725,0.006456,0.021748,22.3869,-8.0136,16.5738,26.3752,0.3010,124,0,0,0.000167,-0.000690,-0.300029,-0.001100,-0.008044,0.007813,1.1144,-0.8246,-0.1088
10965,11.0,0.000234,-0.000037,-0.300528,-0.000406,0.001048,0.000949,0.9504,-0.5611,-0.0968,0.00000076,0.00000947,0.00571213,0.00179817,-0.00078227,0.00068870,-0.1702,-0.0942,-9.5660,-0.012279,-0.025248,0.039664,22.3869,-8.0136,16.5738,26.3752,0.3010,127,0,0,0.000165,-0.000691,-0.299938,-0.000031,-0.005277,0.010352,1.1245,-0.8297,-0.1008
10976,11.0,0.000452,-0.000077,-0.300376,0.001667,-0.001484,0.003653,0.9086,-0.6828,-0.0707,0.00000120,0.00001208,0.00571197,0.00080815,-0.00061617,0.00028548,-0.2488,-0.3315,-9.7251,-0.039649,-0.043438,0.032720,22.3869,-8.0136,16.5738,26.3752,0.3000,124,0,0,0.000190,-0.000819,-0.299746,-0.000662,-0.005561,0.013564,1.0837,-0.8722,-0.0668
10987,11.0,0.000030,-0.000135,-0.300338,-0.005539,-0.002536,0.003309,1.0711,-0.6205,-0.0856,-0.00001558,0.00001393,0.00571236,0.00287994,-0.00020989,0.00025932,-0.2207,-0.4082,-9.8338,-0.025929,-0.040587,0.015502,23.2158,-7.6044,16.0535,26.4333,0.3000,129,-1,0,0.000217,-0.000918,-0.299608,-0.000719,-0.006019,0.014024,1.1156,-0.9332,0.0070
10998,11.0,-0.000479,-0.000128,-0.299995,-0.013929,-0.005253,0.005914,1.0894,-0.4616,-0.1302,-0.00001645,0.00000686,0.00571306,0.00493632,-0.00048081,-0.00100470,-0.2206,-0.5119,-9.9081,-0.004019,-0.020774,-0.012689,23.2158,-7.6044,16.0535,26.4333,0.3000,121,-1,0,0.000235,-0.000778,-0.299353,-0.001248,-0.007256,0.014999,1.1161,-0.9661,0.0119
11008,10.0,-0.000506,-0.000143,-0.299941,-0.012428,-0.005141,0.004925,1.3306,-0.5984,-0.1442,-0.00004379,0.00002047,0.00571286,0.00458103,-0.00023479,-0.00100754,-0.2310,-0.5306,-9.8947,0.017034,-0.001404,-0.030950,23.2158,-7.6044,16.0535,26.4333,0.3010,126,0,0,0.000242,-0.000600,-0.299209,-0.001265,-0.006782,0.013904,1.2066,-1.0007,0.0052
11020,12.0,-0.000059,-0.000100,-0.299759,-0.003668,-0.005249,0.005719,1.4024,-0.8004,-0.1348,-0.00004630,0.00003335,0.00571164,0.00158791,-0.00083611,-0.00174524,-0.1642,-0.3917,-9.8639,0.042975,0.021409,-0.050887,23.2158,-7.6044,16.0535,26.4333,0.3010,118,1,0,0.000218,-0.000565,-0.300092,-0.001804,-0.009677,0.000208,1.3288,-1.0238,-0.0404
11031,11.0,0.000395,-0.000114,-0.300385,0.004057,-0.004663,-0.002152,1.4391,-0.9513,-0.1216,-0.00005089,0.00004484,0.00571052,-0.00088146,-0.00091496,0.00267585,-0.1426,-0.2786,-9.7891,-0.001106,0.031321,-0.041998,23.2158,-7.6044,16.0535,26.4333,0.3010,122,1,0,0.000191,-0.000736,-0.300094,-0.001776,-0.011693,-0.000555,1.3639,-1.0210,-0.0715
11042,11.0,0.000266,-0.000174,-0.300308,0.001900,-0.003858,0.000690,1.4089,-0.8677,-0.1485,-0.00005047,0.00004002,0.00571090,0.00002154,-0.00085523,0.00197166,-0.1044,-0.1499,-9.6486,-0.040546,0.037993,-0.016067,23.2158,-7.6044,16.0535,26.4333,0.3010,126,0,0,0.000193,-0.000842,-0.299943,-0.000981,-0.011008,0.001453,1.4039,-0.9971,-0.1179
11053,11.0,0.000217,-0.000261,-0.300286,0.001022,-0.004253,0.003291,1.3164,-0.8070,-0.1532,-0.00004182,0.00003268,0.00571100,0.00027413,-0.00076801,0.00196792,-0.0924,-0.1607,-9.5712,-0.071792,0.023565,0.001625,23.2158,-7.6044,16.0535,26.4333,0.3010,126,0,0,0.000216,-0.000786,-0.300466,-0.000710,-0.010172,-0.003048,1.3724,-0.9695,-0.1292
11064,11.0,0.000255,-0.000357,-0.300539,0.002030,-0.003686,0.002237,1.2557,-0.8141,-0.1465,-0.00004000,0.00003345,0.00571089,0.00018666,-0.00041188,0.00451550,-0.0761,-0.0903,-9.5801,-0.070403,0.000938,0.010205,23.2158,-7.6044,16.0535,26.4333,0.3010,122,0,0,0.000298,-0.000758,-0.300486,0.000493,-0.008296,0.001201,1.2964,-0.9467,-0.1318
11075,11.0,0.000343,-0.000388,-0.300505,0.003106,-0.002829,0.003984,1.1721,-0.8298,-0.1473,-0.00002105,0.00003216,0.00571083,-0.00023507,-0.00087241,0.00453274,-0.1104,-0.0423,-9.6477,-0.028652,-0.015653,0.003666,23.2158,-7.6044,16.0535,26.4333,0.3010,120,0,0,0.000333,-0.000794,-0.300309,0.001332,-0.006683,0.005005,1.2725,-0.9582,-0.1296
11086,11.0,0.001050,-0.000404,-0.300343,0.012911,-0.002209,0.006007,1.1713,-1.0314,-0.1164,-0.00002162,0.00005905,0.00570968,-0.00376774,-0.00097498,0.00344968,-0.1758,-0.1609,-9.7462,-0.006442,-0.026565,0.001018,23.2120,-8.8342,17.0920,26.4333,0.3010,122,1,0,0.000350,-0.000846,-0.300643,0.001468,-0.006259,0.002283,1.2299,-0.9652,-0.0693
11097,11.0,0.000503,-0.000392,-0.300615,0.002758,-0.001582,0.002333,1.1826,-0.8572,-0.1641,-0.00002080,0.00002993,0.00571101,-0.00012321,-0.00113047,0.00670965,-0.1686,-0.1842,-9.7694,0.011697,-0.005998,-0.011567,23.2120,-8.8342,17.0920,26.4333,0.3010,122,-1,0,0.000357,-0.001415,-0.300483,0.001382,-0.006951,0.004372,1.2320,-1.0068,-0.0758
11108,11.0,0.000453,-0.000358,-0.300498,0.001295,-0.000390,0.004160,1.2155,-0.8315,-0.1842,-0.00002313,0.00002621,0.00571123,0.00027239,-0.00140337,0.00580460,-0.1725,-0.1601,-9.7327,0.032616,0.008785,-0.017093,23.2120,-8.8342,17.0920,26.4333,0.3010,124,0,0,0.000349,-0.001193,-0.300438,0.001367,-0.005567,0.004606,1.2576,-1.0177,-0.0883
11119,11.0,0.000416,-0.000320,-0.300446,0.000379,0.000465,0.005350,1.2277,-0.8264,-0.2040,-0.00001780,0.00002805,0.00571146,0.00062962,-0.00178530,0.00580833,-0.1731,-0.1575,-9.6933,0.030326,0.004612,-0.014280,23.2120,-8.8342,17.0920,26.4333,0.3010,125,0,0,0.000313,-0.001150,-0.300580,0.000989,-0.004319,0.003737,1.3058,-1.0248,-0.1159
11130,11.0,0.000513,-0.000314,-0.300593,0.001337,0.000601,0.003983,1.2311,-0.8628,-0.2054,-0.00001775,0.00003325,0.00571126,0.00017574,-0.00174046,0.00797596,-0.1783,-0.1976,-9.6942,0.005069,-0.023479,-0.002721,23.2120,-8.8342,17.0920,26.3963,0.3010,119,0,0,0.000298,-0.001154,-0.300409,0.000885,-0.004055,0.006134,1.3209,-1.0344,-0.1262
11141,11.0,0.000660,-0.000342,-0.300547,0.002886,-0.000096,0.004248,1.2204,-0.9259,-0.1977,-0.00002178,0.00004855,0.00571090,-0.00032442,-0.00142898,0.00797390,-0.2044,-0.2487,-9.7728,-0.023247,-0.031638,0.008161,23.2120,-8.8342,17.0920,26.3963,0.3010,130,0,0,0.000297,-0.001206,-0.300344,0.000850,-0.003844,0.006947,1.3337,-1.0567,-0.1309
11152,11.0,0.000765,-0.000380,-0.300377,0.003456,-0.001635,0.004989,1.1920,-0.9534,-0.1948,-0.00001990,0.00005338,0.00571061,-0.00072459,-0.00130610,0.00661664,-0.2072,-0.3120,-9.8724,-0.034953,-0.018562,0.002001,23.2120,-8.8342,17.0920,26.3963,0.3010,117,0,0,0.000329,-0.001342,-0.300496,0.000563,-0.004687,0.004088,1.3279,-1.1084,-0.1312
11163,11.0,0.000728,-0.000422,-0.300641,0.002237,-0.002550,0.000101,1.1960,-0.9383,-0.2046,-0.00003543,0.00005388,0.00571075,-0.00018582,-0.00074189,0.00978915,-0.1951,-0.3084,-9.9014,-0.029908,0.014251,-0.007673,23.2120,-8.8342,17.0920,26.3963,0.3010,118,0,0,0.000352,-0.001378,-0.300460,0.000565,-0.004880,0.003057,1.3356,-1.1276,-0.1348
11174,11.0,0.000544,-0.000451,-0.300539,-0.000301,-0.002201,0.001918,1.1826,-0.8676,-0.2319,-0.00003512,0.00003866,0.00571142,0.00082977,-0.00074072,0.00874665,-0.1195,-0.1679,-9.7434,-0.020611,0.047719,-0.020580,23.2120,-8.8342,17.0920,26.3963,0.3010,118,0,0,0.000372,-0.001361,-0.300272,0.000594,-0.005397,0.003804,1.3306,-1.1302,-0.1431
11185,11.0,0.000355,-0.000458,-0.300501,-0.002524,-0.001302,0.004908,1.1571,-0.7925,-0.2618,-0.00001765,0.00001588,0.00571203,0.00153583,-0.00122564,0.00875015,-0.0895,-0.0926,-9.5293,-0.005572,0.046046,-0.026487,21.5581,-7.6022,16.5759,26.3963,0.3010,124,0,0,0.000388,-0.000948,-0.300611,0.001803,-0.002600,0.001056,1.3386,-1.0852,-0.2059
11196,11.0,0.000343,-0.000457,-0.300620,-0.001822,0.000269,0.005865,1.1634,-0.7943,-0.2740,-0.00001825,0.00001691,0.00571202,0.00150469,-0.00122202,0.01065144,-0.0828,-0.0598,-9.5073,0.007634,0.000328,-0.013944,21.5581,-7.6022,16.5759,26.3963,0.3010,125,0,0,0.000387,-0.000869,-0.300458,0.002015,-0.001846,0.005233,1.3282,-1.0557,-0.2228
11207,11.0,0.001130,-0.000461,-0.300541,0.009342,0.001138,0.008569,1.1295,-0.9488,-0.2561,0.00000902,0.00007658,0.00571025,-0.00250262,-0.00177688,0.01071591,-0.1076,-0.0510,-9.5538,-0.002476,-0.046979,0.000562,21.5581,-7.6022,16.5759,26.3963,0.3010,124,1,0,0.000379,-0.000871,-0.300391,0.002809,-0.000223,0.008035,1.3442,-1.0631,-0.2346
11218,11.0,0.002027,-0.000491,-0.300314,0.020053,0.001859,0.011081,1.1095,-1.1176,-0.2299,0.00001319,0.00014695,0.00570853,-0.00624306,-0.00158211,0.00948062,-0.1728,-0.0653,-9.7131,-0.019135,-0.066285,0.016092,21.5581,-7.6022,16.5759,26.3963,0.3010,120,1,0,0.000382,-0.001559,-0.300475,0.003127,-0.000224,0.009232,1.3208,-1.1198,-0.2377
11229,11.0,0.002278,-0.000512,-0.300577,0.020965,0.001217,0.005710,1.0946,-1.1406,-0.2142,0.00001342,0.00013686,0.00570824,-0.00659726,-0.00124189,0.01312928,-0.1300,-0.2067,-9.8738,-0.018903,-0.049301,0.020678,21.5581,-7.6022,16.5759,26.3963,0.3010,121,0,0,0.000392,-0.001944,-0.300380,0.003092,-0.000970,0.009858,1.2915,-1.1607,-0.2320
11240,11.0,0.002403,-0.000513,-0.300424,0.020409,-0.000094,0.005659,1.0891,-1.1380,-0.2114,0.00001425,0.00012598,0.00570855,-0.00610863,-0.00121910,0.01216785,-0.1194,-0.2995,-9.9065,-0.006612,-0.021605,0.016110,21.5581,-7.6022,16.5759,26.3963,0.3010,121,0,0,0.000401,-0.002074,-0.300122,0.003670,-0.000739,0.011087,1.2906,-1.2017,-0.2246
11251,11.0,0.001732,-0.000489,-0.300368,0.008600,-0.001487,0.004422,1.1498,-0.9962,-0.2586,-0.00003740,0.00003492,0.00571205,-0.00204465,-0.00032211,0.01208354,-0.1900,-0.4294,-9.9017,0.020031,0.023359,-0.013145,21.5581,-7.6022,16.5759,26.3963,0.3010,128,-1,0,0.000402,-0.001905,-0.300384,0.004263,-0.001729,0.004023,1.3198,-1.2230,-0.2156
11262,11.0,0.000990,-0.000428,-0.300562,-0.002592,-0.002872,0.001316,1.1888,-0.8593,-0.3366,-0.00004691,-0.00005575,0.00571662,0.00169056,-0.00066269,0.01425046,-0.1807,-0.4343,-9.8109,0.041360,0.032696,-0.033101,21.5581,-7.6022,16.5759,26.3963,0.3010,124,-1,0,0.000391,-0.001612,-0.300350,0.004207,-0.001387,0.002709,1.3737,-1.2153,-0.2247
11273,11.0,0.000821,-0.000386,-0.300544,-0.004421,-0.002882,0.001960,1.2443,-0.8189,-0.3722,-0.00008190,-0.00007156,0.00571750,0.00230767,-0.00046274,0.01423513,-0.1421,-0.3319,-9.7311,0.038056,0.033472,-0.039824,21.5581,-7.6022,16.5759,26.4544,0.3020,130,0,0,0.000369,-0.001295,-0.300326,0.004265,-0.002115,0.002002,1.4122,-1.2058,-0.2458
11285,12.0,0.000731,-0.000345,-0.300405,-0.004215,-0.000675,0.004556,1.2824,-0.8050,-0.3947,-0.00008976,-0.00007646,0.00571789,0.00247125,-0.00077245,0.01324566,-0.0748,-0.1001,-9.6891,0.042576,0.011759,-0.020981,22.7995,-7.6033,16.3147,26.4544,0.3020,123,0,0,0.000315,-0.001134,-0.301231,0.005006,-0.001533,-0.006811,1.5020,-1.1799,-0.2507
11296,11.0,0.001366,-0.000344,-0.301212,0.004438,0.000515,-0.005040,1.2646,-0.8964,-0.3707,-0.00005938,0.00000911,0.00571501,-0.00027824,-0.00128389,0.02087659,-0.1557,-0.0787,-9.7455,0.005755,-0.009474,0.003996,22.7995,-7.6033,16.3147,26.4544,0.3020,128,1,0,0.000266,-0.001101,-0.301230,0.005743,0.000912,-0.003950,1.5450,-1.1709,-0.2769
11307,11.0,0.001492,-0.000402,-0.301185,0.005661,0.000232,-0.003768,1.2273,-0.9195,-0.3530,-0.00005080,0.00001883,0.00571447,-0.00060943,-0.00101695,0.02014303,-0.1314,-0.1639,-9.7620,-0.046240,-0.021607,0.025681,22.7995,-7.6033,16.3147,26.4544,0.3010,125,0,0,0.000271,-0.001377,-0.301004,0.005793,0.000711,-0.000813,1.5234,-1.1804,-0.2740
11318,11.0,0.001588,-0.000454,-0.301225,0.005908,-0.001235,-0.003485,1.2104,-0.9361,-0.3367,-0.00006904,0.00002846,0.00571402,-0.00065763,-0.00032671,0.02012888,-0.1805,-0.3110,-9.7581,-0.042282,-0.014512,0.021894,22.7995,-7.6033,16.3147,26.4544,0.3010,121,0,0,0.000296,-0.001442,-0.300927,0.006397,0.001491,0.000336,1.5085,-1.2017,-0.2637
11329,11.0,0.001681,-0.000455,-0.300998,0.005541,-0.002658,-0.001058,1.2101,-0.9513,-0.3399,-0.00007197,0.00003293,0.00571390,-0.00082489,-0.00046647,0.01784104,-0.2319,-0.3641,-9.8502,-0.004551,-0.018356,-0.000705,22.7995,-7.6033,16.3147,26.4544,0.3010,124,0,0,0.000344,-0.001529,-0.300784,0.006271,0.000296,0.001898,1.4895,-1.2312,-0.2493
11340,11.0,0.001149,-0.000437,-0.301017,-0.002445,-0.002781,-0.002478,1.2383,-0.9065,-0.3934,-0.00010141,-0.00003518,0.00571787,0.00187098,-0.00022398,0.01779253,-0.2248,-0.3017,-9.9146,0.014875,-0.016985,-0.018784,22.7995,-7.6033,16.3147,26.4544,0.3020,126,-1,0,0.000348,-0.001567,-0.301403,0.005985,-0.000273,-0.005935,1.5111,-1.2512,-0.2541
11351,11.0,0.001121,-0.000412,-0.300948,-0.003167,-0.002630,-0.002774,1.2583,-0.9042,-0.4160,-0.00010997,-0.00003476,0.00571811,0.00184431,-0.00047836,0.01689021,-0.2245,-0.2690,-9.9300,0.021419,0.003339,-0.026388,22.7995,-7.6033,16.3147,26.4544,0.3020,122,0,0,0.000344,-0.001367,-0.301469,0.005742,-0.000298,-0.007276,1.5314,-1.2697,-0.2686
11362,11.0,0.000954,-0.000386,-0.301483,-0.004919,-0.002147,-0.009955,1.2830,-0.8705,-0.4478,-0.00012552,-0.00005065,0.00571927,0.00251009,-0.00048055,0.02099932,-0.1666,-0.2447,-9.9069,0.023473,0.034578,-0.028943,22.7995,-7.6033,16.3147,26.4544,0.3020,129,0,0,0.000320,-0.001320,-0.301526,0.005541,-0.000307,-0.009159,1.5830,-1.2771,-0.3079
11373,11.0,0.000727,-0.000373,-0.301511,-0.007321,-0.000775,-0.008777,1.2955,-0.8215,-0.4764,-0.00013011,-0.00007781,0.00572049,0.00317127,-0.00060991,0.02030663,-0.1699,-0.1301,-9.7697,0.014605,0.049712,-0.024159,22.7995,-7.6033,16.3147,26.4544,0.3010,124,0,0,0.000305,-0.001234,-0.301067,0.005611,0.000176,-0.004158,1.6051,-1.2578,-0.3273
11384,11.0,0.001148,-0.000392,-0.301601,-0.001091,-0.000131,-0.007645,1.2757,-0.8433,-0.4650,-0.00010327,0.00000298,0.00571765,0.00120845,-0.00101772,0.02034622,-0.1375,-0.1262,-9.6853,-0.010700,0.041553,-0.009389,21.9744,-8.4239,16.0557,26.4544,0.3010,126,1,0,0.000294,-0.001132,-0.301109,0.005831,0.001815,-0.004219,1.6282,-1.2382,-0.3449
11395,11.0,0.001093,-0.000430,-0.301206,-0.001807,0.000017,-0.000491,1.2532,-0.8287,-0.4658,-0.00009617,-0.00000412,0.00571769,0.00130569,-0.00094813,0.01654940,-0.1596,-0.1573,-9.6422,-0.029437,0.016858,0.004239,21.9744,-8.4239,16.0557,26.5496,0.3010,122,0,0,0.000307,-0.001447,-0.301089,0.006236,0.002931,-0.001289,1.6159,-1.1985,-0.4741
11407,12.0,0.001098,-0.000466,-0.301206,-0.001376,0.000037,0.000610,1.2246,-0.8280,-0.4603,-0.00007660,-0.00000371,0.00571741,0.00113820,-0.00102501,0.01655401,-0.1273,-0.1641,-9.6997,-0.028206,0.002002,0.011659,21.9744,-8.4239,16.0557,26.5496,0.3020,128,0,0,0.000325,-0.001419,-0.301095,0.006285,0.003484,0.000087,1.5972,-1.1910,-0.4762
11418,11.0,0.001691,-0.000501,-0.301126,0.005894,-0.000769,0.001834,1.2053,-0.8774,-0.4307,-0.00007142,0.00010430,0.00571368,-0.00117301,-0.00093446,0.01600732,-0.1588,-0.2457,-9.7562,-0.026119,0.007548,0.010782,21.9744,-8.4239,16.0557,26.5496,0.3020,131,1,0,0.000357,-0.001429,-0.301549,0.006794,0.004587,-0.003095,1.5802,-1.1970,-0.4700
11429,11.0,0.001582,-0.000520,-0.301544,0.003693,-0.001722,-0.002547,1.2063,-0.8455,-0.4386,-0.00009853,0.00007677,0.00571462,-0.00039879,-0.00035365,0.01945714,-0.1593,-0.3034,-9.7126,-0.016335,0.029473,-0.000470,21.9744,-8.4239,16.0557,26.5496,0.3020,130,0,0,0.000370,-0.001650,-0.301579,0.007102,0.003915,-0.002891,1.5740,-1.1998,-0.4660
11440,11.0,0.000180,-0.000516,-0.301510,-0.013368,-0.002228,-0.000333,1.2039,-0.6950,-0.5210,-0.00010160,-0.00019268,0.00572485,0.00494874,-0.00040350,0.01894737,-0.0963,-0.2801,-9.6447,-0.006994,0.045506,-0.011900,21.9744,-8.4239,16.0557,26.5496,0.3000,123,-2,0,0.000393,-0.001051,-0.300480,0.007763,0.005392,0.010802,1.5898,-1.1761,-0.4772
11451,11.0,-0.000621,-0.000523,-0.301497,-0.021235,-0.002091,0.002692,1.2000,-0.6141,-0.5645,-0.00010533,-0.00031858,0.00572950,0.00733779,-0.00042380,0.01891408,-0.1058,-0.2092,-9.5132,-0.009155,0.042156,-0.014405,21.9744,-8.4239,16.0557,26.5496,0.3000,125,-1,0,0.000397,-0.000716,-0.300307,0.008025,0.006284,0.013234,1.6010,-1.1468,-0.4868
11462,11.0,-0.000712,-0.000525,-0.300563,-0.019725,-0.001653,0.016692,1.2021,-0.6158,-0.5708,-0.00010917,-0.00029088,0.00572860,0.00670201,-0.00065488,0.01214596,-0.1146,-0.1808,-9.4620,0.000720,0.014529,-0.013958,21.9744,-8.4239,16.0557,26.5496,0.3000,130,0,0,0.000403,-0.000395,-0.300161,0.008615,0.007676,0.015877,1.6110,-1.1304,-0.4996
11473,11.0,-0.000647,-0.001689,-0.300363,-0.016582,-0.014628,0.019629,1.0926,-0.6533,-0.5432,0.00014480,-0.00022804,0.00572197,0.00571648,0.00313768,0.01208297,-0.1237,-0.1139,-9.5296,-0.019262,-0.021215,-0.010171,21.9744,-8.4239,16.0557,26.4914,0.3020,126,0,-1,0.000646,-0.000358,-0.300949,0.010249,0.009124,0.009109,1.6233,-1.1348,-0.5227
11484,11.0,0.000708,-0.001721,-0.300045,0.001896,-0.012443,0.022742,1.1045,-0.7918,-0.5042,0.00011674,0.00008545,0.00571331,0.00014663,0.00260721,0.01145192,-0.0945,-0.1169,-9.6141,0.003032,-0.036269,-0.008254,22.7995,-6.7827,16.8329,26.4914,0.3020,124,2,0,0.000655,-0.000651,-0.300847,0.010412,0.008547,0.011436,1.6018,-1.1508,-0.3683
11495,11.0,0.002033,-0.001747,-0.300958,0.017682,-0.010858,0.010167,1.1113,-0.8988,-0.4753,0.00010298,0.00034546,0.00570608,-0.00460138,0.00217136,0.02030331,-0.1055,-0.1535,-9.6884,0.003055,-0.023717,-0.009147,22.7995,-6.7827,16.8329,26.4914,0.3020,124,2,0,0.000648,-0.001202,-0.300632,0.011062,0.008059,0.014168,1.6066,-1.1781,-0.3750
11506,11.0,0.002075,-0.001768,-0.300772,0.016348,-0.009685,0.011813,1.1151,-0.8900,-0.4909,0.00008220,0.00031197,0.00570740,-0.00405469,0.00181600,0.01976501,-0.1109,-0.1857,-9.7149,-0.005168,-0.003948,-0.008383,22.7995,-6.7827,16.8329,26.4914,0.3000,123,0,0,0.000641,-0.001766,-0.300022,0.011588,0.007246,0.019242,1.6108,-1.2058,-0.3892
11517,11.0,0.002065,-0.001766,-0.300635,0.015018,-0.007649,0.013101,1.1218,-0.8628,-0.5039,0.00008965,0.00023676,0.00570874,-0.00384443,0.00100033,0.01978089,-0.0520,-0.1008,-9.6733,0.013894,0.004943,-0.008302,22.7995,-6.7827,16.8329,26.4914,0.3000,124,0,0,0.000642,-0.001775,-0.299753,0.011769,0.007476,0.020779,1.6103,-1.2043,-0.3973
11529,12.0,0.002075,-0.001775,-0.300102,0.013810,-0.006201,0.019555,1.1330,-0.8482,-0.5088,0.00007187,0.00019708,0.00570995,-0.00326088,0.00067174,0.01712214,-0.0766,-0.1451,-9.6058,0.008338,0.003690,0.005525,22.7995,-6.7827,16.8329,26.4914,0.3000,134,0,0,0.000618,-0.001755,-0.299200,0.013179,0.009643,0.024569,1.6286,-1.1981,-0.4111
11540,11.0,0.000915,-0.001782,-0.299876,-0.001534,-0.005759,0.021500,1.1339,-0.7652,-0.5376,0.00005104,-0.00010604,0.00571772,0.00128831,0.00063436,0.01706292,-0.1337,-0.2201,-9.6123,-0.008567,-0.010696,0.010163,22.7995,-6.7827,16.8329,26.4914,0.3010,129,-2,0,0.000612,-0.001753,-0.300065,0.013910,0.010434,0.013973,1.6417,-1.2036,-0.4112
11551,11.0,0.000483,-0.001807,-0.299534,-0.006781,-0.005925,0.023807,1.1239,-0.7622,-0.5489,0.00004206,-0.00020292,0.00572053,0.00270595,0.00049296,0.01630790,-0.1636,-0.2514,-9.6877,-0.020000,-0.039060,0.007950,22.7995,-6.7827,16.8329,26.4703,0.3010,121,-1,0,0.000620,-0.001306,-0.299917,0.013897,0.011805,0.015559,1.6460,-1.2086,-0.4104
11562,11.0,0.000646,-0.001850,-0.300176,-0.003947,-0.005665,0.013732,1.1083,-0.7983,-0.5430,0.00003615,-0.00015208,0.00571902,0.00189717,0.00053512,0.02284092,-0.1199,-0.1910,-9.7389,-0.027018,-0.035585,0.004293,22.7995,-6.7827,16.8329,26.4703,0.3010,129,0,0,0.000651,-0.001241,-0.299475,0.013956,0.011858,0.018414,1.6370,-1.2583,-0.4069
11572,10.0,0.000718,-0.001872,-0.299963,-0.002249,-0.004719,0.015022,1.1030,-0.8144,-0.5405,0.00002800,-0.00012529,0.00571845,0.00151790,0.00041056,0.02230177,-0.0935,-0.1313,-9.7468,-0.013083,-0.015803,0.006275,22.7995,-6.7827,16.8329,26.4703,0.3000,125,0,0,0.000665,-0.001323,-0.299132,0.014600,0.012117,0.020449,1.6315,-1.2848,-0.4083
11583,11.0,0.000755,-0.001869,-0.299792,-0.001381,-0.003930,0.016163,1.1093,-0.8226,-0.5398,0.00002212,-0.00011809,0.00571826,0.00120831,0.00012195,0.02231173,-0.1191,-0.1686,-9.6817,0.007927,-0.010430,0.005294,22.7995,-8.8342,16.3147,26.4703,0.3000,127,0,0,0.000673,-0.001368,-0.299498,0.014818,0.012362,0.014674,1.6189,-1.2901,-0.4080
11594,11.0,0.001430,-0.001866,-0.299715,0.006327,-0.003183,0.016218,1.1208,-0.8771,-0.5302,0.00000902,0.00005811,0.00571408,-0.00111053,-0.00004435,0.02311390,-0.1723,-0.1681,-9.6636,0.013275,-0.018128,-0.002654,22.7995,-8.8342,16.3147,26.4703,0.3000,128,1,0,0.000663,-0.001403,-0.299082,0.015235,0.013229,0.017612,1.6397,-1.3048,-0.5223
11605,11.0,0.001600,-0.001876,-0.299534,0.007474,-0.002281,0.016694,1.1145,-0.9063,-0.5394,0.00002830,0.00008352,0.00571375,-0.00145530,-0.00045422,0.02312721,-0.1530,-0.1232,-9.7419,-0.002178,-0.037039,-0.006140,22.7995,-8.8342,16.3147,26.5258,0.3010,125,0,0,0.000654,-0.001672,-0.298901,0.015275,0.013054,0.018695,1.6540,-1.3216,-0.5267
11616,11.0,0.002385,-0.001891,-0.299274,0.016030,-0.001683,0.017614,1.1141,-0.9730,-0.5338,0.00002473,0.00026917,0.00570964,-0.00378099,-0.00051317,0.02260620,-0.1198,-0.1441,-9.7867,-0.002028,-0.038452,-0.003768,22.7995,-8.8342,16.3147,26.5258,0.3010,123,1,0,0.000655,-0.001834,-0.299873,0.015538,0.013746,0.006036,1.6574,-1.3691,-0.5400
11627,11.0,0.002483,-0.001899,-0.300076,0.015299,-0.001895,0.005396,1.1151,-0.9773,-0.5365,0.00000758,0.00024068,0.00571005,-0.00351859,-0.00024334,0.02950789,-0.1508,-0.2288,-9.8287,-0.004664,-0.017039,0.000513,22.7995,-8.8342,16.3147,26.5258,0.3010,119,0,0,0.000652,-0.002142,-0.299815,0.015735,0.013144,0.005580,1.6518,-1.3836,-0.5425
11638,11.0,0.002503,-0.001909,-0.299960,0.013860,-0.002108,0.005605,1.1112,-0.9681,-0.5416,0.00000444,0.00019955,0.00571116,-0.00303838,-0.00028599,0.02907793,-0.1449,-0.2245,-9.8238,-0.007423,0.000776,0.003529,22.7995,-8.8342,16.3147,26.5258,0.3000,124,0,0,0.000653,-0.002184,-0.299663,0.016227,0.013252,0.006037,1.6588,-1.4015,-0.5458
11649,11.0,0.002477,-0.001920,-0.299896,0.011820,-0.002364,0.006035,1.1110,-0.9507,-0.5464,-0.00001611,0.00014989,0.00571246,-0.00245236,-0.00011103,0.02906516,-0.1651,-0.2335,-9.7378,-0.007842,0.011511,0.002922,22.7995,-8.8342,16.3147,26.5258,0.3000,126,0,0,0.000662,-0.002177,-0.299609,0.016724,0.013437,0.004807,1.6651,-1.4041,-0.5477
11660,11.0,0.002496,-0.001939,-0.299823,0.010304,-0.002872,0.006628,1.1023,-0.9432,-0.5557,-0.00001886,0.00011841,0.00571341,-0.00209909,-0.00014101,0.02903646,-0.1858,-0.2469,-9.7260,-0.014874,0.001756,-0.003584,22.7995,-8.8342,16.3147,26.5258,0.3000,126,0,0,0.000670,-0.002153,-0.299560,0.016642,0.013399,0.005052,1.6649,-1.3982,-0.5491
11671,11.0,0.002578,-0.000799,-0.299749,0.010286,0.010806,0.006944,1.1731,-0.9464,-0.5904,-0.00034942,0.00009110,0.00572058,-0.00215812,-0.00399993,0.02910789,-0.1257,-0.1716,-9.7501,0.009644,-0.014832,-0.008195,22.7995,-8.8342,16.3147,26.5258,0.3010,125,0,1,0.000680,-0.002150,-0.299507,0.016723,0.013387,0.005439,1.6668,-1.4036,-0.5545
11682,11.0,0.002673,-0.000765,-0.299596,0.010857,0.010409,0.007761,1.1801,-0.9592,-0.5945,-0.00032325,0.00008474,0.00572025,-0.00209587,-0.00372789,0.02856655,-0.0896,-0.1476,-9.7908,0.018515,-0.022264,-0.002149,22.8069,-8.8365,16.5697,26.5258,0.3010,121,0,0,0.000428,-0.002216,-0.300225,0.016741,0.014169,-0.002691,1.6920,-1.4227,-0.6639
11693,11.0,0.002692,-0.000746,-0.300269,0.010035,0.009139,-0.001162,1.1788,-0.9516,-0.5934,-0.00030299,0.00004005,0.00572035,-0.00187036,-0.00322819,0.03361447,-0.1295,-0.2234,-9.7787,0.003245,-0.001667,0.004354,22.8069,-8.8365,16.5697,26.4914,0.3010,127,0,0,0.000416,-0.002255,-0.300162,0.017079,0.014391,-0.001883,1.7001,-1.4277,-0.6668
11704,11.0,0.002688,-0.000735,-0.300211,0.009230,0.008043,-0.000040,1.1732,-0.9429,-0.5914,-0.00027552,0.00000439,0.00572084,-0.00151006,-0.00295286,0.03312831,-0.1141,-0.2106,-9.7481,-0.001265,0.003822,0.011398,22.8069,-8.8365,16.5697,26.4914,0.2990,123,0,0,0.000410,-0.002268,-0.300182,0.017829,0.014751,-0.002202,1.7132,-1.4382,-0.6682
11715,11.0,0.002695,-0.000732,-0.300208,0.008288,0.006807,0.000513,1.1674,-0.9353,-0.5862,-0.00026243,-0.00003075,0.00572104,-0.00128405,-0.00253588,0.03311621,-0.1464,-0.2313,-9.7229,-0.006456,0.002046,0.012631,22.8069,-8.8365,16.5697,26.4914,0.2990,124,0,0,0.000412,-0.002019,-0.299198,0.018817,0.016123,0.008585,1.7265,-1.4370,-0.6634
11726,11.0,0.002787,-0.000733,-0.299435,0.008126,0.005019,0.009407,1.1564,-0.9465,-0.5772,-0.00023993,-0.00002934,0.00572056,-0.00136344,-0.00240955,0.02808684,-0.1778,-0.2909,-9.7833,-0.011459,-0.017073,0.017673,22.8069,-8.8365,16.5697,26.4914,0.2990,123,0,0,0.000417,-0.002015,-0.299110,0.018849,0.016038,0.009024,1.7268,-1.4344,-0.6589
11737,11.0,0.002872,-0.000746,-0.299334,0.008086,0.003168,0.008940,1.1524,-0.9555,-0.5706,-0.00027141,-0.00003102,0.00571982,-0.00135422,-0.00162727,0.02807053,-0.1623,-0.3179,-9.8187,-0.017697,-0.014610,0.006729,22.8069,-8.8365,16.5697,26.4914,0.3020,123,0,0,0.000423,-0.002041,-0.299021,0.018972,0.015588,0.008954,1.7311,-1.4483,-0.6532
11749,12.0,0.002869,-0.000748,-0.299138,0.006863,0.001119,0.009405,1.1425,-0.9455,-0.5864,-0.00026139,-0.00006303,0.00572081,-0.00106350,-0.00154354,0.02745306,-0.1716,-0.3424,-9.8295,-0.012585,0.006611,-0.011508,22.8069,-8.8365,16.5697,26.4914,0.3020,123,0,0,0.000441,-0.002091,-0.300672,0.019028,0.013833,-0.010403,1.7355,-1.4671,-0.6544
11760,11.0,0.002809,-0.000756,-0.298961,0.005719,0.000130,0.010248,1.1429,-0.9240,-0.6005,-0.00029205,-0.00012545,0.00572199,-0.00084960,-0.00108992,0.02696479,-0.1190,-0.2792,-9.7805,-0.009847,0.016867,-0.015569,22.8069,-8.8365,16.5697,26.4914,0.2990,120,0,0,0.000455,-0.002051,-0.300792,0.019465,0.012750,-0.010627,1.7499,-1.4638,-0.6742
11771,11.0,0.002779,-0.000771,-0.298774,0.005352,-0.000588,0.011877,1.1334,-0.9124,-0.6185,-0.00028721,-0.00015763,0.00572314,-0.00056653,-0.00105438,0.02650281,-0.0899,-0.2461,-9.7082,-0.014513,0.009945,-0.015773,22.8069,-8.8365,16.5697,26.4914,0.2990,124,0,0,0.000461,-0.002015,-0.299563,0.019842,0.012718,0.004007,1.7526,-1.4492,-0.6836
11782,11.0,0.002751,-0.000797,-0.298636,0.004649,-0.000971,0.013359,1.1206,-0.8982,-0.6338,-0.00028802,-0.00020079,0.00572393,-0.00045177,-0.00090972,0.02649754,-0.1237,-0.2089,-9.6457,-0.021561,0.010849,-0.016344,22.7957,-8.0125,16.3168,26.4914,0.2990,124,0,0,0.000468,-0.001995,-0.299520,0.020764,0.012923,0.004538,1.7543,-1.4491,-0.6967
11793,11.0,0.002774,-0.000810,-0.298662,0.004745,-0.000330,0.012543,1.1166,-0.8984,-0.6464,-0.00028630,-0.00021133,0.00572426,-0.00034364,-0.00086495,0.02762894,-0.1126,-0.1259,-9.6646,-0.006558,-0.003437,-0.012312,22.7957,-8.0125,16.3168,26.4914,0.2990,122,0,0,0.000491,-0.001975,-0.299295,0.021523,0.013655,0.007885,1.7467,-1.4422,-0.7146
11804,11.0,0.002850,-0.000838,-0.298521,0.005413,0.000254,0.013183,1.0955,-0.9042,-0.6534,-0.00023529,-0.00022352,0.00572394,-0.00062193,-0.00121947,0.02764098,-0.1112,-0.0973,-9.7237,-0.019782,-0.013509,-0.005379,22.7957,-8.0125,16.3168,26.4914,0.3010,122,0,0,0.000498,-0.001991,-0.300143,0.021670,0.014243,-0.001381,1.7366,-1.4395,-0.7253
11815,11.0,0.002924,-0.000860,-0.298285,0.005172,0.000714,0.014353,1.0852,-0.9130,-0.6583,-0.00022514,-0.00021734,0.00572356,-0.00068161,-0.00114785,0.02706631,-0.1958,-0.1174,-9.7720,-0.014501,-0.013008,-0.003676,22.7957,-8.0125,16.3168,26.4914,0.3010,122,0,0,0.000508,-0.002032,-0.300081,0.022391,0.015675,-0.000081,1.7349,-1.4531,-0.7332
11826,11.0,0.002907,-0.000861,-0.299652,0.004429,0.001600,-0.003694,1.0777,-0.9050,-0.6747,-0.00017528,-0.00024767,0.00572452,-0.00036015,-0.00138945,0.03648468,-0.1489,-0.0825,-9.8003,0.001198,0.005047,-0.011786,22.7957,-8.0125,16.3168,26.5496,0.3010,126,0,0,0.000532,-0.001860,-0.300083,0.022174,0.018218,-0.000343,1.7248,-1.4713,-0.7480
11837,11.0,0.002780,-0.000845,-0.299637,0.002887,0.003047,-0.002431,1.0871,-0.8785,-0.6844,-0.00017099,-0.00031111,0.00572579,0.00015611,-0.00136042,0.03614189,-0.1129,-0.0425,-9.7169,0.015488,0.027847,-0.006519,22.7957,-8.0125,16.3168,26.5496,0.3000,120,0,0,0.000532,-0.001845,-0.299852,0.022229,0.019131,0.001981,1.7187,-1.4641,-0.7590
11848,11.0,0.002651,-0.000825,-0.299657,0.001323,0.004002,-0.001161,1.0862,-0.8506,-0.6962,-0.00010773,-0.00038066,0.00572702,0.00051175,-0.00187847,0.03614686,-0.1226,-0.0668,-9.6580,0.015029,0.028278,-0.006765,22.7957,-8.0125,16.3168,26.5496,0.3000,126,0,0,0.000522,-0.001795,-0.299830,0.022923,0.021230,0.002348,1.7365,-1.4560,-0.7667
11859,11.0,0.002613,-0.000810,-0.299757,0.001112,0.004194,0.000028,1.0899,-0.8438,-0.6192,-0.00009544,-0.00040025,0.00571329,0.00074390,-0.00181445,0.03675086,-0.1059,-0.1320,-9.5578,0.009148,0.007395,0.001680,22.7957,-8.0125,16.3168,26.5496,0.3000,127,0,0,0.000506,-0.001681,-0.299685,0.023569,0.023743,0.005682,1.7523,-1.4284,-0.7782
11870,11.0,0.002668,-0.000808,-0.299743,0.002293,0.004593,0.002478,1.0803,-0.8473,-0.6177,-0.00003160,-0.00042300,0.00571273,0.00024820,-0.00214741,0.03676593,-0.0665,-0.0879,-9.5505,0.000583,-0.012929,0.006201,22.7957,-8.0125,16.3168,26.5496,0.3010,124,0,0,0.000502,-0.001655,-0.300306,0.023674,0.024142,0.000144,1.7519,-1.4170,-0.7803
11881,11.0,0.002847,-0.000804,-0.299640,0.004412,0.004439,0.004607,1.0786,-0.8801,-0.6107,-0.00001403,-0.00036653,0.00571154,-0.00019915,-0.00201656,0.03634801,-0.1064,-0.1480,-9.6532,0.000980,-0.040987,0.016244,22.8069,-7.1951,17.3472,26.5496,0.3010,126,0,0,0.000500,-0.001730,-0.300201,0.024886,0.025619,0.004625,1.7492,-1.4358,-0.6791
11892,11.0,0.003034,-0.000802,-0.300311,0.006119,0.003560,-0.003610,1.0782,-0.9107,-0.5991,-0.00001599,-0.00032621,0.00571014,-0.00063972,-0.00163492,0.04066910,-0.1334,-0.2243,-9.7470,-0.001826,-0.041399,0.018658,22.8069,-7.1951,17.3472,26.6077,0.3010,119,0,0,0.000499,-0.001823,-0.300090,0.025481,0.026014,0.006313,1.7561,-1.4657,-0.6741
11903,11.0,0.003150,-0.000796,-0.300318,0.006754,0.002908,-0.003652,1.0772,-0.9288,-0.5926,-0.00000416,-0.00030770,0.00570959,-0.00078168,-0.00154881,0.04044887,-0.1487,-0.2136,-9.8095,0.000844,-0.025246,0.015149,22.8069,-7.1951,17.3472,26.6077,0.2990,127,0,0,0.000502,-0.001911,-0.300026,0.025486,0.025513,0.006569,1.7557,-1.4857,-0.6663
11914,11.0,0.003133,-0.000820,-0.300359,0.005473,0.001351,-0.003923,1.0669,-0.9205,-0.5882,-0.00003459,-0.00032855,0.00570982,-0.00038938,-0.00090453,0.04042951,-0.1858,-0.2857,-9.7888,-0.025278,0.009818,0.009935,22.8069,-7.1951,17.3472,26.6077,0.2990,125,0,0,0.000510,-0.002001,-0.298997,0.025725,0.024959,0.014223,1.7637,-1.5165,-0.6544
11925,11.0,0.003025,-0.000825,-0.301198,0.003385,0.000575,-0.012638,1.0607,-0.8951,-0.5933,-0.00002630,-0.00039376,0.00571123,0.00014398,-0.00078086,0.04511679,-0.1760,-0.2361,-9.7060,-0.008194,0.027516,0.001241,22.8069,-7.1951,17.3472,26.6077,0.3020,122,0,0,0.000526,-0.001985,-0.298856,0.025757,0.024497,0.013897,1.7586,-1.5172,-0.6523
11936,11.0,0.002934,-0.000817,-0.301331,0.002233,0.000907,-0.011378,1.0617,-0.8734,-0.6027,-0.00000811,-0.00045904,0.00571239,0.00036911,-0.00094617,0.04511610,-0.1208,-0.1463,-9.6486,0.005798,0.020760,-0.006611,22.8069,-7.1951,17.3472,26.6077,0.3020,126,0,0,0.000539,-0.001863,-0.300416,0.025869,0.024692,-0.003117,1.7650,-1.4893,-0.6581
11947,11.0,0.002953,-0.000801,-0.301390,0.002408,0.001960,-0.009023,1.0714,-0.8767,-0.6051,-0.00000805,-0.00046168,0.00571244,0.00038357,-0.00095054,0.04478015,-0.1250,-0.0837,-9.6117,0.015294,-0.006145,0.002149,22.8069,-7.1951,17.3472,26.5839,0.3020,127,0,0,0.000537,-0.001828,-0.300441,0.025937,0.025193,-0.001845,1.7639,-1.4761,-0.6646
11958,11.0,0.003054,-0.000786,-0.301716,0.003413,0.002752,-0.010328,1.0726,-0.8931,-0.6121,0.00004265,-0.00044447,0.00571200,0.00008515,-0.00134799,0.04614881,-0.1295,-0.0908,-9.6332,0.014079,-0.024385,-0.002914,22.8069,-7.1951,17.3472,26.5839,0.3020,128,0,0,0.000528,-0.001837,-0.300385,0.026405,0.026539,0.000449,1.7798,-1.4835,-0.6690
11969,11.0,0.003205,-0.000761,-0.301784,0.005197,0.003611,-0.009253,1.0830,-0.9238,-0.3731,0.00004765,-0.00039864,0.00566569,-0.00002815,-0.00146326,0.04589737,-0.1045,-0.0921,-9.7132,0.020769,-0.037630,0.016345,22.8069,-7.1951,17.3472,26.5839,0.2980,127,0,0,0.000509,-0.001936,-0.298657,0.027150,0.028441,0.021166,1.7972,-1.5124,-0.6753
11980,11.0,0.003978,-0.000758,-0.301887,0.013428,0.002912,-0.009537,1.0855,-0.9769,-0.3520,0.00004199,-0.00012329,0.00565983,-0.00214533,-0.00123534,0.04592827,-0.1363,-0.2187,-9.7867,0.002394,-0.036944,0.028026,22.7957,-7.6022,16.0578,26.5839,0.2980,123,1,0,0.000499,-0.002009,-0.298443,0.027334,0.028720,0.021631,1.7988,-1.5265,-0.6693
11991,11.0,0.004103,-0.000769,-0.299725,0.012901,0.000479,0.016253,1.0729,-0.9902,-0.3427,0.00005222,-0.00013023,0.00565983,-0.00226886,-0.00133941,0.03302477,-0.1958,-0.3783,-9.8293,-0.018518,-0.022013,0.020885,22.7957,-7.6022,16.0578,26.5839,0.2980,123,0,0,0.000493,-0.002318,-0.298228,0.027889,0.027994,0.021462,1.8046,-1.5542,-0.6109
12003,12.0,0.004113,-0.000752,-0.299532,0.011493,-0.001109,0.015812,1.0917,-0.9806,-0.3402,-0.00004090,-0.00019895,0.00566116,-0.00194711,-0.00061013,0.03300388,-0.1518,-0.3513,-9.8078,0.007773,0.002670,0.006749,22.7957,-7.6022,16.0578,26.5839,0.3010,127,0,0,0.000517,-0.002384,-0.299559,0.027756,0.025523,0.001248,1.8023,-1.5755,-0.5929
12014,11.0,0.004102,-0.000737,-0.299302,0.010077,-0.001995,0.016469,1.0988,-0.9715,-0.3505,-0.00005478,-0.00025670,0.00566317,-0.00157771,-0.00070323,0.03267238,-0.1570,-0.3030,-9.7738,0.008733,0.004265,-0.003312,22.7957,-7.6022,16.0578,26.5839,0.3010,127,0,0,0.000517,-0.002371,-0.299504,0.027677,0.024617,0.001249,1.8166,-1.5710,-0.5906
12025,11.0,0.004144,-0.000728,-0.300104,0.009348,-0.002706,0.004656,1.1122,-0.9725,-0.3581,-0.00012721,-0.00028846,0.00566410,-0.00132441,-0.00018115,0.03812036,-0.1632,-0.3002,-9.8061,0.005380,-0.007554,-0.006978,22.7957,-7.6022,16.0578,26.5839,0.3010,122,0,0,0.000507,-0.002585,-0.299485,0.027758,0.022701,0.000598,1.8405,-1.5728,-0.6027
12036,11.0,0.004161,-0.000752,-0.300028,0.008715,-0.003123,0.004798,1.1012,-0.9676,-0.3699,-0.00013054,-0.00032564,0.00566538,-0.00109247,-0.00020338,0.03796613,-0.1361,-0.2374,-9.7841,-0.018400,0.000977,-0.008025,22.7957,-7.6022,16.0578,26.6420,0.2990,123,0,0,0.000507,-0.002597,-0.299010,0.028084,0.022179,0.005276,1.8501,-1.5822,-0.6112
12047,11.0,0.004094,-0.000779,-0.299972,0.007336,-0.001943,0.005377,1.0831,-0.9444,-0.3862,-0.00007070,-0.00041823,0.00566759,-0.00085269,-0.00073868,0.03797189,-0.1204,-0.0718,-9.7192,-0.015638,0.019634,-0.010793,22.7957,-7.6022,16.0578,26.6420,0.2990,125,0,0,0.000521,-0.002597,-0.298958,0.028198,0.022007,0.004992,1.8431,-1.5760,-0.6187
12058,11.0,0.004048,-0.000824,-0.299339,0.006819,-0.000690,0.013114,1.0637,-0.9286,-0.3911,-0.00005564,-0.00047404,0.00566872,-0.00055124,-0.00071258,0.03485608,-0.0757,-0.0374,-9.6711,-0.028546,0.015595,0.000784,22.7957,-7.6022,16.0578,26.6420,0.2990,117,0,0,0.000547,-0.002532,-0.298813,0.029217,0.024461,0.006307,1.8187,-1.5505,-0.6354
12069,11.0,0.004072,-0.000831,-0.299189,0.006460,0.001014,0.014255,1.0501,-0.9266,-0.3955,0.00004337,-0.00050856,0.00566957,-0.00052132,-0.00152720,0.03487178,-0.1365,-0.0015,-9.6720,0.000212,-0.003754,0.006549,22.7957,-7.6022,16.0578,26.6420,0.3000,126,0,0,0.000563,-0.002513,-0.299341,0.030235,0.026466,0.000753,1.8104,-1.5458,-0.6387
12080,11.0,0.004175,-0.000808,-0.298997,0.006776,0.002286,0.014865,1.0602,-0.9468,-0.0483,0.00004246,-0.00049221,0.00559466,-0.00029629,-0.00176606,0.03468584,-0.1654,-0.0679,-9.7555,0.021326,-0.025052,0.015775,24.0371,-6.7827,16.5738,26.6420,0.3000,129,0,0,0.000562,-0.002553,-0.299277,0.030932,0.029529,0.002636,1.8011,-1.5563,-0.4737
12091,11.0,0.004278,-0.000811,-0.299421,0.006776,0.001744,0.007659,1.0574,-0.9632,-0.0390,0.00003949,-0.00046282,0.00559425,-0.00018122,-0.00150892,0.03784558,-0.1960,-0.2079,-9.8047,-0.005512,-0.020567,0.020449,24.0371,-6.7827,16.5738,26.6420,0.3000,121,0,0,0.000557,-0.002599,-0.299208,0.030740,0.029962,0.003178,1.8000,-1.5664,-0.4686
12102,11.0,0.003698,-0.000808,-0.299317,-0.000958,0.000411,0.007017,1.0544,-0.9379,-0.0389,0.00004528,-0.00075030,0.00560053,0.00152302,-0.00147072,0.03767004,-0.2096,-0.2960,-9.8530,-0.003680,-0.005014,0.019075,24.0371,-6.7827,16.5738,26.6420,0.2990,126,-1,0,0.000562,-0.002645,-0.299178,0.030662,0.030059,0.002749,1.8045,-1.5834,-0.4609
12113,11.0,0.003639,-0.000823,-0.299244,-0.001545,-0.001011,0.006288,1.0537,-0.9261,-0.0379,-0.00002013,-0.00076791,0.00560062,0.00168286,-0.00082596,0.03765425,-0.1655,-0.3112,-9.8332,-0.015789,0.015583,0.002590,24.0371,-6.7827,16.5738,26.6420,0.2990,125,0,0,0.000582,-0.002175,-0.298813,0.030344,0.029906,0.003909,1.8109,-1.5897,-0.4504
12124,11.0,0.003521,-0.000831,-0.299010,-0.002591,-0.001798,0.008678,1.0484,-0.9034,-0.0461,-0.00002309,-0.00081339,0.00560190,0.00193290,-0.00085697,0.03679039,-0.1479,-0.2591,-9.7223,-0.009119,0.028023,-0.004221,24.0371,-6.7827,16.5738,26.6420,0.2990,129,0,0,0.000597,-0.002135,-0.298777,0.030265,0.029241,0.003299,1.8095,-1.5753,-0.4504
12135,11.0,0.003433,-0.000846,-0.298908,-0.003454,-0.001991,0.009825,1.0440,-0.8884,-0.0558,-0.00004037,-0.00082864,0.00560267,0.00217675,-0.00074963,0.03678411,-0.1723,-0.2050,-9.6652,-0.010750,0.021148,-0.007837,24.0371,-6.7827,16.5738,26.6420,0.3000,129,0,0,0.000605,-0.002075,-0.298698,0.030620,0.029062,0.004105,1.8114,-1.5643,-0.4553
12146,11.0,0.003448,-0.000829,-0.298762,-0.002666,-0.001469,0.011156,1.0556,-0.8942,-0.0684,-0.00005743,-0.00080513,0.00560240,0.00203900,-0.00085152,0.03660672,-0.1298,-0.1684,-9.6865,0.015440,-0.006920,-0.014758,24.0371,-6.7827,16.5738,26.6420,0.3000,127,0,0,0.000619,-0.001998,-0.299334,0.030842,0.029547,-0.001295,1.8117,-1.5441,-0.4688
12157,11.0,0.003515,-0.000787,-0.299332,-0.001567,-0.000041,0.003424,1.0757,-0.9105,-0.0817,-0.00003564,-0.00076672,0.00560211,0.00180995,-0.00132024,0.04027112,-0.1468,-0.0987,-9.7362,0.037872,-0.021537,-0.012572,24.0371,-6.7827,16.5738,26.6420,0.3000,124,0,0,0.000613,-0.002008,-0.299309,0.030799,0.029641,-0.000184,1.8172,-1.5427,-0.4801
12167,10.0,0.003563,-0.000757,-0.299279,-0.000635,0.000830,0.003703,1.0926,-0.9215,-0.0867,-0.00004867,-0.00073810,0.00560172,0.00164702,-0.00139612,0.04017497,-0.1307,-0.1297,-9.7627,0.027128,-0.015453,-0.003489,24.0371,-6.7827,16.5738,26.6658,0.3000,128,0,0,0.000591,-0.002047,-0.299309,0.031091,0.030749,0.000148,1.8444,-1.5590,-0.4913
12178,11.0,0.004165,-0.000776,-0.299240,0.006327,-0.000098,0.003466,1.0849,-0.9428,-0.0670,-0.00007486,-0.00047120,0.00559428,-0.00000726,-0.00103449,0.04019680,-0.1365,-0.2527,-9.7875,-0.018164,0.004355,0.014994,21.5619,-8.0136,16.3147,26.6658,0.3000,120,1,0,0.000574,-0.002086,-0.299571,0.031427,0.031464,-0.002786,1.8615,-1.5713,-0.4985
12189,11.0,0.004059,0.000304,-0.299568,0.005196,0.011305,-0.000002,1.1027,-0.9134,-0.1439,-0.00057689,-0.00055650,0.00562180,0.00041364,-0.00372364,0.04216427,-0.0796,-0.2477,-9.6864,-0.046341,0.032784,0.019606,21.5619,-8.0136,16.3147,26.6658,0.3000,131,0,1,0.000590,-0.002305,-0.299600,0.031476,0.030464,-0.003107,1.8498,-1.5596,-0.5383
12200,11.0,0.004504,0.000273,-0.299557,0.010347,0.009069,0.002032,1.0767,-0.8951,-0.1194,-0.00053844,-0.00042657,0.00561546,-0.00095603,-0.00308025,0.04217514,-0.0656,-0.2420,-9.5804,-0.037833,0.044685,0.021092,21.5619,-8.0136,16.3147,26.6658,0.3000,127,1,0,0.000383,-0.002257,-0.299598,0.031688,0.030385,-0.002323,1.8311,-1.5473,-0.5306
12211,11.0,0.004421,0.000302,-0.299492,0.008386,0.007315,0.005616,1.0807,-0.8736,-0.1215,-0.00050787,-0.00051865,0.00561753,-0.00045342,-0.00291110,0.04203279,-0.1271,-0.2753,-9.4647,0.010322,0.020479,0.008001,21.5619,-8.0136,16.3147,26.6658,0.3000,126,0,0,0.000427,-0.002319,-0.299680,0.032970,0.029686,0.000770,1.7989,-1.4927,-0.5136
12222,11.0,0.005169,0.000342,-0.299138,0.015490,0.005563,0.012105,1.0932,-0.9215,-0.1076,-0.00049306,-0.00021101,0.00560799,-0.00213450,-0.00287176,0.04066138,-0.1638,-0.3083,-9.4642,0.021510,-0.032186,-0.000476,21.5619,-8.0136,16.3147,26.6658,0.2990,122,1,0,0.000425,-0.002263,-0.299658,0.033276,0.029298,0.003633,1.8096,-1.4838,-0.5115
12233,11.0,0.005464,0.000369,-0.298992,0.016510,0.004606,0.014012,1.1013,-0.9678,-0.1111,-0.00047852,-0.00015116,0.00560589,-0.00245187,-0.00279689,0.04065314,-0.1925,-0.2423,-9.5939,0.014279,-0.065286,-0.005094,21.5619,-8.0136,16.3147,26.7240,0.2990,132,0,0,0.000409,-0.002631,-0.299009,0.032666,0.026898,0.013965,1.8380,-1.5275,-0.5204
12244,11.0,0.005783,0.000399,-0.298845,0.017693,0.004281,0.012783,1.1139,-1.0209,-0.1140,-0.00047592,-0.00006652,0.00560380,-0.00265075,-0.00269083,0.04065510,-0.2062,-0.2031,-9.8771,0.019393,-0.071360,-0.002697,21.5619,-8.0136,16.3147,26.7240,0.2990,124,0,0,0.000401,-0.002554,-0.298866,0.032530,0.027382,0.014552,1.8575,-1.5743,-0.5294
12255,11.0,0.005904,0.000401,-0.298813,0.016472,0.003294,0.009210,1.1101,-1.0314,-0.1208,-0.00045610,-0.00010078,0.00560443,-0.00246693,-0.00257592,0.04112649,-0.2199,-0.2454,-9.9883,-0.003908,-0.021744,-0.002983,21.5619,-8.0136,16.3147,26.7240,0.2990,124,0,0,0.000396,-0.002796,-0.298596,0.031866,0.026837,0.011566,1.8727,-1.6430,-0.5400
12267,12.0,0.005789,0.000400,-0.298712,0.012723,0.001530,0.007595,1.1115,-0.9953,-0.1375,-0.00051574,-0.00023039,0.00560873,-0.00153931,-0.00187893,0.04109621,-0.2073,-0.3218,-9.8970,-0.010880,0.036382,-0.008945,21.5619,-8.0136,16.3147,26.7240,0.2990,128,0,0,0.000410,-0.002343,-0.298634,0.031388,0.027825,0.007769,1.8751,-1.6470,-0.5471
12278,11.0,0.005574,0.000403,-0.298626,0.008504,-0.000018,0.007574,1.1089,-0.9459,-0.1645,-0.00051253,-0.00040093,0.00561460,-0.00068589,-0.00185408,0.04106448,-0.1989,-0.3272,-9.7677,-0.004780,0.053428,-0.018666,23.6245,-7.6033,16.5738,26.7240,0.2990,128,0,0,0.000421,-0.002269,-0.298562,0.031294,0.027336,0.006298,1.8769,-1.6316,-0.5550
12289,11.0,0.005417,0.000409,-0.298738,0.006072,0.000671,0.007015,1.1093,-0.9085,-0.1917,-0.00047645,-0.00054346,0.00561867,-0.00021277,-0.00213534,0.04207557,-0.1224,-0.1241,-9.6010,0.006996,0.037086,-0.025188,23.6245,-7.6033,16.5738,26.7240,0.2990,118,0,0,0.000436,-0.002052,-0.298436,0.031197,0.027120,0.006671,1.8880,-1.5783,-0.5215
12300,11.0,0.005412,0.000420,-0.298643,0.006067,0.001971,0.009828,1.1164,-0.9059,-0.0769,-0.00047423,-0.00057983,0.00558419,0.00010844,-0.00222071,0.04206038,-0.0773,-0.0636,-9.5153,0.012610,0.000057,-0.017724,23.6245,-7.6033,16.5738,26.7240,0.3000,130,0,0,0.000437,-0.001971,-0.299192,0.031256,0.027874,-0.000513,1.8837,-1.5495,-0.5381
12311,11.0,0.006190,0.000419,-0.298524,0.014838,0.003177,0.011777,1.1058,-0.9511,-0.0674,-0.00037089,-0.00029504,0.00557563,-0.00207599,-0.00286016,0.04211141,-0.0597,-0.0363,-9.5922,0.002689,-0.036220,0.003457,23.6245,-7.6033,16.5738,26.7002,0.3000,130,1,0,0.000428,-0.001969,-0.299185,0.032152,0.029565,0.001871,1.8977,-1.5515,-0.5518
12322,11.0,0.007085,0.000397,-0.298664,0.023177,0.003564,0.009247,1.0929,-1.0186,-0.0487,-0.00034160,0.00006074,0.00556717,-0.00382816,-0.00268730,0.04346309,-0.1419,-0.0923,-9.7095,-0.016393,-0.057788,0.021443,23.6245,-7.6033,16.5738,26.7002,0.2990,126,1,0,0.000426,-0.002609,-0.299097,0.033131,0.030680,0.005316,1.8845,-1.5866,-0.5521
12333,11.0,0.007983,0.000362,-0.298571,0.030414,0.002624,0.007552,1.0716,-1.0794,-0.0258,-0.00031939,0.00036792,0.00555922,-0.00543491,-0.00241808,0.04348724,-0.1694,-0.2061,-9.9173,-0.031290,-0.053953,0.026957,23.6245,-7.6033,16.5738,26.7002,0.2990,131,1,0,0.000442,-0.002970,-0.298852,0.032993,0.030287,0.007665,1.8578,-1.6138,-0.5434
12344,11.0,0.008120,0.000353,-0.298492,0.028131,0.001603,0.004796,1.0625,-1.0847,-0.0203,-0.00030205,0.00027081,0.00556122,-0.00496550,-0.00233313,0.04341855,-0.2041,-0.2485,-10.0251,-0.012269,-0.021181,0.018448,23.6245,-7.6033,16.5738,26.7002,0.2990,120,0,0,0.000481,-0.003426,-0.298716,0.033089,0.029497,0.004486,1.8268,-1.6686,-0.5205
12354,10.0,0.008049,0.000357,-0.298694,0.024042,0.001083,-0.000516,1.0673,-1.0617,-0.0257,-0.00032811,0.00011605,0.00556545,-0.00395814,-0.00204255,0.04453751,-0.2171,-0.2354,-10.0160,0.002033,0.018309,0.005187,23.6245,-7.6033,16.5738,26.7002,0.2990,133,0,0,0.000492,-0.003214,-0.298670,0.032944,0.029928,0.001868,1.8294,-1.6782,-0.5159
12365,11.0,0.007194,0.000398,-0.298692,0.011808,0.001159,-0.001755,1.0881,-0.9767,-0.0534,-0.00034209,-0.00044220,0.00557984,-0.00132071,-0.00209645,0.04440932,-0.1698,-0.2104,-9.8918,0.030123,0.057816,-0.009462,23.6245,-7.6033,16.5738,26.6764,0.3010,130,-1,0,0.000496,-0.003161,-0.298664,0.032553,0.029782,-0.000614,1.8330,-1.6638,-0.5163
12377,12.0,0.006288,0.000430,-0.298703,0.000644,0.001043,-0.000200,1.1067,-0.8821,-0.0808,-0.00036764,-0.00098578,0.00559333,0.00100561,-0.00200444,0.04436160,-0.1222,-0.2167,-9.6330,0.022123,0.067368,-0.011346,21.9893,-7.6076,16.8248,26.6764,0.3010,128,-1,0,0.000476,-0.002416,-0.300148,0.032629,0.031957,-0.016572,1.8739,-1.5923,-0.5322
12388,11.0,0.006108,0.000449,-0.299898,-0.001349,0.000609,-0.011583,1.1149,-0.8485,-0.0903,-0.00037314,-0.00107986,0.00559596,0.00154343,-0.00191666,0.05007033,-0.1388,-0.2365,-9.5192,0.011814,0.039230,-0.004418,21.9893,-7.6076,16.8248,26.6764,0.3010,132,0,0,0.000468,-0.002029,-0.300307,0.033222,0.033075,-0.015250,1.8936,-1.5578,-0.5305
12400,12.0,0.006218,0.000450,-0.300025,-0.000019,0.000435,-0.009641,1.1157,-0.8706,-0.0924,-0.00037610,-0.00101737,0.00559417,0.00124017,-0.00186566,0.05007492,-0.1474,-0.2002,-9.5949,0.000025,-0.025506,-0.000892,21.9893,-7.6076,16.8248,26.6764,0.3000,131,0,0,0.000469,-0.001914,-0.300044,0.033218,0.033194,-0.005179,1.9087,-1.5277,-0.5404
12411,11.0,0.006444,0.000432,-0.300111,0.002459,-0.000412,-0.009661,1.1041,-0.9107,-0.0545,-0.00036644,-0.00090423,0.00558149,0.00074417,-0.00185012,0.04997907,-0.1508,-0.2503,-9.7813,-0.016958,-0.048691,0.009569,21.9893,-7.6076,16.8248,26.6764,0.3000,127,0,0,0.000478,-0.001985,-0.300072,0.033023,0.032801,-0.003769,1.9017,-1.5412,-0.5432
12422,11.0,0.006558,0.000413,-0.300048,0.003498,-0.001966,-0.008762,1.1024,-0.9273,-0.0472,-0.00045112,-0.00086657,0.00557958,0.00048885,-0.00117710,0.04915264,-0.1485,-0.3387,-9.8574,-0.019933,-0.022420,0.008530,21.9893,-7.6076,16.8248,26.6764,0.3000,124,0,0,0.000490,-0.002089,-0.300110,0.033245,0.032364,-0.003833,1.8968,-1.5714,-0.5421
12433,11.0,0.007084,0.000407,-0.300135,0.008792,-0.002958,-0.009815,1.0992,-0.9326,-0.0422,-0.00046273,-0.00062150,0.00557207,-0.00063518,-0.00124184,0.04909562,-0.1690,-0.3047,-9.8690,-0.006943,0.023797,-0.006354,21.9893,-7.6076,16.8248,26.6764,0.3000,127,1,0,0.000518,-0.002383,-0.299929,0.033434,0.029979,-0.003025,1.8851,-1.5847,-0.5408
12444,11.0,0.006918,0.000413,-0.300243,0.006288,-0.002598,-0.009914,1.1067,-0.8940,-0.0603,-0.00048689,-0.00077450,0.00557638,-0.00018114,-0.00129350,0.04908776,-0.1200,-0.1970,-9.7673,0.007454,0.038339,-0.014778,21.9893,-7.6076,16.8248,26.6420,0.3000,125,0,0,0.000526,-0.002554,-0.299965,0.033196,0.028864,-0.004118,1.8851,-1.5644,-0.5470
12455,11.0,0.006734,0.000426,-0.300086,0.004459,-0.000359,-0.005633,1.1204,-0.8571,-0.0757,-0.00050177,-0.00090479,0.00558011,0.00039459,-0.00138575,0.04788707,-0.0578,-0.0159,-9.6470,0.018907,0.039769,-0.012057,21.9893,-7.6076,16.8248,26.6420,0.3000,125,0,0,0.000524,-0.002467,-0.299967,0.033649,0.029439,-0.003913,1.8956,-1.5449,-0.5584
12466,11.0,0.006606,0.000459,-0.300135,0.003043,0.001768,-0.003248,1.1291,-0.8291,-0.0776,-0.00040668,-0.00102805,0.00558279,0.00055893,-0.00227120,0.04790140,-0.0871,-0.0088,-9.5466,0.032788,0.024968,0.009100,21.9893,-7.6076,16.8248,26.6420,0.3000,126,0,0,0.000503,-0.002289,-0.299851,0.034913,0.033538,0.000386,1.9128,-1.4906,-0.5748
12477,11.0,0.006649,0.000446,-0.300122,0.002779,0.001560,-0.000192,1.1205,-0.8336,-0.0608,-0.00038991,-0.00102230,0.00558236,0.00053047,-0.00219743,0.04774105,-0.1733,-0.1763,-9.5181,-0.011410,-0.006875,0.031530,21.9781,-8.4250,17.0900,26.6420,0.3000,131,0,0,0.000493,-0.002222,-0.299802,0.034866,0.034697,0.002962,1.9108,-1.4677,-0.5723
12488,11.0,0.006796,0.000400,-0.300003,0.003791,0.000532,0.003040,1.0956,-0.8566,-0.0403,-0.00038084,-0.00095066,0.00558035,0.00034544,-0.00189997,0.04723772,-0.1672,-0.2250,-9.5809,-0.039606,-0.026642,0.035058,21.9781,-8.4250,17.0900,26.6420,0.3000,126,0,0,0.000498,-0.002224,-0.299760,0.034711,0.035590,0.005467,1.9164,-1.4691,-0.6237
12499,11.0,0.007029,0.000351,-0.299945,0.005716,-0.000510,0.003184,1.0676,-0.8937,-0.0146,-0.00035490,-0.00085333,0.00557744,-0.00009917,-0.00178580,0.04712152,-0.1651,-0.2326,-9.7741,-0.040792,-0.046085,0.042137,21.9781,-8.4250,17.0900,26.6420,0.3000,123,0,0,0.000556,-0.002368,-0.299673,0.034175,0.035212,0.007885,1.8722,-1.5028,-0.5907
12510,11.0,0.006551,0.000311,-0.299916,-0.000376,-0.002382,0.002034,1.0552,-0.8875,0.0007,-0.00043777,-0.00111831,0.00558430,0.00119589,-0.00099716,0.04708386,-0.1677,-0.3435,-9.8613,-0.036555,-0.025238,0.040637,21.9781,-8.4250,17.0900,26.5839,0.3000,126,-1,0,0.000588,-0.002475,-0.299594,0.033871,0.034595,0.007828,1.8450,-1.5254,-0.5703
12522,12.0,0.005820,0.000233,-0.299873,-0.008263,-0.003845,0.002588,1.0116,-0.8325,-0.0880,-0.00041514,-0.00148732,0.00562631,0.00273487,-0.00080692,0.04697890,-0.1370,-0.2632,-9.7288,-0.062022,0.032852,0.035963,21.9781,-8.4250,17.0900,26.5839,0.3000,135,-1,0,0.000650,-0.002096,-0.299389,0.033916,0.033450,0.006785,1.8171,-1.5437,-0.5323
12533,11.0,0.005677,0.000130,-0.299835,-0.008629,-0.004598,0.004244,0.9604,-0.8019,-0.0664,-0.00039395,-0.00152710,0.00562633,0.00276134,-0.00059923,0.04697435,-0.1158,-0.1805,-9.6101,-0.078907,0.041521,0.038081,21.9781,-8.4250,17.0900,26.5839,0.3000,129,0,0,0.000690,-0.002046,-0.299580,0.034292,0.033032,0.004148,1.7874,-1.5301,-0.5145
12544,11.0,0.005648,0.000059,-0.299717,-0.007542,-0.006152,0.007850,0.9239,-0.7963,-0.0444,-0.00038776,-0.00149477,0.00562525,0.00261294,-0.00057767,0.04672193,-0.0959,-0.2896,-9.4917,-0.057012,0.012261,0.038053,21.9781,-8.4250,17.0900,26.5839,0.3000,129,0,0,0.000792,-0.001919,-0.299420,0.035168,0.033002,0.007729,1.7018,-1.4834,-0.4740
12555,11.0,0.006424,-0.000000,-0.299789,0.001589,-0.007336,0.008446,0.9054,-0.8522,-0.0123,-0.00047529,-0.00104857,0.00561124,0.00077121,-0.00002906,0.04750521,-0.1634,-0.2884,-9.5218,-0.045864,-0.029635,0.022700,21.9781,-8.4250,17.0900,26.5839,0.3000,127,1,0,0.000830,-0.001915,-0.299259,0.035658,0.032063,0.011067,1.6732,-1.4827,-0.4571
12566,11.0,0.007318,0.001113,-0.299647,0.010684,0.004406,0.010187,0.9364,-0.9241,-0.0057,-0.00108259,-0.00060461,0.00560850,-0.00122929,-0.00278450,0.04738995,-0.1977,-0.2890,-9.6449,-0.031723,-0.056167,0.005878,21.9781,-8.4250,17.0900,26.5839,0.3000,125,1,1,0.000861,-0.002214,-0.299517,0.035607,0.030255,0.009243,1.6482,-1.5004,-0.4482
12577,11.0,0.008245,0.001061,-0.299538,0.019678,0.004928,0.009693,0.8954,-0.9952,0.0077,-0.00093239,-0.00020517,0.00559651,-0.00312346,-0.00324896,0.04743076,-0.1508,0.0065,-9.8080,-0.039964,-0.060835,0.008095,23.6170,-8.8320,16.3189,26.5839,0.3000,122,1,0,0.000446,-0.002947,-0.299260,0.033179,0.027627,0.011190,1.6137,-1.5615,-0.4473
12588,11.0,0.008348,0.001006,-0.299671,0.019955,0.003957,0.006599,0.8616,-0.9981,0.0099,-0.00087707,-0.00026733,0.00559721,-0.00283251,-0.00297693,0.04846507,-0.0262,-0.1350,-9.7921,-0.047240,-0.013014,0.010803,23.6170,-8.8320,16.3189,26.6077,0.3000,126,0,0,0.000476,-0.003314,-0.299151,0.033214,0.027679,0.010669,1.5716,-1.5841,-0.4949
12600,12.0,0.008339,0.000952,-0.299594,0.016867,0.002076,0.006269,0.8282,-0.9772,0.0137,-0.00087627,-0.00036901,0.00559954,-0.00210730,-0.00239702,0.04844248,-0.2080,-0.2244,-9.7847,-0.052047,0.019269,0.014008,23.6170,-8.8320,16.3189,26.6077,0.2990,125,0,0,0.000501,-0.003365,-0.298972,0.034738,0.028321,0.011166,1.5490,-1.5957,-0.4925
12610,10.0,0.007758,0.000898,-0.299485,0.008160,0.002460,0.006861,0.8032,-0.9459,0.0020,-0.00083460,-0.00074867,0.00560751,-0.00044527,-0.00221326,0.04820445,-0.2174,-0.0162,-9.7564,-0.038719,-0.001595,-0.004014,23.6170,-8.8320,16.3189,26.6077,0.2990,128,-1,0,0.000585,-0.003087,-0.298655,0.033726,0.028871,0.011917,1.4976,-1.5729,-0.4866
12622,12.0,0.007848,0.002063,-0.299141,0.008526,0.015946,0.010367,0.8493,-0.9537,-0.0237,-0.00135206,-0.00078053,0.00561913,-0.00064910,-0.00516137,0.04713711,-0.1184,-0.0453,-9.7194,0.005941,-0.017854,-0.011104,23.6170,-8.8320,16.3189,26.6077,0.2990,125,0,1,0.000616,-0.002869,-0.298535,0.033272,0.030204,0.011953,1.4668,-1.5727,-0.4946
12633,11.0,0.007278,0.002080,-0.298989,0.001106,0.015116,0.011218,0.8455,-0.9310,-0.0943,-0.00126860,-0.00111778,0.00564500,0.00075151,-0.00474987,0.04694821,-0.1745,-0.0621,-9.7231,0.002365,-0.010410,-0.013383,23.6170,-8.8320,16.3189,26.6077,0.3000,127,-1,0,0.000386,-0.002907,-0.298414,0.033043,0.031443,0.012284,1.4699,-1.5821,-0.5051
12644,11.0,0.007326,0.002096,-0.298866,0.001611,0.014696,0.011077,0.8334,-0.9378,-0.1041,-0.00111664,-0.00110769,0.00564356,0.00061601,-0.00493194,0.04695642,-0.1472,-0.0211,-9.7756,0.004059,-0.011263,-0.009407,23.6170,-8.8320,16.3189,26.4914,0.3000,127,0,0,0.000165,-0.002469,-0.299137,0.032281,0.033946,0.003373,1.4705,-1.5841,-0.5264
12655,11.0,0.007349,0.002109,-0.299339,0.001699,0.013935,0.003993,0.8280,-0.9404,-0.1087,-0.00103866,-0.00110507,0.00564194,0.00064480,-0.00455787,0.04948137,-0.1579,-0.0633,-9.7794,0.000657,-0.005016,-0.004676,23.6170,-8.8320,16.3189,26.4914,0.3000,127,0,0,0.000169,-0.002498,-0.298971,0.032499,0.035396,0.004029,1.4668,-1.5883,-0.5433
12666,11.0,0.007291,0.002092,-0.299295,0.001400,0.012876,0.003947,0.8011,-0.9221,-0.1044,-0.00090486,-0.00117759,0.00564068,0.00058739,-0.00450418,0.04948336,-0.1038,-0.0618,-9.7643,-0.023084,0.016351,0.008209,23.2158,-8.4250,17.0900,26.4914,0.3000,131,0,0,0.000178,-0.002496,-0.299444,0.032314,0.035511,-0.001660,1.4555,-1.5825,-0.5465
12677,11.0,0.007213,0.002070,-0.299162,0.001287,0.011660,0.005146,0.7770,-0.9040,-0.0936,-0.00081947,-0.00122776,0.00563969,0.00079971,-0.00414266,0.04908594,-0.0687,-0.0841,-9.7486,-0.027520,0.021066,0.018935,23.2158,-8.4250,17.0900,26.4914,0.3000,130,0,0,0.000193,-0.002471,-0.299389,0.033067,0.036351,-0.000896,1.4470,-1.5760,-0.5448
12688,11.0,0.007772,0.000905,-0.299558,0.007750,-0.002567,0.000401,0.7111,-0.9125,-0.0756,-0.00016720,-0.00098175,0.00562501,-0.00056861,-0.00125978,0.05099061,-0.1032,-0.1373,-9.7098,-0.018138,0.016466,0.023724,23.2158,-8.4250,17.0900,26.4914,0.3000,130,1,-1,0.000464,-0.002625,-0.299407,0.034919,0.036239,-0.000876,1.4110,-1.5431,-0.5492
12699,11.0,0.008390,0.000879,-0.299480,0.014232,-0.002623,0.002085,0.6999,-0.9317,-0.0636,-0.00016922,-0.00071276,0.00562200,-0.00173141,-0.00126617,0.05071276,-0.0951,-0.1302,-9.6798,-0.017871,0.004756,0.031521,23.2158,-8.4250,17.0900,26.4914,0.3000,123,1,0,0.000715,-0.002827,-0.299589,0.035630,0.035274,-0.002175,1.3960,-1.5263,-0.5360
12710,11.0,0.008432,0.000841,-0.299453,0.013851,-0.001768,0.002821,0.6765,-0.9220,-0.0435,-0.00010539,-0.00082553,0.00562234,-0.00185304,-0.00164581,0.05072178,-0.0690,-0.0200,-9.6930,-0.024826,-0.003242,0.034585,23.2158,-8.4250,17.0900,26.4914,0.3000,131,0,0,0.000725,-0.003050,-0.299607,0.036271,0.034706,-0.001454,1.3872,-1.5249,-0.5212
12721,11.0,0.009166,0.000789,-0.299650,0.020915,-0.000864,0.000914,0.6522,-0.9577,-0.0233,-0.00008477,-0.00053218,0.00562013,-0.00310530,-0.00154677,0.05171099,-0.0948,0.0058,-9.6876,-0.035179,-0.017837,0.051107,23.2158,-8.4250,17.0900,26.4914,0.3000,127,1,0,0.000766,-0.003324,-0.299520,0.037340,0.035409,0.001063,1.3459,-1.5215,-0.4839
12733,12.0,0.009342,0.001903,-0.299632,0.020427,0.011512,0.002042,0.6748,-0.9690,0.0100,-0.00065616,-0.00059218,0.00562865,-0.00308134,-0.00397987,0.05173696,-0.1321,-0.1123,-9.6632,-0.036536,-0.024812,0.057472,23.2158,-8.4250,17.0900,26.4544,0.3000,133,0,1,0.000565,-0.003366,-0.299625,0.036725,0.035727,0.000548,1.3099,-1.5196,-0.4580
12744,11.0,0.009541,0.003047,-0.299501,0.020176,0.021977,0.003996,0.7028,-0.9907,0.0026,-0.00117450,-0.00060519,0.00564849,-0.00307217,-0.00616111,0.05131242,-0.1661,-0.1893,-9.6925,-0.025568,-0.036517,0.047913,23.2158,-8.4250,17.0900,26.4544,0.3000,125,0,1,0.000152,-0.003491,-0.299596,0.035543,0.035275,0.002182,1.2678,-1.5415,-0.3995
12755,11.0,0.009158,0.003063,-0.299717,0.013422,0.018532,0.000914,0.6947,-0.9956,0.0288,-0.00112391,-0.00090583,0.00564989,-0.00170311,-0.00523190,0.05234221,-0.1832,-0.2269,-9.7610,-0.010246,-0.047914,0.035824,23.2158,-8.4250,17.0900,26.4544,0.3000,123,-1,0,-0.000063,-0.003575,-0.299440,0.034846,0.034225,0.004201,1.2567,-1.5640,-0.3775
12767,12.0,0.009405,0.003099,-0.299632,0.014196,0.015132,0.000738,0.6838,-1.0323,0.0433,-0.00103408,-0.00086128,0.00564756,-0.00189358,-0.00485420,0.05199673,-0.1895,-0.2459,-9.8499,-0.005611,-0.048439,0.025663,22.7995,-6.3724,16.8329,26.4544,0.3000,131,0,0,-0.000047,-0.003438,-0.299646,0.034424,0.033577,0.001445,1.2556,-1.5855,-0.3591
12778,11.0,0.008239,0.003123,-0.299633,-0.000477,0.011678,-0.000902,0.6941,-0.9874,0.0537,-0.00108555,-0.00151756,0.00565849,0.00101408,-0.00371440,0.05192459,-0.1974,-0.3229,-9.9019,0.001195,-0.016960,0.019314,22.7995,-6.3724,16.8329,26.4544,0.3000,131,-2,0,-0.000027,-0.003613,-0.299544,0.033982,0.030809,0.000214,1.2574,-1.6312,-0.3360
12789,11.0,0.008116,0.003154,-0.299746,-0.002363,0.008448,-0.003315,0.6954,-0.9643,0.0521,-0.00104247,-0.00157556,0.00565892,0.00126052,-0.00353375,0.05230562,-0.2278,-0.3329,-9.8711,0.006862,0.027164,0.002416,22.7995,-6.3724,16.8329,26.4544,0.3000,127,0,0,-0.000021,-0.003159,-0.299549,0.033899,0.030133,-0.001343,1.2635,-1.6416,-0.2038
