timestamp_ms,dt_ms,pos_x,pos_y,pos_z,vel_x,vel_y,vel_z,roll_deg,pitch_deg,yaw_deg,gyro_bias_x,gyro_bias_y,gyro_bias_z,accel_bias_x,accel_bias_y,accel_bias_z,raw_accel_x,raw_accel_y,raw_accel_z,raw_gyro_x,raw_gyro_y,raw_gyro_z,raw_mag_x,raw_mag_y,raw_mag_z,raw_baro_alt,raw_tof,raw_flow_squal,raw_flow_dx,raw_flow_dy,dev_pos_x,dev_pos_y,dev_pos_z,dev_vel_x,dev_vel_y,dev_vel_z,dev_roll_deg,dev_pitch_deg,dev_yaw_deg
21936,10.0,-0.000046,-0.000265,-0.294998,-0.002484,-0.026964,-0.001464,-0.0272,-0.0064,0.0257,0.00000000,0.00000000,0.00468900,-0.37583360,0.17251155,0.00000000,0.0515,0.0879,-9.8826,-0.057750,-0.008586,0.049034,-3.7335,25.1164,21.9254,-34.3337,0.2950,187,0,0,0.000047,-0.004022,-0.294536,-0.000726,-0.024591,0.000685,-0.8728,1.6404,4.0569
21948,12.0,-0.000045,-0.000601,-0.295008,0.000843,-0.030466,-0.000280,0.2693,-0.5256,0.1135,-0.00000007,-0.00000212,0.00468889,-0.37238112,0.17356485,0.00000011,0.1662,-0.0015,-9.7052,-0.057961,-0.039021,0.038627,-3.7335,25.1164,21.9254,-34.3337,0.2950,187,0,0,0.000054,-0.004281,-0.294527,0.001885,-0.027208,0.001241,-0.8754,1.5901,4.0525
21959,11.0,0.000016,-0.000946,-0.295002,0.002245,-0.032562,0.001706,0.2663,-1.7954,0.1854,-0.00000026,0.00000420,0.00468861,-0.36793977,0.17369212,-0.00005364,0.2435,-0.0449,-9.5985,-0.059637,-0.048630,0.027093,-3.7335,25.1164,21.9254,-34.3337,0.2950,189,0,0,0.000083,-0.004670,-0.294697,0.003964,-0.032327,0.001708,-0.8786,1.5298,4.0533
21970,11.0,0.000098,-0.001324,-0.294883,0.005218,-0.021967,0.007017,-1.5895,-2.7880,-0.0288,0.00002465,0.00001402,0.00469058,-0.36154324,0.16555923,-0.00027256,0.2965,-0.0859,-9.5253,-0.026952,-0.053000,0.018956,-3.7335,25.1164,21.9254,-34.3337,0.2950,189,0,0,0.000121,-0.004909,-0.294663,0.005512,-0.023453,0.004557,-0.9868,1.4804,4.0491
21982,12.0,0.000233,-0.001614,-0.294785,0.006752,-0.006324,0.009389,-4.0065,-4.1284,-0.2693,0.00009531,0.00005145,0.00469504,-0.35581383,0.15496662,-0.00169521,0.2565,-0.0687,-9.5706,0.009099,-0.036455,0.010860,-3.7335,25.1164,21.9254,-34.3337,0.2950,186,0,0,0.000173,-0.005045,-0.294581,0.005663,-0.010753,0.008142,-1.0885,2.1226,2.8722
21992,10.0,0.000342,-0.001693,-0.294689,0.007109,0.002335,0.010936,-5.3647,-5.0802,-0.4767,0.00015788,0.00008908,0.00470005,-0.34524539,0.14357273,-0.00469172,0.2381,-0.0119,-9.6530,0.022999,-0.013601,0.014414,-3.7335,25.1164,21.9254,-34.3337,0.2930,186,0,0,0.000201,-0.004995,-0.293550,0.004336,0.002216,0.018345,-1.1488,2.0773,2.8413
22003,11.0,0.000475,-0.001699,-0.291295,0.004917,0.008770,0.069064,-6.6921,-6.4453,-0.5416,0.00025883,0.00019075,0.00470554,-0.33823842,0.13691750,-0.01032816,0.1593,0.0825,-9.8616,0.025126,0.030458,0.024692,-3.7335,25.1164,21.9254,-34.3337,0.2930,191,0,0,0.000211,-0.004854,-0.293310,0.002244,0.009360,0.019173,-1.1694,2.0390,2.8057
22014,11.0,0.000560,-0.001643,-0.290529,0.003749,0.001975,0.070308,-6.4655,-6.9556,-0.9355,0.00022191,0.00021784,0.00471000,-0.31274909,0.11894768,-0.01576960,0.0767,0.0702,-9.8651,0.000517,0.040216,0.031335,-2.7141,24.7641,23.2670,-34.3337,0.2930,190,0,0,0.000180,-0.004722,-0.293117,-0.001202,0.010969,0.018941,-1.1586,1.9768,2.7472
22025,11.0,0.000646,-0.001695,-0.289760,0.002565,-0.011871,0.071740,-6.4197,-7.9051,-0.9566,0.00021339,0.00035314,0.00470941,-0.30481780,0.11946211,-0.01843882,-0.0167,0.0424,-9.7732,-0.032416,0.021075,0.028058,-2.7141,24.7641,23.2670,-34.3337,0.2950,192,0,0,0.000140,-0.004746,-0.293797,-0.003271,-0.000586,0.011868,-1.0788,1.8516,2.6484
22037,12.0,0.000726,-0.001902,-0.290400,0.006104,-0.023883,0.055379,-6.0374,-8.0909,-1.2085,0.00013017,0.00035923,0.00471071,-0.27874786,0.10293612,-0.02193896,-0.0971,0.0161,-9.7554,-0.039889,-0.037612,0.017321,-2.7141,24.7641,23.2670,-34.3337,0.2950,185,0,0,0.000114,-0.004957,-0.293642,-0.002595,-0.015537,0.012978,-0.9953,1.6864,2.5378
22051,14.0,0.001009,-0.002302,-0.289589,0.041862,-0.025746,0.060089,-6.6969,-7.5383,-0.9076,0.00027449,0.00022096,0.00471323,-0.28562230,0.09567112,-0.02127813,-0.0453,0.0400,-9.7004,-0.031029,-0.054861,0.019319,-2.7141,24.7641,23.2670,-34.2756,0.2930,183,1,0,0.000507,-0.005198,-0.293484,0.044886,-0.017891,0.014075,-0.9676,1.7763,2.6137
22063,12.0,0.001455,-0.002625,-0.288870,0.017864,-0.023565,0.063723,-6.7623,-8.4817,-0.9212,0.00028553,0.00050454,0.00471383,-0.23648442,0.06523035,-0.03492674,0.0540,-0.0542,-9.6163,-0.025376,-0.044390,0.022692,-2.7141,24.7641,23.2670,-34.2756,0.2930,180,0,0,0.000795,-0.005476,-0.292927,0.016997,-0.020548,0.019644,-0.9170,1.4278,2.4115
22074,11.0,0.001673,-0.002834,-0.287949,0.013633,-0.002192,0.067794,-7.9070,-9.2517,-0.7010,0.00073523,0.00081147,0.00472725,-0.22297621,0.04579739,-0.04547733,0.0872,-0.0270,-9.6921,0.034492,-0.029245,0.015153,-2.7141,24.7641,23.2670,-34.2756,0.2930,186,0,0,0.000840,-0.005534,-0.292766,0.008753,-0.010054,0.020485,-3.5777,0.7419,2.6590
22085,11.0,0.001709,-0.002808,-0.287255,-0.026813,0.017434,0.067683,-8.5106,-10.8579,-1.1715,0.00110254,0.00154871,0.00475206,-0.17292011,0.01654141,-0.06708020,0.1465,0.0267,-9.8188,0.069563,-0.000097,0.020495,-2.7141,24.7641,23.2670,-34.2756,0.2940,180,-1,0,0.000880,-0.005364,-0.292539,0.008025,0.005424,0.021724,-3.5555,0.7151,2.6504
22096,11.0,0.001549,-0.002672,-0.286503,-0.001607,0.010197,0.069836,-8.7644,-10.7664,-1.0799,0.00124176,0.00151522,0.00475579,-0.17394698,0.01212484,-0.06824639,0.0976,0.0953,-9.9852,0.024189,0.028811,0.019968,-2.7141,24.7641,23.2670,-34.2756,0.2940,177,0,0,0.000247,-0.005126,-0.292720,-0.035464,0.011004,0.017346,-3.5058,0.5137,2.5155
22107,11.0,0.001570,-0.002801,-0.286015,0.002495,-0.049965,0.072637,-7.0008,-10.7693,-2.0731,0.00025880,0.00149147,0.00474514,-0.13660453,0.01686726,-0.06619757,0.0770,0.0523,-9.9000,-0.022249,0.028812,0.021884,-2.7141,24.7641,23.2670,-34.2756,0.2940,175,0,-1,0.000258,-0.005116,-0.292563,-0.009802,-0.000123,0.016424,-3.4463,0.6170,2.5745
22118,11.0,0.001651,-0.003261,-0.285265,0.006409,-0.019819,0.073269,-8.1601,-11.1910,-1.6654,0.00105945,0.00184631,0.00476266,-0.12595564,-0.00688841,-0.07812639,0.0776,-0.0022,-9.8503,-0.005525,0.007088,0.020716,-2.7126,24.7569,21.9254,-34.2756,0.2930,179,0,0,0.000267,-0.006015,-0.292477,-0.000536,-0.062289,0.015358,-3.2311,0.6163,2.5703
22129,11.0,0.001752,-0.003456,-0.284400,0.009051,-0.010310,0.078457,-8.2031,-11.0236,-1.8690,0.00121799,0.00178940,0.00477753,-0.07950798,-0.04525286,-0.09400942,0.0706,-0.0187,-9.8192,0.003145,-0.003571,0.021030,-2.7126,24.7569,21.9254,-34.2756,0.2930,183,0,0,0.000255,-0.005951,-0.292250,0.001154,-0.011825,0.016214,-3.2797,0.6001,2.5633
22140,11.0,0.002041,-0.003597,-0.284071,0.048582,-0.011036,0.078181,-8.6432,-10.5913,-1.3910,0.00153794,0.00142974,0.00477571,-0.08980276,-0.05484691,-0.08757028,0.0669,0.0076,-9.7966,-0.003846,-0.006505,0.017585,-2.7126,24.7569,21.9254,-34.2756,0.2930,180,1,0,0.000608,-0.006018,-0.292092,0.043738,-0.008386,0.016693,-3.2222,0.7365,2.6397
22151,11.0,0.002491,-0.003689,-0.283182,0.023156,-0.000864,0.082610,-8.4640,-10.9830,-2.0835,0.00165471,0.00190069,0.00480455,-0.02502477,-0.09594983,-0.11044499,0.0573,0.0168,-9.7709,0.030072,-0.021390,0.003107,-2.7126,24.7569,21.9254,-34.2756,0.2940,184,0,0,0.000805,-0.006025,-0.291899,0.016318,-0.001683,0.017794,-3.1622,0.5898,2.5628
22163,12.0,0.002778,-0.003869,-0.282190,0.014897,-0.035322,0.086939,-7.8113,-11.7139,-3.2714,0.00121143,0.00255260,0.00483046,-0.00692241,-0.08262102,-0.11401924,-0.0030,0.0507,-9.7527,0.039761,-0.032275,-0.002940,-2.7126,24.7569,21.9254,-34.2756,0.2940,187,0,-1,0.000943,-0.005926,-0.292484,0.010467,0.003918,0.012108,-3.0361,0.4928,2.5110
22174,11.0,0.002962,-0.004149,-0.283465,0.014926,-0.005807,0.071082,-8.3389,-11.6249,-2.8059,0.00191583,0.00263092,0.00483765,0.03759022,-0.12830172,-0.10839137,-0.0015,0.0841,-9.7851,0.039210,-0.036176,-0.001060,-2.7126,24.7569,21.9254,-34.2756,0.2940,188,0,0,0.001020,-0.006439,-0.292306,0.010282,-0.041565,0.014141,-1.1239,0.4210,2.8893
22185,11.0,0.002993,-0.004166,-0.282782,-0.024686,0.009973,0.071168,-8.5766,-12.7821,-3.5162,0.00258734,0.00417680,0.00488416,0.07503422,-0.14318360,-0.13001347,-0.0241,0.0768,-9.8530,0.054288,-0.024895,0.011231,-2.7126,24.7569,21.9254,-34.2544,0.2920,191,-1,0,0.001075,-0.006300,-0.292056,0.008425,-0.000541,0.015156,-1.1419,0.3827,2.8774
22197,12.0,0.002688,-0.004193,-0.281829,-0.034949,-0.019968,0.075894,-7.5045,-13.0811,-5.4779,0.00183176,0.00446523,0.00494553,0.12731887,-0.15078039,-0.14250845,0.0018,0.0816,-9.9871,0.064581,-0.004575,0.023744,-2.7126,24.7569,21.9254,-34.2544,0.2920,190,-1,-1,0.000477,-0.006042,-0.291864,-0.034063,0.015668,0.014035,-1.0983,0.2057,2.7698
22208,11.0,0.002447,-0.004662,-0.281422,-0.007562,-0.074975,0.075220,-6.5662,-13.1013,-6.6265,0.00071084,0.00423415,0.00496303,0.12300993,-0.12638618,-0.12723599,0.1069,0.0563,-10.0462,0.063140,0.008472,0.026752,-2.7126,24.7569,21.9254,-34.2544,0.2920,189,0,-2,0.000107,-0.006963,-0.291687,-0.008332,-0.075281,0.012066,-0.8889,0.2545,2.8121
22220,12.0,0.002447,-0.005483,-0.280538,0.003754,-0.050589,0.076402,-7.0914,-13.0820,-6.1877,0.00166584,0.00446269,0.00497246,0.15031944,-0.15564491,-0.14004254,0.1568,0.0402,-10.0824,0.044045,0.007953,0.015187,-3.3917,24.7496,21.9466,-34.2544,0.2940,189,0,-1,0.000095,-0.007526,-0.292683,0.001967,-0.053155,-0.000205,-0.8931,0.2927,2.8437
22230,10.0,0.002532,-0.005826,-0.279882,0.010438,-0.010107,0.075957,-7.9951,-13.3028,-5.4916,0.00326227,0.00511080,0.00498524,0.16228245,-0.18564162,-0.15286274,0.1950,0.0333,-10.0602,0.034279,-0.002206,0.000295,-3.3917,24.7496,21.9466,-34.2544,0.2940,187,0,0,0.000111,-0.007650,-0.292709,0.003486,-0.004750,-0.002988,-0.9620,0.3012,2.8497
22241,11.0,0.002677,-0.005937,-0.281259,0.011538,-0.006084,0.058733,-8.0043,-13.3748,-5.7145,0.00353303,0.00537501,0.00500443,0.20174499,-0.21058294,-0.13496898,0.1176,-0.0319,-9.9975,0.013120,-0.012273,-0.014590,-3.3917,24.7496,21.9466,-34.2544,0.2940,183,0,0,0.000147,-0.007616,-0.292764,0.004973,0.003167,-0.005475,-0.9522,0.2902,2.8396
22254,13.0,0.002894,-0.006016,-0.280532,0.013599,0.003635,0.061067,-8.4429,-13.6682,-5.1809,0.00435140,0.00624698,0.00499624,0.21678460,-0.22538222,-0.14743175,0.0224,-0.0353,-9.9462,0.040692,-0.013211,-0.017240,-3.3917,24.7496,21.9466,-34.2544,0.2920,185,0,0,0.000190,-0.007499,-0.292441,0.005760,0.008050,-0.003718,-0.9139,0.2650,2.8164
22265,11.0,0.003060,-0.005953,-0.279746,0.014144,0.010918,0.065868,-8.3682,-13.3752,-4.9885,0.00445956,0.00609070,0.00498986,0.26985419,-0.26261342,-0.16414154,-0.0553,-0.0241,-9.9626,0.052957,-0.001436,-0.006079,-3.3917,24.7496,21.9466,-34.3126,0.2920,184,0,0,0.000225,-0.007275,-0.292486,0.005624,0.018031,-0.005000,-0.8766,0.2316,2.7898
22276,11.0,0.003233,-0.005837,-0.280019,0.012362,0.013817,0.057728,-8.5722,-13.6586,-4.8278,0.00497888,0.00692932,0.00499364,0.28399289,-0.27170512,-0.16004904,-0.1295,0.0784,-10.0413,0.049026,0.016427,0.009158,-3.3917,24.7496,21.9466,-34.3126,0.2920,189,0,0,0.000258,-0.006956,-0.292594,0.004663,0.023693,-0.007862,-2.3852,0.2690,2.2086
22287,11.0,0.003545,-0.005760,-0.279318,0.048577,-0.000227,0.060788,-8.6416,-13.1851,-4.1664,0.00481647,0.00603140,0.00495092,0.28709984,-0.28042400,-0.15663324,-0.1303,0.1259,-10.0318,0.011193,0.019326,0.023864,-3.3917,24.7496,21.9466,-34.3126,0.2930,187,1,0,0.000258,-0.006807,-0.292725,0.002733,0.016151,-0.010232,-2.3545,0.2502,2.1890
22298,11.0,0.003951,-0.006055,-0.278665,0.013552,-0.064277,0.063146,-6.7225,-14.4549,-9.4176,0.00290504,0.00783409,0.00522988,0.31610581,-0.24451314,-0.16165073,-0.0583,0.0355,-9.9273,-0.051677,0.004885,0.037426,-3.3917,24.7496,21.9466,-34.3126,0.2930,189,0,-1,0.000907,-0.006833,-0.292842,0.013940,-0.063290,-0.012463,-2.1931,0.2479,2.1671
22309,11.0,0.004070,-0.006730,-0.280019,0.002586,-0.054305,0.049412,-6.7862,-14.4007,-9.3746,0.00316020,0.00821858,0.00523515,0.37708631,-0.27604261,-0.14943756,-0.0096,-0.0689,-9.7669,-0.093093,-0.015393,0.029609,-3.3917,24.7496,21.9466,-34.3126,0.2930,183,0,0,0.000809,-0.007900,-0.293001,0.003698,-0.053528,-0.012369,-2.2242,0.1812,2.1381
22320,11.0,0.004126,-0.007298,-0.279481,0.003110,-0.044072,0.055003,-7.2553,-14.5936,-8.5754,0.00394987,0.00917119,0.00520147,0.39218029,-0.28979158,-0.16035126,0.0866,-0.1521,-9.6448,-0.061494,-0.036951,0.016396,-3.7335,24.3973,21.9254,-34.3126,0.2920,181,0,0,0.000826,-0.008326,-0.292507,0.002890,-0.042639,-0.005531,-2.2728,0.1497,2.1356
22331,11.0,0.004203,-0.007709,-0.278850,0.007781,-0.024128,0.061889,-7.7728,-14.5422,-7.5130,0.00497821,0.00970147,0.00515380,0.41929865,-0.31738225,-0.17360361,0.1419,-0.1360,-9.6066,-0.008329,-0.023985,0.009877,-3.7335,24.3973,21.9254,-34.3126,0.2920,179,0,0,0.000857,-0.008658,-0.292555,0.004817,-0.026968,-0.002511,-2.3222,0.1220,2.1364
22342,11.0,0.004152,-0.007906,-0.279070,-0.029438,-0.005071,0.059132,-7.9920,-15.2224,-7.6280,0.00599248,0.01232131,0.00518743,0.45986539,-0.33290336,-0.18650688,0.1479,-0.0812,-9.6492,0.010524,0.005000,0.009687,-3.7335,24.3973,21.9254,-34.2544,0.2920,176,-1,0,0.000418,-0.008756,-0.292562,-0.037825,-0.013707,-0.000251,-2.3493,-0.0270,2.0703
22353,11.0,0.003979,-0.007931,-0.278358,-0.000045,0.005105,0.065907,-8.4136,-14.8119,-6.5157,0.00677956,0.01168911,0.00512332,0.47500968,-0.35814375,-0.19109073,0.1619,-0.0479,-9.7337,0.037521,0.026011,0.013325,-3.7335,24.3973,21.9254,-34.2544,0.2920,177,0,0,-0.000267,-0.008744,-0.292171,-0.050963,-0.002768,0.004821,-2.3438,-0.0604,2.0496
22364,11.0,0.004061,-0.007688,-0.277659,0.012798,0.050841,0.070193,-9.5973,-14.6212,-4.1483,0.00926006,0.01248187,0.00499788,0.48510081,-0.39457342,-0.20666316,0.1271,-0.0240,-9.7978,0.039708,0.029994,0.012794,-3.7335,24.3973,21.9254,-34.2544,0.2920,174,0,1,-0.000316,-0.008589,-0.292120,-0.013835,0.008615,0.005553,-2.3305,0.0830,2.1048
22375,11.0,0.004206,-0.007314,-0.277919,0.009677,0.011840,0.066334,-8.5134,-14.8199,-6.5117,0.00762170,0.01248890,0.00515023,0.52934599,-0.39681923,-0.19627658,0.1008,-0.0232,-9.8117,0.009984,0.023350,0.003400,-3.7335,24.3973,21.9254,-34.2544,0.2920,176,0,0,-0.000362,-0.007894,-0.292018,-0.004116,0.051605,0.006817,-1.1503,0.5875,1.5874
22386,11.0,0.004330,-0.007263,-0.277178,0.008765,-0.002699,0.070844,-8.2706,-15.1427,-7.3476,0.00754016,0.01341909,0.00521727,0.54134184,-0.39460900,-0.20254987,0.0120,-0.0613,-9.8035,0.003342,0.005564,-0.005051,-3.7335,24.3973,21.9254,-34.2544,0.2910,177,0,0,-0.000374,-0.007761,-0.291450,0.000072,0.018428,0.011207,-1.0774,0.5718,1.5500
22397,11.0,0.004441,-0.007316,-0.276281,0.008899,-0.005807,0.077105,-7.9475,-14.8584,-7.7429,0.00713350,0.01293243,0.00524268,0.59685093,-0.42341247,-0.21484220,-0.0258,-0.0562,-9.8042,0.006341,0.006133,-0.001041,-3.7335,24.3973,21.9254,-34.2544,0.2910,174,0,0,-0.000371,-0.007731,-0.291335,0.001359,0.007757,0.011591,-1.0346,0.5414,1.5121
22408,11.0,0.004563,-0.007392,-0.276860,0.009568,-0.005286,0.068794,-8.1295,-15.0454,-7.4753,0.00768621,0.01395030,0.00523286,0.61099100,-0.43161258,-0.20463236,-0.0239,-0.0981,-9.7553,0.014202,-0.005609,-0.001665,-3.7335,24.3973,21.9254,-34.2544,0.2910,182,0,0,-0.000371,-0.007674,-0.291215,0.001667,0.005316,0.012486,-1.0071,0.5170,1.4789
22419,11.0,0.004693,-0.007418,-0.276027,0.012133,0.004020,0.074338,-8.2113,-14.6917,-6.7856,0.00788222,0.01361559,0.00517769,0.65921694,-0.46433750,-0.21703996,-0.0541,-0.0520,-9.7770,0.043140,-0.002305,0.007753,-3.3902,26.1806,21.5133,-34.2544,0.2910,177,0,0,-0.000354,-0.007486,-0.290974,0.002426,0.016672,0.014205,-0.9784,0.4831,1.4435
22431,12.0,0.004872,-0.007377,-0.275137,0.012814,0.007116,0.078137,-8.4071,-14.8503,-6.4163,0.00855918,0.01468204,0.00516093,0.67186248,-0.47275725,-0.22583424,-0.0393,-0.0354,-9.8380,0.045354,-0.005634,0.015303,-3.3902,26.1806,21.5133,-34.3126,0.2910,181,0,0,-0.000323,-0.007226,-0.290795,0.003326,0.020970,0.014424,-0.9220,0.4435,1.4124
22442,11.0,0.005022,-0.007326,-0.276472,0.012249,0.002787,0.062597,-7.9998,-14.5782,-6.9865,0.00797695,0.01403631,0.00520543,0.73406285,-0.50507241,-0.20883009,-0.0306,-0.0312,-9.8564,0.030120,-0.011777,0.019910,-3.3902,26.1806,21.5133,-34.3126,0.2910,183,0,0,-0.000298,-0.007047,-0.290650,0.003524,0.017775,0.014444,-0.8680,0.4053,1.3875
22454,12.0,0.005204,-0.007310,-0.275722,0.013399,0.003106,0.065307,-8.0929,-14.7726,-6.9049,0.00852629,0.01505388,0.00521201,0.74571627,-0.51135927,-0.21639113,-0.0183,-0.0231,-9.9066,0.039822,-0.028580,0.020420,-3.3902,26.1806,21.5133,-34.3126,0.2900,188,0,0,-0.000249,-0.006852,-0.290198,0.005074,0.015303,0.016313,-0.8056,0.3553,1.3639
22465,11.0,0.005362,-0.007288,-0.274924,0.013414,0.002049,0.068604,-7.7556,-14.5173,-7.4214,0.00814852,0.01441944,0.00525786,0.80007988,-0.53835893,-0.22709644,0.0543,0.0081,-9.9825,0.034113,-0.022945,0.028019,-3.3902,26.1806,21.5133,-34.3126,0.2900,190,0,0,-0.000202,-0.006676,-0.290040,0.006407,0.016895,0.015252,-0.7613,0.3251,1.3567
22476,11.0,0.005510,-0.007327,-0.276003,0.009106,-0.008819,0.054491,-7.5169,-14.8662,-8.4003,0.00819075,0.01569211,0.00536447,0.81651866,-0.53895617,-0.21233064,0.1578,-0.0794,-9.9781,-0.006220,-0.001880,0.033245,-3.3902,26.1806,21.5133,-34.3126,0.2900,189,0,0,-0.000160,-0.006553,-0.289832,0.006636,0.010991,0.013903,0.8491,0.4560,1.5342
22487,11.0,0.005619,-0.007458,-0.275387,0.007186,-0.013799,0.057963,-7.4077,-15.0069,-8.8270,0.00829600,0.01650810,0.00541590,0.83805138,-0.54599088,-0.22006835,0.1914,-0.1533,-9.8886,-0.012683,0.002940,0.025208,-3.3902,26.1806,21.5133,-34.2544,0.2910,192,0,0,-0.000152,-0.006488,-0.290251,0.005533,0.009427,0.008589,0.8984,0.4585,1.5225
22498,11.0,0.005714,-0.007616,-0.274745,0.006619,-0.012576,0.062531,-7.5778,-15.1495,-8.5436,0.00886647,0.01764272,0.00540051,0.85066301,-0.55258518,-0.22756341,0.1179,-0.2289,-9.7514,-0.004712,0.008645,0.013576,-3.3902,26.1806,21.5133,-34.2544,0.2910,193,0,0,-0.000150,-0.006430,-0.290164,0.004378,0.007917,0.008817,0.9462,0.4611,1.5025
22509,11.0,0.005814,-0.007719,-0.276102,0.008707,-0.002010,0.048950,-7.9672,-15.1257,-7.5004,0.00981346,0.01862181,0.00530642,0.87369251,-0.57111388,-0.21393622,0.1128,-0.2576,-9.7621,0.026947,0.019653,0.009528,-3.3902,26.1806,21.5133,-34.2544,0.2910,188,0,0,-0.000159,-0.006204,-0.290055,0.001740,0.021260,0.009863,0.7258,0.3966,1.5565
22520,11.0,0.005944,-0.007680,-0.275565,0.012145,0.014295,0.052328,-8.5291,-15.0853,-6.0003,0.01116902,0.01977720,0.00516276,0.88562977,-0.58665007,-0.22322260,0.0882,-0.2152,-9.8421,0.069320,0.027084,0.002058,-3.3946,26.2024,21.4500,-34.2544,0.2900,192,0,0,-0.000144,-0.005861,-0.289942,0.002442,0.037456,0.010362,0.5078,0.3462,1.6200
22531,11.0,0.006097,-0.007495,-0.274964,0.013195,0.022639,0.054688,-8.6739,-14.8980,-5.2857,0.01163679,0.02004461,0.00509027,0.91809815,-0.60939533,-0.23335922,0.0445,-0.1232,-9.9843,0.079545,0.033066,0.006422,-3.3946,26.2024,21.4500,-34.2544,0.2900,192,0,0,-0.000118,-0.005306,-0.289820,0.003294,0.046212,0.009286,0.4702,0.3361,1.6358
22542,11.0,0.006253,-0.007260,-0.275599,0.011699,0.022121,0.044615,-8.7342,-15.0670,-5.2551,0.01224404,0.02132813,0.00510259,0.93149424,-0.61581111,-0.22742353,0.0197,-0.0793,-10.0695,0.067794,0.041483,0.012887,-3.3946,26.2024,21.4500,-34.2544,0.2900,190,0,0,-0.000106,-0.004850,-0.289737,0.002520,0.046609,0.007282,0.5277,0.3418,1.6217
22553,11.0,0.006386,-0.007099,-0.275117,0.008751,0.006640,0.044813,-8.3854,-15.3924,-6.4400,0.01208093,0.02245753,0.00525209,0.94111490,-0.61340082,-0.23207483,-0.0146,-0.0518,-10.1213,0.021923,0.029821,0.019538,-3.3946,26.2024,21.4500,-34.2544,0.2900,185,0,0,-0.000097,-0.004400,-0.289794,0.002028,0.038087,0.002963,0.7050,0.3768,1.5755
22564,11.0,0.006488,-0.007114,-0.274631,0.006239,-0.010117,0.045612,-8.0589,-15.7107,-7.5690,0.01185013,0.02359035,0.00539836,0.95050246,-0.61053163,-0.23658805,0.0076,-0.1279,-10.0893,-0.013242,0.015749,0.019673,-3.3946,26.2024,21.4500,-34.2756,0.2900,187,0,0,-0.000104,-0.004242,-0.289774,0.001098,0.022544,0.000306,0.9429,0.4213,1.5067
22575,11.0,0.006390,-0.007277,-0.275249,-0.033769,-0.019027,0.037873,-7.5058,-16.3041,-9.3887,0.01159634,0.02656729,0.00565198,0.99496543,-0.61752242,-0.24218555,0.0059,-0.1964,-9.9590,-0.036093,-0.007932,0.010109,-3.3946,26.2024,21.4500,-34.2756,0.2900,182,-1,0,-0.000107,-0.004256,-0.289776,0.001123,0.005486,-0.001304,1.0121,0.4523,1.3921
22586,11.0,0.006162,-0.007518,-0.274812,-0.005982,-0.023396,0.041638,-7.8602,-16.1425,-8.4236,0.01203802,0.02605937,0.00552784,0.99066478,-0.62222540,-0.24063906,-0.0186,-0.2160,-9.8389,-0.021942,-0.018019,0.007819,-3.3946,26.2024,21.4500,-34.2756,0.2900,181,0,0,-0.000747,-0.004306,-0.289874,-0.039139,-0.001191,-0.002523,1.0531,0.2896,1.2721
22597,11.0,0.006151,-0.007787,-0.274326,0.002569,-0.023598,0.046475,-8.0322,-16.0872,-7.9396,0.01238252,0.02634905,0.00547252,1.00718164,-0.63313258,-0.24618369,0.0929,-0.2188,-9.7668,-0.019975,-0.010797,0.021058,-3.3946,26.2024,21.4500,-34.2756,0.2900,182,0,0,-0.000688,-0.004307,-0.289897,-0.009192,0.000039,-0.002003,1.0928,0.3822,1.3322
22609,12.0,0.006231,-0.008062,-0.274715,0.006696,-0.017282,0.043126,-8.3652,-16.1912,-7.2647,0.01342962,0.02772284,0.00540255,1.02067327,-0.64354527,-0.24469614,0.2045,-0.2380,-9.7825,-0.001080,0.000421,0.020115,-2.3738,26.2024,21.4500,-34.2756,0.2900,183,0,0,-0.000662,-0.004221,-0.289917,0.001052,0.008355,-0.001134,1.0396,0.4015,1.3549
22622,13.0,0.006376,-0.008285,-0.274122,0.009701,-0.010663,0.049820,-8.6195,-16.2865,-6.7691,0.01446422,0.02904946,0.00535190,1.03884006,-0.65647829,-0.25452235,0.2904,-0.2517,-9.7266,0.016083,0.000497,0.003804,-2.3738,26.2024,21.4500,-34.2756,0.2900,179,0,0,-0.000645,-0.004060,-0.289935,0.003707,0.013952,0.000057,1.0152,0.3956,1.3477
22633,11.0,0.006502,-0.008371,-0.273562,0.010548,-0.002041,0.055414,-8.8897,-16.3999,-6.2675,0.01559693,0.03046183,0.00529775,1.05108953,-0.66661960,-0.26320392,0.2164,-0.1988,-9.7002,0.034224,0.016668,-0.003653,-2.3738,26.2024,21.4500,-34.2756,0.2900,181,0,0,-0.000615,-0.003795,-0.289925,0.005154,0.021434,0.001729,0.9846,0.3890,1.3322
22644,11.0,0.006634,-0.008370,-0.273956,0.010591,0.005118,0.051470,-9.0153,-16.3596,-5.9070,0.01629371,0.03123271,0.00525562,1.07948506,-0.68461144,-0.26313141,0.1333,-0.1372,-9.7595,0.044859,0.034996,-0.002062,-2.3738,26.2024,21.4500,-34.2227,0.2900,187,0,0,-0.000605,-0.003507,-0.289902,0.004023,0.028019,0.002823,0.9615,0.3893,1.3144
22656,12.0,0.006785,-0.008320,-0.273324,0.009898,0.006602,0.055934,-9.1228,-16.5219,-5.8106,0.01709156,0.03270316,0.00525828,1.09118700,-0.69094616,-0.27103451,0.0668,-0.1097,-9.7975,0.042324,0.040334,0.003572,-2.3738,26.2024,21.4500,-34.2227,0.2900,182,0,0,-0.000598,-0.003071,-0.289890,0.003052,0.034924,0.003277,0.9440,0.4001,1.2987
22668,12.0,0.006921,-0.008321,-0.272613,0.008116,-0.006954,0.060588,-8.7435,-16.6074,-6.7432,0.01655846,0.03309029,0.00540491,1.12113225,-0.70124108,-0.27854952,0.1077,-0.1153,-9.8516,0.003679,0.021662,-0.000906,-2.3738,26.2024,21.4500,-34.2227,0.2900,182,0,0,-0.000604,-0.002770,-0.289855,0.000473,0.019980,0.003595,1.1225,0.4125,1.2665
22679,11.0,0.007018,-0.008458,-0.273606,0.006349,-0.017573,0.050294,-8.5975,-16.8823,-7.3759,0.01670503,0.03452272,0.00552009,1.13430810,-0.70306611,-0.26851654,0.1042,-0.1553,-9.8096,-0.015622,0.010446,-0.005862,-2.3738,26.2024,21.4500,-34.2227,0.2910,177,0,0,-0.000618,-0.002682,-0.290287,0.000997,0.011074,-0.000503,1.6352,-0.1306,2.2932
22691,12.0,0.007089,-0.008886,-0.272953,0.000048,-0.060512,0.055941,-7.5396,-17.2318,-10.1254,0.01470386,0.03496927,0.00596354,1.15598524,-0.69643509,-0.27126789,0.0633,-0.1914,-9.7606,-0.019960,0.017316,-0.002993,-2.3738,26.2024,21.4500,-34.2227,0.2910,182,0,-1,-0.000597,-0.003082,-0.290284,0.003335,-0.037491,0.000391,1.9682,-0.1165,2.2788
22702,11.0,0.007135,-0.009379,-0.272351,0.006359,-0.021702,0.060443,-8.6368,-17.0995,-7.4683,0.01737522,0.03668310,0.00555179,1.16980743,-0.71830231,-0.28262973,0.0842,-0.2131,-9.7193,0.018281,0.018750,-0.002161,-3.3932,25.1164,22.8340,-34.2544,0.2910,178,0,0,-0.000585,-0.003036,-0.290279,0.002954,0.002676,0.001514,1.7265,-0.1193,2.2727
22713,11.0,0.007235,-0.009549,-0.272880,0.009623,-0.004863,0.055267,-9.0820,-16.9444,-6.2125,0.01853753,0.03747146,0.00535431,1.19783986,-0.73946017,-0.28171790,0.0643,-0.1861,-9.6979,0.038993,0.019697,0.000398,-3.3932,25.1164,22.8340,-34.2544,0.2900,183,0,0,-0.000568,-0.002802,-0.290093,0.003389,0.023099,0.004361,1.6339,-0.1171,2.2680
22724,11.0,0.007357,-0.009598,-0.272263,0.009695,-0.001666,0.059227,-9.2594,-17.0707,-5.8989,0.01935400,0.03885771,0.00531823,1.20796824,-0.74544710,-0.28867799,0.0329,-0.1294,-9.7946,0.033471,0.023237,0.005748,-3.3932,25.1164,22.8340,-34.2544,0.2900,179,0,0,-0.000544,-0.002442,-0.290029,0.003721,0.030284,0.005686,1.6325,-0.1103,2.2620
22735,11.0,0.007483,-0.009611,-0.271567,0.011091,0.001322,0.063131,-9.1341,-16.8129,-5.8598,0.01917233,0.03822019,0.00530544,1.25331020,-0.77053803,-0.29901829,0.0763,-0.0558,-9.8810,0.041941,0.015587,0.004389,-3.3932,25.1164,22.8340,-34.2544,0.2900,185,0,0,-0.000527,-0.002132,-0.289971,0.003877,0.033132,0.005611,1.6161,-0.1000,2.2639
22747,12.0,0.007640,-0.009674,-0.273112,0.010215,-0.012065,0.045937,-8.8829,-17.1559,-6.7836,0.01927095,0.03973960,0.00548874,1.26685643,-0.77262515,-0.28350946,0.1003,-0.0707,-9.9360,0.005833,-0.014282,-0.006947,-3.3932,25.1164,22.8340,-34.2544,0.2920,187,0,0,-0.000487,-0.001766,-0.290790,0.005571,0.032873,-0.002977,1.6190,-0.0925,2.2671
22758,11.0,0.007727,-0.010102,-0.272557,0.002253,-0.073234,0.050163,-7.2970,-17.5742,-10.7967,0.01596400,0.03942608,0.00622566,1.29193509,-0.76335603,-0.28351122,0.1158,-0.0997,-9.8529,-0.039551,-0.034174,-0.014390,-3.3932,25.1164,22.8340,-34.2544,0.2920,190,0,-1,-0.000453,-0.001717,-0.290824,0.006125,-0.046146,-0.003913,2.0867,-0.1090,2.2489
22769,11.0,0.007767,-0.010818,-0.272012,0.001916,-0.051967,0.054285,-7.8441,-17.7043,-9.7767,0.01768978,0.04128288,0.00605209,1.30559945,-0.77588946,-0.29301244,0.1317,-0.1639,-9.7521,-0.054372,-0.026586,-0.014862,-3.3932,25.1164,22.8340,-34.2544,0.2920,191,0,0,-0.000410,-0.002487,-0.290872,0.004311,-0.023115,-0.003361,1.9301,-0.1396,2.2310
22782,13.0,0.007834,-0.011452,-0.272864,0.003195,-0.037942,0.047345,-8.2807,-17.7116,-8.7924,0.01886185,0.04267444,0.00588371,1.33255661,-0.79294807,-0.28941923,0.0591,-0.2418,-9.6262,-0.033233,-0.005927,-0.008076,-3.3932,25.1164,22.8340,-34.2756,0.2910,194,0,0,-0.000398,-0.002820,-0.290613,0.002330,-0.031123,0.002620,-3.6884,-0.2882,1.2916
22793,11.0,0.007904,-0.011762,-0.272333,0.007776,-0.013650,0.053209,-9.0330,-17.6410,-6.9240,0.02064292,0.04420048,0.00553972,1.34445453,-0.80658096,-0.29800361,0.0128,-0.2159,-9.5709,0.029453,0.015274,0.002193,-3.3932,25.1164,22.8340,-34.2756,0.2910,192,0,0,-0.000396,-0.003015,-0.290545,0.002342,-0.023316,0.006687,-3.7240,-0.2971,1.2714
22804,11.0,0.008019,-0.011836,-0.271716,0.011384,0.004232,0.059555,-9.4693,-17.4049,-5.5402,0.02159381,0.04462823,0.00527332,1.37244380,-0.82725149,-0.30780506,0.0225,-0.1731,-9.5684,0.063940,0.023578,0.012204,-3.7349,25.1237,21.9043,-34.2756,0.2910,187,0,0,-0.000394,-0.002923,-0.290441,0.002531,-0.004952,0.010121,-3.7513,-0.2923,1.2623
22815,11.0,0.007984,-0.011756,-0.272760,-0.026129,0.013656,0.049661,-9.3888,-17.9774,-6.1804,0.02290493,0.04878315,0.00546285,1.40405798,-0.83745885,-0.31019315,0.0207,-0.1405,-9.6407,0.069145,0.015195,0.018334,-3.7349,25.1237,21.9043,-34.2756,0.2920,189,-1,0,-0.000381,-0.002738,-0.290775,0.003484,0.007043,0.009109,-3.7204,-0.2865,1.2593
22826,11.0,0.007843,-0.011631,-0.272146,0.003058,0.009535,0.054068,-9.3093,-17.2145,-5.4341,0.02167341,0.04508443,0.00526919,1.45105696,-0.86527890,-0.31383464,0.0481,-0.0302,-9.8439,0.063869,-0.003370,0.023631,-3.7349,25.1237,21.9043,-34.2756,0.2920,188,0,0,-0.001005,-0.002536,-0.290644,-0.036432,0.008293,0.010486,-3.5350,-0.4424,1.1796
22837,11.0,0.008080,-0.011819,-0.271493,0.044229,-0.051812,0.057982,-8.4297,-17.2311,-7.2992,0.01866767,0.04244287,0.00565501,1.43254352,-0.84562045,-0.29939082,0.1257,-0.0515,-9.8721,0.022405,-0.027046,0.012850,-3.7349,25.1237,21.9043,-34.2756,0.2920,184,1,-1,-0.000932,-0.002424,-0.290534,-0.006350,0.005095,0.010612,-3.4461,-0.3207,1.2465
22848,11.0,0.008467,-0.012318,-0.272741,0.019442,-0.034556,0.044768,-8.5767,-17.5438,-7.2907,0.02009707,0.04538861,0.00568908,1.46987772,-0.86408806,-0.29902452,0.1457,-0.1906,-9.8145,-0.011068,-0.036624,0.006456,-3.7349,25.1237,21.9043,-34.2756,0.2910,186,0,0,-0.000350,-0.003182,-0.290451,0.016367,-0.031609,0.010615,-3.3060,-0.2660,1.2833
22859,11.0,0.008666,-0.012652,-0.272249,0.013217,-0.022713,0.048537,-8.9135,-17.7200,-6.6364,0.02134014,0.04739150,0.00557171,1.48362410,-0.87224942,-0.30771101,0.0855,-0.2586,-9.7564,0.011582,-0.028175,0.004568,-3.7349,25.1237,21.9043,-34.2756,0.2910,187,0,0,-0.000268,-0.003360,-0.290331,0.008078,-0.018613,0.011774,-3.3709,-0.3312,1.2568
22870,11.0,0.008825,-0.012826,-0.271711,0.013278,-0.004552,0.051984,-9.3378,-17.6394,-5.4960,0.02257479,0.04844126,0.00532816,1.50702810,-0.88855880,-0.31739262,0.0991,-0.2066,-9.8134,0.051989,0.001719,0.021807,-3.7349,25.1237,21.9043,-34.3126,0.2910,184,0,0,-0.000225,-0.003362,-0.290199,0.004942,0.000028,0.012694,-3.4346,-0.3590,1.2458
22882,12.0,0.008989,-0.013045,-0.272638,0.008940,-0.036186,0.041215,-8.6975,-18.0514,-7.1816,0.02162478,0.04985033,0.00575904,1.51734376,-0.88446337,-0.30701563,0.1500,-0.2046,-9.9363,0.055726,0.020051,0.030360,-3.7349,25.1237,21.9043,-34.3126,0.2920,183,0,-1,-0.000176,-0.003608,-0.290803,0.005072,-0.023847,0.008365,0.4436,0.4373,1.0975
22893,11.0,0.009118,-0.013320,-0.272194,0.012414,-0.008366,0.042341,-9.3122,-17.9475,-5.7297,0.02359855,0.05102225,0.00541601,1.53973103,-0.90257168,-0.31758115,0.1738,-0.1730,-10.0431,0.051828,0.007026,0.022367,-3.7349,25.1237,21.9043,-34.3126,0.2920,176,0,0,-0.000685,-0.004024,-0.290715,-0.036319,-0.032630,0.006053,0.5244,0.2821,0.9785
22904,11.0,0.009251,-0.013610,-0.271722,0.008339,-0.048633,0.043741,-8.4623,-18.4002,-7.8657,0.02194932,0.05204746,0.00597482,1.54391682,-0.89426082,-0.31815538,0.1727,-0.1504,-10.0551,0.036505,-0.004535,0.014509,-3.7320,25.4687,21.9466,-34.3126,0.2920,177,0,-1,-0.000687,-0.003801,-0.290674,-0.007754,0.008788,0.003665,0.4479,0.3991,1.0637
22915,11.0,0.009364,-0.014055,-0.271255,0.009787,-0.027436,0.045370,-8.9208,-18.4005,-6.9206,0.02358041,0.05330464,0.00574237,1.56542265,-0.90958071,-0.32800913,0.1823,-0.1827,-10.0029,0.008097,-0.012538,0.003172,-3.7320,25.4687,21.9466,-34.3126,0.2900,178,0,0,-0.000658,-0.004265,-0.290328,0.001700,-0.032392,0.004561,0.5798,0.4166,1.0721
22925,10.0,0.009276,-0.014283,-0.270860,-0.031796,-0.016650,0.046702,-8.8332,-19.0584,-7.6865,0.02490835,0.05794543,0.00600461,1.59166276,-0.91756570,-0.34462941,0.1907,-0.1978,-9.9428,0.007501,-0.006503,-0.000188,-3.7320,25.4687,21.9466,-34.3126,0.2900,181,-1,0,-0.000638,-0.004247,-0.290297,0.003524,-0.006753,0.003029,0.5197,0.4182,1.0663
22937,12.0,0.009036,-0.014655,-0.270232,-0.006636,-0.050645,0.051598,-8.3231,-18.9910,-8.6557,0.02332058,0.05637279,0.00624449,1.59656978,-0.91575968,-0.34132397,0.1464,-0.2004,-9.8501,0.024968,0.012908,-0.000629,-3.7320,25.4687,21.9466,-34.3126,0.2900,176,0,-1,-0.001270,-0.004136,-0.290276,-0.037486,0.005697,0.002216,0.5178,0.2478,0.9364
22947,10.0,0.009031,-0.015008,-0.269748,0.005388,-0.017320,0.054752,-9.2084,-18.8704,-6.6630,0.02569568,0.05762082,0.00571686,1.60560155,-0.92926598,-0.34842241,0.1368,-0.1923,-9.8002,0.036498,0.025261,0.001149,-3.7320,25.4687,21.9466,-34.3126,0.2920,179,0,0,-0.001214,-0.004634,-0.291025,-0.008921,-0.029261,-0.003974,0.6478,0.3666,0.9921
22958,11.0,0.009124,-0.015161,-0.269131,0.009535,-0.007292,0.058531,-9.4287,-18.7512,-6.0177,0.02633136,0.05794856,0.00554701,1.63077307,-0.94433677,-0.35671237,0.0757,-0.1738,-9.8172,0.039473,0.019302,0.002026,-3.7320,25.4687,21.9466,-34.3126,0.2920,177,0,0,-0.001201,-0.004333,-0.291071,0.000306,0.019910,-0.003754,0.5353,0.4273,1.0061
22969,11.0,0.009253,-0.015232,-0.268508,0.011650,-0.003552,0.061163,-9.5892,-18.8898,-5.7531,0.02715055,0.05926625,0.00549152,1.63855457,-0.94889522,-0.36201352,0.0495,-0.1158,-9.8720,0.046415,0.006277,0.007201,-3.7320,25.4687,21.9466,-34.3126,0.2920,181,0,0,-0.001179,-0.003981,-0.291123,0.002044,0.024756,-0.003999,0.5585,0.4349,0.9990
22980,11.0,0.009397,-0.015299,-0.267805,0.012239,-0.007684,0.064152,-9.4345,-18.8544,-5.9671,0.02690425,0.05923834,0.00555819,1.66691768,-0.96263772,-0.36968294,0.0550,-0.1507,-9.9112,0.034242,-0.007735,0.009708,-3.7320,25.4687,21.9466,-34.3126,0.2900,183,0,0,-0.001157,-0.003789,-0.290655,0.002724,0.017870,-0.000344,-0.5569,0.3749,0.6941
22992,12.0,0.009546,-0.015608,-0.267031,0.007341,-0.051134,0.065523,-8.4193,-19.3708,-8.5750,0.02528453,0.06018586,0.00632642,1.66954219,-0.95615035,-0.37005070,0.0641,-0.0560,-10.0406,0.022067,-0.003485,0.012766,-3.7320,25.4687,21.9466,-34.3126,0.2900,186,0,-1,-0.001120,-0.004101,-0.290666,0.003693,-0.031944,-0.002159,-0.4254,0.3431,0.6603
23004,12.0,0.009651,-0.016151,-0.266261,0.005967,-0.033654,0.067378,-8.6971,-19.2931,-8.0057,0.02633056,0.06091249,0.00616174,1.70401859,-0.97477180,-0.38174561,0.0906,-0.1299,-9.9977,-0.016146,0.018269,0.020666,-2.7126,25.4760,21.9254,-34.3443,0.2900,188,0,0,-0.001109,-0.004175,-0.290710,0.001986,-0.008345,-0.004560,-0.4570,0.3416,0.6541
23015,11.0,0.009721,-0.016548,-0.265561,0.004059,-0.037740,0.069455,-8.6856,-19.5350,-8.2951,0.02671485,0.06242055,0.00627425,1.71202374,-0.97711593,-0.38676503,0.1017,-0.1962,-9.9488,-0.038458,0.004756,0.010903,-2.7126,25.4760,21.9254,-34.3443,0.2920,185,0,0,-0.001128,-0.004291,-0.291334,0.000145,-0.012045,-0.010701,-0.4614,0.3320,0.6380
23026,11.0,0.009781,-0.016959,-0.264790,0.004690,-0.035294,0.073404,-8.7625,-19.5494,-8.1466,0.02698477,0.06298199,0.00624372,1.73376095,-0.98747110,-0.39399403,0.0364,-0.2161,-9.7919,-0.024311,-0.001977,0.001838,-2.7126,25.4760,21.9254,-34.3443,0.2920,185,0,0,-0.001143,-0.004481,-0.291470,0.000122,-0.016345,-0.010841,-0.4671,0.3216,0.6169
23037,11.0,0.009850,-0.017330,-0.264030,0.005649,-0.029818,0.077419,-8.9909,-19.6917,-7.7848,0.02778457,0.06441126,0.00615864,1.74248409,-0.99191725,-0.39935467,0.0346,-0.2017,-9.7354,-0.010129,0.005034,0.007335,-2.7126,25.4760,21.9254,-34.3443,0.2920,190,0,0,-0.001145,-0.004549,-0.291575,0.000672,-0.011868,-0.010072,-0.4788,0.3176,0.6049
23048,11.0,0.009930,-0.017641,-0.263150,0.006874,-0.024752,0.081750,-9.0783,-19.6175,-7.5046,0.02801151,0.06463194,0.00608250,1.76969481,-1.00550508,-0.40765595,0.0282,-0.1767,-9.7677,0.000482,0.008204,0.015500,-2.7126,25.4760,21.9254,-34.3443,0.2900,191,0,0,-0.001151,-0.004570,-0.290927,0.000527,-0.007071,-0.003024,-0.4980,0.3131,0.5918
23060,12.0,0.010084,-0.017787,-0.259769,0.015303,-0.004640,0.103666,9.4680,-18.6920,-17.7147,-0.04990859,0.05931832,0.01143222,1.79777956,-2.44199514,-0.51173460,0.0466,-0.1925,-9.7672,0.006388,0.006764,0.022135,-2.7126,25.4760,21.9254,-34.3443,0.2900,191,0,0,-0.001156,-0.004512,-0.290959,0.000396,0.002051,-0.002010,-0.4944,0.3105,0.5853
23074,14.0,0.010257,-0.017580,-0.258179,-0.009072,0.031461,0.116878,9.7225,-19.0722,-18.3965,-0.05046272,0.06336785,0.01181149,1.81915474,-2.42043567,-0.52688336,0.1190,-0.1747,-9.7896,0.005540,0.004730,0.028919,-2.7126,25.4760,21.9254,-34.3443,0.2920,187,-1,0,-0.001147,-0.004453,-0.291421,0.001283,0.003065,-0.004897,-0.4241,-0.2963,1.5788
23085,11.0,0.010294,-0.017205,-0.256267,0.015504,0.032877,0.130926,9.8691,-19.0841,-18.3550,-0.05227309,0.06294490,0.01192911,1.81135595,-2.38844299,-0.53226179,0.1812,-0.1938,-9.8390,0.013855,0.011925,0.031061,-2.7126,25.4760,21.9254,-34.2914,0.2920,189,0,0,-0.001698,-0.004421,-0.291469,-0.038798,0.002235,-0.004665,-0.4012,-0.4633,1.4683
23096,11.0,0.010518,-0.016815,-0.254115,0.022467,0.033517,0.144613,10.0625,-19.1733,-18.4934,-0.05417479,0.06366342,0.01217558,1.81336200,-2.35061169,-0.54377413,0.2395,-0.1930,-9.9146,0.009555,0.019587,0.022748,-2.7126,25.4760,21.9254,-34.2914,0.2920,185,0,0,-0.001748,-0.004327,-0.291530,-0.008229,0.005172,-0.005161,-0.4026,-0.3357,1.5607
23107,11.0,0.010791,-0.016430,-0.251754,0.023206,0.031420,0.158369,10.3444,-19.3609,-18.8387,-0.05631673,0.06524330,0.01253193,1.80839992,-2.31186247,-0.55648488,0.2213,-0.2169,-9.8987,-0.000818,0.023994,0.007516,-3.3946,23.6854,20.9958,-34.2914,0.2900,184,0,0,-0.001739,-0.004265,-0.290892,0.000258,0.004681,0.000108,-0.3989,-0.2971,1.5782
23117,10.0,0.011091,-0.015930,-0.250263,0.035932,0.069000,0.167673,10.3633,-19.4349,-18.9512,-0.05591254,0.06603767,0.01258422,1.81820202,-2.31476521,-0.55881208,0.1500,-0.3014,-9.8055,-0.015322,0.022151,0.001405,-3.3946,23.6854,20.9958,-34.2914,0.2900,190,0,1,-0.001745,-0.004264,-0.290892,0.002143,0.000206,0.000117,-0.3943,-0.2902,1.5685
23128,11.0,0.011475,-0.015254,-0.247085,0.028547,0.044786,0.184507,10.7671,-19.6445,-19.3598,-0.05935780,0.06768002,0.01312781,1.80702007,-2.25498199,-0.57657391,0.0091,-0.2688,-9.7441,0.009605,0.019700,-0.004895,-3.3946,23.6854,20.9958,-34.2914,0.2900,187,0,0,-0.001780,-0.003605,-0.290887,0.000094,0.040048,0.001060,-0.4262,-0.2936,1.5488
23141,13.0,0.011912,-0.014606,-0.243584,0.030802,0.043104,0.202460,11.0593,-19.7820,-19.5926,-0.06177809,0.06870510,0.01354425,1.80760646,-2.20902109,-0.59147906,-0.0475,-0.2699,-9.7338,0.030946,0.003467,0.004277,-3.3946,23.6854,20.9958,-34.2914,0.2920,191,0,0,-0.001779,-0.003540,-0.290865,0.001342,0.014234,0.002468,-0.4025,-0.2904,1.5387
23151,10.0,0.012230,-0.014175,-0.240719,0.031691,0.041828,0.215562,11.3485,-19.9581,-19.8863,-0.06380451,0.06997560,0.01393204,1.80126786,-2.17492461,-0.60266918,-0.0596,-0.1587,-9.8163,0.031143,-0.004830,0.016726,-3.3946,23.6854,20.9958,-34.2914,0.2920,189,0,0,-0.001753,-0.003372,-0.291374,0.002710,0.012583,-0.001097,-0.3694,-0.2993,1.5311
23162,11.0,0.012607,-0.013678,-0.237099,0.033466,0.043289,0.232494,11.3214,-19.8038,-19.5595,-0.06532258,0.06891967,0.01419323,1.83803332,-2.12364650,-0.62084866,-0.0281,-0.0760,-9.8619,0.034194,-0.007703,0.033443,-3.3946,23.6854,20.9958,-34.3443,0.2920,187,0,0,-0.001724,-0.003225,-0.291386,0.003538,0.014346,-0.001313,-0.3392,-0.3094,1.5363
23173,11.0,0.012932,-0.013344,-0.232416,0.018640,0.016562,0.285983,2.0362,-22.2065,-22.2985,-0.00574524,0.08397780,0.01027802,1.61583316,-1.29440081,-0.57922858,0.1362,-0.1282,-9.8315,-0.008594,-0.007381,0.046522,-3.3946,23.6854,20.9958,-34.3443,0.2910,182,0,0,-0.001700,-0.003169,-0.291444,0.002996,0.009719,-0.002244,-3.2017,-0.7625,1.9887
23186,13.0,0.013204,-0.013244,-0.227996,0.012439,-0.010259,0.298843,2.1662,-22.4260,-22.4216,-0.00778323,0.08561630,0.01051893,1.63069296,-1.24878740,-0.59075332,0.2437,-0.2721,-9.6933,-0.029457,-0.010889,0.041384,-3.3946,23.6854,20.9958,-34.3443,0.2910,178,0,0,-0.001675,-0.003408,-0.291019,0.005520,-0.020393,0.002834,-3.1941,-0.7861,2.0038
23197,11.0,0.013378,-0.013346,-0.224578,0.016168,-0.008369,0.309324,2.2489,-22.6312,-22.5388,-0.00827838,0.08712548,0.01057777,1.64341009,-1.23932719,-0.59756929,0.2829,-0.3048,-9.6194,0.005594,-0.017011,0.029601,-3.3946,23.6854,20.9958,-34.3443,0.2910,180,0,0,-0.001663,-0.003663,-0.290980,0.006576,-0.029194,0.005165,-3.2044,-0.8124,2.0081
23208,11.0,0.013614,-0.013368,-0.221182,0.023724,0.005817,0.319141,2.3127,-22.7879,-22.6212,-0.00815452,0.08848722,0.01061308,1.66153467,-1.24303675,-0.60488153,0.3288,-0.3023,-9.6950,0.047399,0.006520,0.025194,-2.7096,25.1019,21.5133,-34.3443,0.2920,177,0,0,-0.001633,-0.003708,-0.291170,0.008180,-0.019172,0.005304,-3.2242,-0.8267,2.0173
23219,11.0,0.013911,-0.013269,-0.217605,0.026396,0.012593,0.328032,2.4306,-22.9960,-22.7666,-0.00849646,0.09028714,0.01067161,1.67692435,-1.23768771,-0.61278307,0.3339,-0.2675,-9.7883,0.050973,0.023443,0.012854,-2.7096,25.1019,21.5133,-34.3443,0.2920,180,0,0,-0.001643,-0.003483,-0.291083,0.003307,0.007699,0.006975,-3.2637,-0.8573,2.0102
23230,11.0,0.014232,-0.013115,-0.213828,0.027939,0.015335,0.336743,2.5517,-23.1652,-22.8851,-0.00906650,0.09182683,0.01080332,1.69526720,-1.22693181,-0.62147927,0.3180,-0.2489,-9.8489,0.054084,0.022406,-0.000216,-2.7096,25.1019,21.5133,-34.3443,0.2920,178,0,0,-0.001631,-0.003356,-0.291007,0.003213,0.010746,0.007506,-3.2600,-0.8679,1.9984
23241,11.0,0.014560,-0.012945,-0.209961,0.027342,0.014860,0.343571,2.7099,-23.3915,-23.0596,-0.00988525,0.09373187,0.01092805,1.70893967,-1.21262670,-0.62975836,0.2151,-0.2067,-9.9752,0.047320,0.026351,-0.005719,-2.7096,25.1019,21.5133,-34.3443,0.2920,183,0,0,-0.001611,-0.003202,-0.291165,0.003923,0.008953,0.004583,-3.2411,-0.8712,1.9798
23252,11.0,0.014867,-0.012804,-0.205777,0.023627,0.009207,0.351311,2.8219,-23.4945,-23.1196,-0.01101242,0.09486452,0.01122199,1.73254538,-1.18986642,-0.64030117,0.1144,-0.1884,-9.9592,0.025131,0.029117,0.008408,-2.7096,25.1019,21.5133,-34.3443,0.2920,183,0,0,-0.001611,-0.003131,-0.291124,0.002478,0.003598,0.003657,-3.2185,-0.8749,1.9643
23263,11.0,0.015130,-0.012729,-0.201660,0.019466,0.002871,0.358262,2.9787,-23.7271,-23.2857,-0.01219663,0.09677767,0.01141218,1.74449658,-1.16930461,-0.64868540,0.0537,-0.2398,-9.9204,0.007023,0.031538,0.017035,-2.7096,25.1019,21.5133,-34.3443,0.2920,188,0,0,-0.001619,-0.003127,-0.291082,0.001685,-0.004038,0.002946,-3.1965,-0.8679,1.9574
23274,11.0,0.015368,-0.012701,-0.197314,0.019858,0.001115,0.366334,3.0500,-23.7946,-23.3003,-0.01305508,0.09752894,0.01170924,1.76860082,-1.15149868,-0.65863824,0.0523,-0.1928,-9.9417,0.012431,0.015198,0.014922,-2.7096,25.1019,21.5133,-34.3443,0.2930,187,0,0,-0.001631,-0.003180,-0.291812,0.001392,-0.011391,-0.002206,0.5539,-0.9188,2.0428
23285,11.0,0.015826,-0.012691,-0.197916,0.062588,-0.005469,0.337881,10.2393,-23.4249,-22.1356,-0.06508429,0.09512465,0.00730344,1.82789302,-1.59647775,-0.67522931,0.0649,-0.2093,-9.8889,0.006622,0.004802,0.016748,-2.7096,25.1019,21.5133,-34.3443,0.2930,187,1,0,-0.001619,-0.003091,-0.291839,0.003151,0.004274,-0.002946,0.5455,-0.9027,2.0588
23296,11.0,0.016346,-0.012859,-0.192173,0.021330,-0.032274,0.353578,10.5432,-23.7180,-22.4803,-0.06808937,0.09802786,0.00848096,1.85627115,-1.52256978,-0.70289832,0.0722,-0.2303,-9.8681,-0.021945,-0.009125,0.012207,-2.7096,25.1019,21.5133,-34.3443,0.2930,185,0,-1,-0.000927,-0.003079,-0.291875,0.046589,0.002104,-0.003369,0.5299,-0.7251,2.2076
23307,11.0,0.016629,-0.013046,-0.188340,0.026179,-0.000094,0.364953,10.6601,-23.9204,-22.6751,-0.06802619,0.09976145,0.00891349,1.87487543,-1.52691936,-0.71161038,0.1575,-0.2577,-9.8054,-0.017256,-0.010213,0.010538,-3.0529,25.8356,21.4711,-34.3443,0.2920,190,0,0,-0.000915,-0.003899,-0.291916,0.020404,-0.050828,-0.003235,0.6217,-0.8880,2.0952
23318,11.0,0.016953,-0.012983,-0.183470,0.028303,0.009999,0.380104,10.7837,-24.0698,-22.8011,-0.06886648,0.10096602,0.00938853,1.89240897,-1.50575709,-0.72445858,0.2133,-0.2359,-9.7643,-0.014577,-0.011311,0.011786,-3.0529,25.8356,21.4711,-34.3443,0.2920,190,0,0,-0.000933,-0.003890,-0.291965,0.005156,-0.010005,-0.002732,0.5544,-0.9614,2.0526
23329,11.0,0.017131,-0.012757,-0.178587,-0.005810,0.031307,0.394255,11.0639,-24.4416,-23.2323,-0.06978132,0.10478693,0.01049178,1.92863071,-1.48961818,-0.74834913,0.2657,-0.2913,-9.6927,-0.006469,0.000804,0.006150,-3.0529,25.8356,21.4711,-34.3443,0.2920,186,-1,0,-0.001257,-0.003948,-0.291993,-0.037895,-0.004906,-0.001661,0.5633,-1.1760,1.9076
23340,11.0,0.017236,-0.012396,-0.173273,0.024671,0.031310,0.411106,11.1402,-24.4423,-23.1894,-0.07065383,0.10423132,0.01053024,1.92682326,-1.46619666,-0.75191706,0.2055,-0.2733,-9.7375,0.022554,0.009705,-0.002201,-3.0529,25.8356,21.4711,-34.3443,0.2930,187,0,0,-0.001412,-0.003916,-0.292410,-0.009191,0.004783,-0.003719,0.5429,-1.0547,1.9851
23352,12.0,0.017622,-0.011979,-0.167188,0.034004,0.033437,0.427392,11.3545,-24.6037,-23.3636,-0.07198336,0.10538070,0.01102508,1.93163419,-1.43797469,-0.76297247,0.0983,-0.2269,-9.8081,0.023263,0.021983,0.001237,-3.0529,25.8356,21.4711,-34.3443,0.2930,186,0,0,-0.001448,-0.003774,-0.292451,-0.000083,0.012695,-0.002889,0.5518,-1.0111,2.0034
23363,11.0,0.018031,-0.011592,-0.160964,0.036416,0.034058,0.443761,11.4866,-24.6656,-23.4078,-0.07320604,0.10596484,0.01150401,1.95000005,-1.40562272,-0.77789092,0.0544,-0.2001,-9.8319,0.022276,0.023147,0.004048,-3.0529,25.8356,21.4711,-34.3443,0.2930,186,0,0,-0.001444,-0.003606,-0.292487,0.002166,0.014046,-0.002976,0.5744,-0.9867,2.0086
23376,13.0,0.018558,-0.011141,-0.153410,0.034025,0.026462,0.461679,11.7821,-24.9043,-23.6741,-0.07529452,0.10772821,0.01229744,1.95616484,-1.36342561,-0.79449159,-0.0248,-0.2643,-9.8080,-0.000862,0.006961,0.003980,-3.0529,25.8356,21.4711,-34.3443,0.2930,187,0,0,-0.001429,-0.003464,-0.292728,0.003019,0.012363,-0.004321,-0.4342,-0.8876,1.6421
23387,11.0,0.018961,-0.010832,-0.146887,0.035680,0.027173,0.477964,11.9518,-25.0269,-23.7801,-0.07656393,0.10861244,0.01282836,1.96996891,-1.33398592,-0.80837387,-0.0092,-0.2757,-9.7602,0.012671,-0.001303,0.007290,-3.0529,25.8356,21.4711,-34.3813,0.2930,188,0,0,-0.001419,-0.003493,-0.292766,0.003056,0.001618,-0.003742,-0.3381,-0.8939,1.6157
23398,11.0,0.019366,-0.010541,-0.136475,0.034439,0.023440,0.515329,9.6377,-25.2765,-25.0136,-0.05571660,0.10986059,0.02057684,1.92569315,-1.17544842,-0.81812513,-0.0322,-0.2658,-9.7737,0.018601,-0.009728,0.012503,-3.0529,25.8356,21.9254,-34.3813,0.2930,182,0,0,-0.001393,-0.003440,-0.292800,0.003297,0.004972,-0.002830,-0.3420,-0.9098,1.6144
23409,11.0,0.019772,-0.010273,-0.129548,0.035043,0.023172,0.529203,9.7610,-25.3930,-25.0887,-0.05665448,0.11078255,0.02109640,1.94376934,-1.14901376,-0.83157629,0.0247,-0.2486,-9.8798,0.025482,0.009733,0.028244,-3.0529,25.8356,21.9254,-34.3813,0.2930,188,0,0,-0.001372,-0.003324,-0.292895,0.002629,0.009071,-0.003430,-0.3472,-0.9206,1.6197
23420,11.0,0.020185,-0.010006,-0.122809,0.035455,0.023368,0.541345,9.9538,-25.6085,-25.2767,-0.05769714,0.11239761,0.02170581,1.95349574,-1.12527084,-0.84300673,0.0707,-0.2346,-9.9346,0.024942,0.013763,0.035104,-3.0529,25.8356,21.9254,-34.3813,0.2930,186,0,0,-0.001357,-0.003218,-0.292933,0.002334,0.010497,-0.004197,-0.3302,-0.9213,1.6285
23430,10.0,0.020543,-0.009781,-0.116051,0.034376,0.020758,0.553982,10.0652,-25.7067,-25.3319,-0.05870204,0.11321934,0.02223853,1.97266960,-1.09750497,-0.85670954,0.1249,-0.2013,-9.9980,0.015568,0.011501,0.035671,-3.0529,25.8356,21.9254,-34.3813,0.2930,184,0,0,-0.001345,-0.003131,-0.292982,0.002249,0.007999,-0.005745,-0.2847,-0.9190,1.6350
23442,12.0,0.020978,-0.009575,-0.107832,0.028266,0.007537,0.568867,10.3002,-25.9762,-25.5755,-0.06046873,0.11519456,0.02305929,1.98331547,-1.05786490,-0.87240994,0.2407,-0.3109,-9.9496,-0.024505,-0.001822,0.028216,-3.0529,25.8356,21.9254,-34.3813,0.2940,188,0,0,-0.001332,-0.003154,-0.293479,0.003101,-0.004152,-0.010828,-0.1940,-0.9260,1.6266
23453,11.0,0.021285,-0.009543,-0.099973,0.022272,-0.005081,0.584816,10.4845,-26.1933,-25.7707,-0.06203539,0.11672819,0.02377693,1.99657273,-1.02170086,-0.88759661,0.2533,-0.4060,-9.7833,-0.049688,-0.020588,0.004389,-3.0529,25.8356,21.9254,-34.3813,0.2940,178,0,0,-0.001315,-0.003383,-0.293615,0.004528,-0.018945,-0.010874,-0.1210,-0.9533,1.6010
23465,12.0,0.021473,-0.009467,-0.092446,-0.003971,0.020555,0.599154,10.7419,-26.6086,-26.1577,-0.06249022,0.12043889,0.02488726,2.03195786,-1.01648045,-0.90947753,0.2232,-0.3903,-9.7204,-0.002673,-0.015896,0.005364,-3.0529,25.8356,21.9254,-34.3231,0.2940,182,-1,0,-0.001295,-0.003568,-0.293720,0.005227,-0.020095,-0.010010,-0.1365,-0.9810,1.5883
23475,10.0,0.021574,-0.009269,-0.085748,0.023872,0.018541,0.614043,10.8128,-26.6403,-26.1534,-0.06301464,0.12014399,0.02493799,2.03180599,-1.00287163,-0.91157174,0.3015,-0.3874,-9.7844,0.018023,-0.000738,0.006578,-3.0529,25.8356,21.9254,-34.3231,0.2940,178,0,0,-0.001828,-0.003595,-0.293875,-0.035429,-0.008901,-0.009517,0.4031,-0.9880,1.1068
23486,11.0,0.021917,-0.009034,-0.078280,0.034935,0.023242,0.628442,10.9878,-26.8110,-26.3100,-0.06368339,0.12135064,0.02537695,2.04075670,-0.98964995,-0.92036933,0.3260,-0.3673,-9.8750,0.028718,0.021443,0.001316,-3.0529,25.8356,21.9254,-34.3231,0.2940,179,0,0,-0.001853,-0.003446,-0.293992,-0.005509,0.006790,-0.009657,0.3461,-0.8544,1.2025
23497,11.0,0.022335,-0.008768,-0.070140,0.036198,0.023508,0.643482,11.1845,-26.9815,-26.4834,-0.06468798,0.12279610,0.02598760,2.05584812,-0.96841425,-0.93377972,0.3035,-0.3595,-9.8997,0.017443,0.039007,-0.006296,-3.0543,26.2024,22.3585,-34.3231,0.2940,177,0,0,-0.001836,-0.003275,-0.294091,0.002309,0.012709,-0.010226,0.3321,-0.8153,1.2110
23508,11.0,0.022754,-0.008509,-0.060662,0.034951,0.021094,0.662781,11.4174,-26.7234,-27.1104,-0.06446697,0.12114602,0.03297099,2.07209444,-0.93925732,-0.95113742,0.2274,-0.3397,-9.8784,0.007942,0.038730,-0.010172,-3.0543,26.2024,22.3585,-34.3231,0.2930,174,0,0,-0.001844,-0.003153,-0.293660,0.003206,0.012002,-0.006220,0.3616,-0.8210,1.1731
23519,11.0,0.023162,-0.008276,-0.051809,0.034477,0.019312,0.679249,11.5829,-26.8709,-27.2756,-0.06536329,0.12233609,0.03369660,2.08724403,-0.91386634,-0.96507287,0.1663,-0.3222,-9.7940,0.008384,0.024541,-0.006978,-3.0543,26.2024,22.3585,-34.3231,0.2930,174,0,0,-0.001871,-0.003051,-0.293739,0.000833,0.008302,-0.006292,0.3828,-0.8137,1.1541
23529,10.0,0.023511,-0.008105,-0.043662,0.033523,0.013832,0.694043,11.7803,-27.0693,-27.4974,-0.06636509,0.12367401,0.03443006,2.09429836,-0.88823467,-0.97648782,0.0946,-0.3273,-9.7298,0.002965,-0.011461,-0.016790,-3.0543,26.2024,22.3585,-34.3971,0.2930,178,0,0,-0.001855,-0.003009,-0.293797,0.002768,0.003226,-0.005375,0.4204,-0.8160,1.1362
23541,12.0,0.024112,-0.008012,-0.033326,0.066396,-0.005921,0.715444,11.8509,-27.0610,-27.4514,-0.06746741,0.12268640,0.03429889,2.08834910,-0.85325831,-0.97968894,0.0540,-0.3031,-9.6554,0.002216,-0.024791,-0.015888,-3.0543,26.2024,22.3585,-34.3971,0.2940,182,1,0,-0.001358,-0.002999,-0.293905,0.046495,0.000205,-0.003824,0.4416,-0.6108,1.2608
23553,12.0,0.024855,-0.007993,-0.023649,0.045811,0.009546,0.731055,12.1511,-27.4298,-27.8544,-0.06823768,0.12575823,0.03571749,2.11419964,-0.83802521,-1.00011945,0.1026,-0.2621,-9.7559,0.014234,-0.016972,-0.008504,-3.0543,26.2024,22.3585,-34.3971,0.2940,179,0,0,-0.001216,-0.002972,-0.293941,0.017883,0.002619,-0.002513,0.4504,-0.7823,1.1435
23564,11.0,0.025526,-0.007931,-0.013756,0.075714,-0.001535,0.750026,12.2007,-27.3885,-27.7758,-0.06904166,0.12483813,0.03563072,2.11613250,-0.81146085,-1.00481784,0.1387,-0.2239,-9.8280,0.018555,0.002338,-0.001996,-3.0543,26.2024,22.3585,-34.3971,0.2940,184,1,0,-0.001126,-0.002891,-0.293970,0.009620,0.006604,-0.002039,0.4597,-0.8398,1.1006
23575,11.0,0.026163,-0.008043,-0.002214,0.029018,-0.023403,0.766559,12.6589,-27.8170,-28.2902,-0.07152120,0.12864061,0.03762553,2.13787031,-0.75518465,-1.03532350,0.1442,-0.2636,-9.8688,0.012350,0.020022,0.006335,-3.0543,26.2024,22.3585,-34.3971,0.2920,184,0,-1,-0.000549,-0.002785,-0.293083,0.047443,0.009946,0.005199,0.1913,-0.6100,1.1661
23586,11.0,0.026530,-0.008151,0.006610,0.033664,0.006274,0.781540,12.7485,-27.9624,-28.4195,-0.07122073,0.12999035,0.03821816,2.16488600,-0.76150078,-1.04771030,0.1185,-0.2827,-9.8162,0.004805,0.030813,0.003728,-3.0543,26.2024,22.3585,-34.3971,0.2920,184,0,0,-0.000460,-0.003392,-0.293022,0.017600,-0.036523,0.005144,0.3642,-0.7813,1.0131
23597,11.0,0.027099,-0.008117,0.016235,0.070300,-0.003032,0.798640,12.8468,-27.9780,-28.4244,-0.07196964,0.12941964,0.03814540,2.15508246,-0.74255198,-1.04709756,0.1143,-0.2831,-9.8255,0.009855,0.023990,0.006887,-3.3917,25.1092,21.4922,-34.3971,0.2920,188,1,0,-0.000483,-0.003296,-0.292972,0.006694,-0.007697,0.005372,0.2861,-0.8170,0.9754
23607,10.0,0.027706,-0.008076,0.025862,0.048141,0.011484,0.813782,13.0690,-28.2456,-28.6971,-0.07257586,0.13186446,0.03931576,2.18603992,-0.72890872,-1.06882286,0.1404,-0.2961,-9.7789,0.012658,0.005831,0.005807,-3.3917,25.1092,21.4922,-34.3971,0.2940,190,0,0,0.000180,-0.003189,-0.293387,0.045997,0.003592,0.001958,0.2471,-0.6017,1.1235
23618,11.0,0.028216,-0.007949,0.043621,0.039044,0.010105,0.856180,11.3327,-28.2345,-29.7116,-0.05520315,0.13217176,0.04830454,2.18520212,-0.64693153,-1.09523296,0.2042,-0.3085,-9.7643,0.012305,-0.014444,0.002687,-3.3917,25.1092,21.4922,-34.3971,0.2940,189,0,0,0.000164,-0.003124,-0.293369,0.018007,0.005064,0.002526,0.2658,-0.7659,1.0057
23629,11.0,0.028665,-0.007837,0.054770,0.037460,0.008979,0.873327,11.5150,-28.4231,-29.9085,-0.05591425,0.13343087,0.04917885,2.20250249,-0.62621325,-1.10985792,0.2476,-0.2759,-9.8270,0.020737,-0.020451,-0.009747,-3.3917,25.1092,21.4922,-34.3971,0.2940,188,0,0,0.000174,-0.003052,-0.293335,0.006378,0.006409,0.003093,0.2847,-0.8587,0.9409
23640,11.0,0.029098,-0.007731,0.065602,0.036295,0.009399,0.888796,11.7434,-28.6643,-30.1838,-0.05665114,0.13513263,0.05020423,2.21479201,-0.60812467,-1.12282073,0.2790,-0.2468,-9.8842,0.016246,-0.001167,-0.008131,-3.3917,25.1092,21.4922,-34.3971,0.2930,189,0,0,0.000210,-0.002981,-0.293150,0.004711,0.007302,0.004032,0.3026,-0.8874,0.9144
23651,11.0,0.029499,-0.007645,0.077429,0.030906,0.004583,0.906593,11.9318,-28.8451,-30.3969,-0.05756482,0.13650784,0.05117384,2.23231888,-0.58261549,-1.13888681,0.2426,-0.2757,-9.8163,-0.009611,0.014702,-0.010131,-3.3917,25.1092,21.4922,-34.3971,0.2930,187,0,0,0.000235,-0.002957,-0.293101,0.003622,0.001061,0.003948,0.3352,-0.9084,0.8811
23662,11.0,0.029859,-0.007586,0.088656,0.029846,0.005112,0.922675,12.1463,-29.0653,-30.6611,-0.05829730,0.13811579,0.05213428,2.24339199,-0.56532162,-1.15124965,0.1297,-0.2983,-9.7715,-0.005338,0.022946,-0.008493,-3.3917,25.1092,21.4922,-34.3971,0.2930,186,0,0,0.000238,-0.002950,-0.293060,0.002050,0.000614,0.004484,0.3400,-0.9160,0.8562
23673,11.0,0.030244,-0.007478,0.100322,0.036495,0.014869,0.940485,12.2580,-29.1568,-30.7541,-0.05853928,0.13880599,0.05266622,2.26376891,-0.55633473,-1.16370559,0.0653,-0.2737,-9.7638,0.029900,0.028657,-0.004931,-3.3917,25.1092,21.4922,-34.3971,0.2950,182,0,0,0.000238,-0.002863,-0.293872,0.001396,0.009109,-0.002033,-0.6108,-0.8337,0.5922
23685,12.0,0.030734,-0.007285,0.112967,0.037887,0.015707,0.957358,12.5118,-29.3924,-31.0305,-0.05933802,0.14044543,0.05363937,2.27377844,-0.53828931,-1.17616522,0.0463,-0.2662,-9.8239,0.024607,0.021067,-0.002843,-3.3917,25.1092,21.4922,-34.4500,0.2950,184,0,0,0.000248,-0.002687,-0.293894,0.001926,0.012464,-0.001589,-0.5945,-0.8169,0.5797
23697,12.0,0.031216,-0.007121,0.127274,0.034571,0.008328,0.977387,12.7093,-29.5529,-31.2032,-0.06040065,0.14148073,0.05452036,2.29197073,-0.50895572,-1.19351244,0.0411,-0.2718,-9.8302,0.003947,-0.001406,-0.000646,-3.3932,26.1951,22.8340,-34.4500,0.2950,181,0,0,0.000263,-0.002604,-0.293915,0.002436,0.006548,-0.001712,-0.5684,-0.8175,0.5635
23711,14.0,0.031796,-0.006996,0.142915,0.035316,0.005554,0.998464,13.0199,-29.8665,-31.5399,-0.06151806,0.14341299,0.05568928,2.30248356,-0.48430899,-1.20889378,0.0968,-0.2207,-9.8137,0.008223,-0.019022,0.004825,-3.3932,26.1951,22.8340,-34.4500,0.2930,184,0,0,0.000296,-0.002644,-0.293484,0.003717,-0.001964,0.002096,-0.5391,-0.8318,0.5511
23722,11.0,0.032189,-0.006943,0.156651,0.032314,0.002951,1.018178,13.1841,-30.0150,-31.6838,-0.06236184,0.14439796,0.05649351,2.32233238,-0.46117878,-1.22602308,0.1259,-0.2489,-9.8147,-0.005658,-0.001256,0.012654,-3.3932,26.1951,22.8340,-34.4500,0.2930,180,0,0,0.000314,-0.002674,-0.293463,0.003264,-0.003790,0.002262,-0.5315,-0.8438,0.5439
23734,12.0,0.032529,-0.007043,0.174641,0.012622,-0.028352,1.043069,14.0555,-29.5077,-32.4591,-0.06673303,0.14148645,0.06570627,2.35154510,-0.41389212,-1.25541639,0.1509,-0.2563,-9.8848,-0.002066,0.010710,0.010312,-3.3932,26.1951,22.8340,-34.4500,0.2940,176,0,-1,0.000330,-0.002723,-0.293660,0.002950,-0.005073,0.000021,-0.5290,-0.8489,0.5380
23746,12.0,0.032800,-0.007251,0.187760,0.028685,-0.002817,1.061257,14.1529,-29.6362,-32.5853,-0.06650190,0.14230484,0.06627256,2.37334085,-0.42118648,-1.26547122,0.1669,-0.3195,-9.8507,0.002200,0.005315,0.010837,-3.3932,26.1951,22.8340,-34.3390,0.2940,173,0,0,0.000356,-0.003442,-0.293666,0.004432,-0.048200,-0.000497,-0.4038,-0.8677,0.5169
23757,11.0,0.033139,-0.007268,0.201131,0.028892,-0.000990,1.079042,14.3692,-29.8569,-32.8656,-0.06711320,0.14377186,0.06733676,2.38302422,-0.40494898,-1.27816546,0.1104,-0.2847,-9.7769,-0.016708,-0.001767,0.007576,-3.3932,26.1951,22.8340,-34.3390,0.2940,173,0,0,0.000363,-0.003434,-0.293669,0.003705,-0.018680,-0.000217,-0.4953,-0.8666,0.5182
23768,11.0,0.033490,-0.007263,0.215670,0.030807,0.000989,1.099841,14.5035,-29.9847,-33.0036,-0.06761610,0.14451930,0.06803557,2.40055704,-0.38716823,-1.29307425,0.0745,-0.2874,-9.7209,-0.007687,-0.009607,0.007244,-3.3932,26.1951,22.8340,-34.3390,0.2920,179,0,0,0.000371,-0.003536,-0.292926,0.003094,-0.014835,0.007047,-0.5138,-0.8793,0.5106
23779,11.0,0.033880,-0.007219,0.229102,0.036265,0.006806,1.117801,14.7148,-30.1938,-33.2485,-0.06804968,0.14579861,0.06892316,2.41012478,-0.37677214,-1.30384696,0.1211,-0.3208,-9.7491,0.015515,-0.010520,0.015952,-3.3932,26.1951,22.8340,-34.3390,0.2920,177,0,0,0.000390,-0.003528,-0.292820,0.003174,0.000648,0.008633,0.2603,-0.6149,0.2990
23790,11.0,0.034323,-0.007115,0.243900,0.040109,0.011762,1.138440,14.8701,-30.3291,-33.3883,-0.06847406,0.14662920,0.06963094,2.42790246,-0.36260146,-1.31842101,0.1621,-0.2790,-9.7797,0.024551,-0.000184,0.020830,-3.3917,25.4687,22.4009,-34.3390,0.2920,176,0,0,0.000415,-0.003461,-0.292729,0.003186,0.007803,0.009437,0.2642,-0.6197,0.3004
23801,11.0,0.034801,-0.006965,0.258174,0.042318,0.015174,1.157479,15.1144,-30.5418,-33.6572,-0.06902830,0.14809203,0.07063340,2.43869972,-0.34960550,-1.33128548,0.2593,-0.3521,-9.7776,0.028107,0.014468,0.014375,-3.3917,25.4687,22.4009,-34.3390,0.2940,182,0,0,0.000434,-0.003347,-0.292633,0.002712,0.011928,0.009912,0.2764,-0.6239,0.2954
23812,11.0,0.035295,-0.006792,0.273537,0.042825,0.015535,1.178446,15.3353,-30.7144,-33.8784,-0.06965362,0.14927743,0.07153346,2.45310688,-0.33256412,-1.34649384,0.2582,-0.3782,-9.7655,0.026487,0.013356,0.004607,-3.3917,25.4687,22.4009,-34.3390,0.2940,176,0,0,0.000458,-0.003189,-0.293163,0.003432,0.012102,0.005628,0.2972,-0.6278,0.2817
23823,11.0,0.035805,-0.006609,0.288471,0.045493,0.017000,1.198304,15.6002,-30.9272,-34.1589,-0.07026383,0.15065973,0.07247900,2.46261311,-0.31848496,-1.35924041,0.2183,-0.3883,-9.7321,0.038343,-0.000380,-0.005704,-3.3917,25.4687,22.4009,-34.3390,0.2940,181,0,0,0.000493,-0.003000,-0.293086,0.004731,0.014170,0.006779,0.3196,-0.6318,0.2630
23834,11.0,0.036336,-0.006418,0.304614,0.046349,0.016834,1.219626,15.8356,-31.1009,-34.3834,-0.07092207,0.15177427,0.07334059,2.47688913,-0.30080432,-1.37489474,0.2080,-0.3649,-9.7979,0.037116,-0.003128,-0.006001,-3.3917,25.4687,22.4009,-34.3390,0.2930,182,0,0,0.000527,-0.002847,-0.292998,0.005283,0.014522,0.007586,0.3426,-0.6412,0.2450
23844,10.0,0.036805,-0.006251,0.324014,0.046701,0.016390,1.251949,15.0373,-31.1362,-35.2413,-0.06120153,0.15254517,0.07950446,2.47227526,-0.26581848,-1.39368248,0.2687,-0.4042,-9.8090,0.045632,-0.003573,0.003354,-3.3917,25.4687,22.4009,-34.3390,0.2930,182,0,0,0.000569,-0.002658,-0.292920,0.006215,0.017129,0.007952,0.3641,-0.6508,0.2309
23855,11.0,0.037350,-0.006073,0.340621,0.047304,0.015202,1.273078,15.2776,-31.3218,-35.4935,-0.06174870,0.15372598,0.08051029,2.48619437,-0.24912998,-1.40906358,0.2926,-0.3832,-9.8238,0.047589,-0.006611,-0.001708,-3.3917,25.4687,22.4009,-34.3390,0.2930,179,0,0,0.000613,-0.002445,-0.292840,0.006926,0.019722,0.008089,0.3876,-0.6640,0.2166
23866,11.0,0.037635,-0.005957,0.360675,-0.008692,0.003745,1.294927,15.8607,-31.7828,-36.2076,-0.06341143,0.15761240,0.08358595,2.51053143,-0.20517513,-1.44594657,0.2276,-0.3563,-9.8342,0.048130,-0.004650,-0.014539,-3.3917,25.4687,22.4009,-34.3390,0.2940,183,-1,-1,0.000658,-0.002227,-0.292759,0.007010,0.020861,0.008145,0.4163,-0.6810,0.1930
23877,11.0,0.037757,-0.005869,0.375321,0.031682,0.012862,1.315199,15.8830,-31.7731,-36.1699,-0.06314185,0.15696314,0.08316230,2.51688719,-0.20943470,-1.44580805,0.1768,-0.3360,-9.8103,0.049192,0.005427,-0.015397,-3.3917,25.4687,22.4009,-34.3390,0.2940,181,0,0,0.000053,-0.002683,-0.293249,-0.034681,-0.024564,0.003398,-0.5801,-1.0892,-0.1006
23888,11.0,0.038203,-0.005704,0.391020,0.046987,0.017154,1.333770,16.1163,-31.9429,-36.4073,-0.06342793,0.15777785,0.08377615,2.52206135,-0.20266454,-1.45315957,0.0306,-0.3442,-9.8048,0.066268,-0.019882,-0.020184,-3.3917,25.4687,22.4009,-34.3390,0.2940,182,0,0,0.000122,-0.002463,-0.293210,0.001961,0.017294,0.004331,-0.6444,-0.8758,0.0492
