timestamp_ms,dt_ms,pos_x,pos_y,pos_z,vel_x,vel_y,vel_z,roll_deg,pitch_deg,yaw_deg,gyro_bias_x,gyro_bias_y,gyro_bias_z,accel_bias_x,accel_bias_y,accel_bias_z,raw_accel_x,raw_accel_y,raw_accel_z,raw_gyro_x,raw_gyro_y,raw_gyro_z,raw_mag_x,raw_mag_y,raw_mag_z,raw_baro_alt,raw_tof,raw_flow_squal,raw_flow_dx,raw_flow_dy,dev_pos_x,dev_pos_y,dev_pos_z,dev_vel_x,dev_vel_y,dev_vel_z,dev_roll_deg,dev_pitch_deg,dev_yaw_deg
10865,10.0,-0.000287,-0.000083,-0.262927,-0.022983,-0.007020,-0.001440,-0.0286,0.0365,0.0073,0.00000000,0.00000000,0.00000000,0.00208353,0.00259695,0.00000000,1.1491,0.2556,-9.8881,-0.046152,0.050004,0.012925,21.3117,-7.9400,14.6585,20.0892,0.2630,131,0,0,-0.000921,0.000000,-0.297173,0.134366,0.014251,-0.319477,-0.1016,-0.0687,0.2878
10875,10.0,-0.000457,-0.000752,-0.262938,-0.012110,-0.036788,-0.000793,-0.2456,0.1010,-0.0232,0.00000033,-0.00000017,0.00000003,0.00208048,0.00292582,0.00000016,1.0754,0.1425,-9.7414,-0.049781,0.028223,-0.017796,21.3117,-7.9400,14.6585,20.0892,0.2630,133,0,-1,-0.001019,-0.000019,-0.279253,0.141475,0.017136,-0.072745,-0.1273,-0.0441,0.3061
10886,11.0,-0.000502,-0.000861,-0.260890,-0.000454,-0.026066,0.095053,-0.0949,0.0816,-0.0229,-0.00000018,-0.00000012,-0.00000002,0.00204854,0.00260743,-0.00005814,0.9827,0.0731,-9.6444,-0.039814,0.003055,-0.028632,21.3117,-7.9400,14.6585,20.0892,0.2630,131,0,0,-0.001228,-0.000355,-0.280484,0.155227,0.017508,-0.049649,-0.1895,0.0209,0.3278
10898,12.0,0.000118,-0.000959,-0.262952,0.026568,-0.020218,0.001930,0.0773,-0.3529,-0.0208,-0.00000100,0.00000152,-0.00000010,0.00114254,0.00225585,0.00002076,0.9585,-0.0111,-9.5686,-0.027702,-0.007615,-0.023075,20.9033,-7.1215,15.1697,20.0892,0.2630,131,1,0,-0.001233,-0.000366,-0.280825,0.161294,0.017148,-0.035765,-0.2131,0.0191,0.3222
10909,11.0,0.000113,-0.000962,-0.262784,0.027700,-0.014821,0.007741,0.3358,0.0413,-0.0034,-0.00000239,-0.00000070,-0.00000023,0.00187934,0.00179656,-0.00002780,0.8957,-0.0526,-9.5929,0.016156,-0.002056,-0.013870,20.9033,-7.1215,15.1697,20.0892,0.2620,131,0,0,-0.001124,-0.000437,-0.281120,0.166922,0.015777,-0.022585,-0.2301,0.0529,0.3185
10920,11.0,0.000035,-0.000905,-0.262702,0.025012,-0.007626,0.008006,0.6378,0.6777,0.0290,-0.00000419,-0.00000544,-0.00000043,0.00293535,0.00127931,-0.00002806,0.8149,0.1110,-9.7457,0.060990,0.010714,-0.002998,20.9033,-7.1215,15.1697,20.0892,0.2620,135,0,0,-0.001176,-0.000374,-0.267417,0.175551,0.014398,0.143019,-0.1991,0.0545,0.3150
10931,11.0,-0.000030,-0.000851,-0.262034,0.022971,-0.000474,0.017419,0.8476,1.2388,0.0558,-0.00000568,-0.00001032,-0.00000064,0.00399495,0.00096252,-0.00036072,0.8469,0.2621,-9.9027,0.059675,0.009537,-0.005503,20.9033,-7.1215,15.1697,20.1447,0.2620,127,0,0,-0.001220,-0.000337,-0.265924,0.179351,0.014985,0.155635,-0.1654,0.0603,0.3236
10942,11.0,0.000032,-0.000892,-0.261856,0.024210,0.003253,0.015367,0.7075,1.6429,0.0481,-0.00000417,-0.00001478,-0.00000064,0.00467507,0.00115047,-0.00035934,0.9393,0.3740,-9.9570,-0.017696,-0.002656,-0.018512,20.9033,-7.1215,15.1697,20.1447,0.2640,127,0,0,-0.001369,-0.000381,-0.263431,0.186520,0.018445,0.168186,-0.1255,0.1061,0.3499
10953,11.0,0.000278,-0.001032,-0.261604,0.030004,0.001910,0.016260,0.3154,1.7197,-0.0021,-0.00000013,-0.00001597,-0.00000028,0.00486271,0.00175437,-0.00050714,0.9640,0.2690,-9.8179,-0.103293,-0.028228,-0.034488,20.9033,-7.1215,15.1697,20.1447,0.2640,133,0,0,-0.001429,-0.000504,-0.261661,0.190432,0.020370,0.178985,-0.1569,0.1402,0.3662
10964,11.0,0.000561,-0.001206,-0.263164,0.033287,-0.002060,-0.006701,-0.1365,1.9731,-0.0690,0.00000528,-0.00001959,0.00000016,0.00499431,0.00237032,0.00274016,0.9301,0.1519,-9.6469,-0.135613,-0.023431,-0.059276,20.9033,-7.1215,15.1697,20.1447,0.2640,127,0,0,-0.001357,-0.000563,-0.259813,0.195205,0.022193,0.190654,-0.2159,0.1251,0.3585
10975,11.0,0.000852,-0.001317,-0.263174,0.038363,-0.005086,-0.002785,-0.3224,2.1372,-0.1230,0.00000754,-0.00002281,0.00000036,0.00536166,0.00262320,0.00259909,1.1061,-0.0281,-9.4613,-0.082811,-0.035349,-0.066627,20.9033,-7.1215,15.1697,20.1447,0.2630,128,0,0,-0.001280,-0.000774,-0.255673,0.203277,0.021738,0.218685,-0.3718,0.1328,0.3203
10986,11.0,0.000524,-0.001333,-0.263217,0.024923,-0.004635,-0.000918,-0.2574,3.3253,-0.1479,0.00000617,-0.00004707,0.00000006,0.00760391,0.00249924,0.00262752,1.2089,-0.0205,-9.4905,-0.002107,-0.012948,-0.058870,21.3190,-7.1225,15.1675,20.1130,0.2630,131,-1,0,-0.001351,-0.000909,-0.259715,0.207702,0.019660,0.166030,-0.4194,0.1725,0.3542
10997,11.0,0.000449,-0.001337,-0.262765,0.021460,-0.003893,0.006257,-0.1756,3.8421,-0.1733,0.00000438,-0.00005916,-0.00000017,0.00874450,0.00237544,0.00082201,1.1898,-0.0243,-9.5676,0.006764,0.027716,-0.054431,21.3190,-7.1225,15.1675,20.1130,0.2630,128,0,0,-0.001543,-0.000904,-0.257932,0.213681,0.018424,0.181104,-0.4255,0.1653,0.3331
11008,11.0,0.000167,-0.000831,-0.262705,0.011053,0.011208,0.006547,0.5493,4.5942,-0.0922,-0.00001491,-0.00007879,-0.00000255,0.01008284,0.00100912,0.00083431,1.0683,0.0417,-9.6818,0.026966,0.071457,-0.020298,21.3190,-7.1225,15.1675,20.1130,0.2640,135,0,1,-0.001846,-0.000781,-0.259641,0.223179,0.016043,0.145505,-0.4188,0.2646,0.3042
11019,11.0,-0.000276,-0.000758,-0.262587,-0.005762,0.013598,0.006892,0.4853,5.3143,-0.0862,-0.00001202,-0.00009995,-0.00000252,0.01139179,0.00118532,0.00045324,0.6013,0.3030,-9.7838,0.038459,0.101079,0.001216,21.3190,-7.1225,15.1675,20.1130,0.2640,137,0,0,-0.002096,-0.000628,-0.258085,0.225563,0.015684,0.157982,-0.4051,0.3480,0.3093
11030,11.0,-0.000799,-0.000669,-0.262709,-0.022297,0.016409,0.004536,0.3852,5.8432,-0.0638,-0.00000648,-0.00011605,-0.00000276,0.01232561,0.00128313,0.00161025,0.4150,0.4216,-9.8067,0.043904,0.107879,0.009771,21.3190,-7.1225,15.1675,20.1130,0.2640,129,0,0,-0.002271,-0.000616,-0.256449,0.225819,0.017091,0.169295,-0.3879,0.4035,0.3220
11042,12.0,-0.000383,-0.000664,-0.262588,-0.009781,0.016723,0.005597,0.1334,5.1236,-0.1188,0.00000334,-0.00008446,-0.00000099,0.01093753,0.00173124,0.00123479,0.5519,0.4366,-9.7869,-0.032519,0.006205,-0.007717,21.3190,-7.1225,15.1675,20.1130,0.2620,127,1,0,-0.002617,-0.000667,-0.252771,0.220059,0.022479,0.191876,-0.3674,0.5337,0.3757
11053,11.0,0.000369,-0.000712,-0.262503,0.009193,0.014670,0.006200,-0.1515,4.2824,-0.1928,0.00001583,-0.00004345,0.00000134,0.00936009,0.00214836,0.00120233,0.6794,0.3674,-9.7529,-0.062286,-0.050569,-0.031018,21.3190,-7.1225,15.1675,20.1130,0.2620,127,1,0,-0.002482,-0.000792,-0.257994,0.217755,0.024654,0.123668,-0.3986,0.5847,0.4110
11064,11.0,0.000826,-0.000755,-0.261713,0.020044,0.011950,0.016448,-0.3571,3.9050,-0.2567,0.00002574,-0.00002640,0.00000267,0.00925717,0.00258374,-0.00467054,0.9414,0.2221,-9.5860,-0.053914,-0.087705,-0.062679,21.3190,-7.1225,15.1675,19.9941,0.2620,128,0,0,-0.002051,-0.000950,-0.255250,0.218327,0.028365,0.146501,-0.4849,0.5552,0.4075
11076,12.0,0.001264,-0.000798,-0.261497,0.027604,0.008231,0.019385,-0.5478,3.7241,-0.3041,0.00003563,-0.00001768,0.00000375,0.00895379,0.00287887,-0.00467612,0.9645,0.1112,-9.5248,-0.059802,-0.069995,-0.046981,21.3190,-7.1225,15.1675,19.9941,0.2630,130,0,0,-0.001861,-0.000981,-0.253587,0.221341,0.028950,0.160566,-0.5192,0.5064,0.3850
11087,11.0,0.001373,-0.000840,-0.261161,0.026389,0.004423,0.024013,-0.6672,3.8692,-0.3196,0.00004247,-0.00002935,0.00000412,0.00935662,0.00308376,-0.00575104,0.9313,-0.0036,-9.4673,-0.047254,-0.004296,-0.019249,21.3190,-7.1225,15.1675,19.9941,0.2630,135,0,0,-0.001697,-0.001138,-0.257656,0.225048,0.027210,0.111835,-0.6018,0.4939,0.4352
11098,11.0,0.001367,-0.000806,-0.261727,0.022806,0.003311,0.016810,-0.6816,4.1066,-0.3083,0.00004410,-0.00004786,0.00000404,0.00910517,0.00297502,0.00226442,0.9644,0.0573,-9.5174,0.012973,0.011398,0.019505,21.7310,-7.9421,14.6540,19.9941,0.2630,134,0,0,-0.001763,-0.001209,-0.256369,0.225826,0.025507,0.126190,-0.6248,0.5309,0.4369
11109,11.0,0.001421,-0.000727,-0.261452,0.021307,0.004420,0.019788,-0.6211,4.2296,-0.2898,0.00004154,-0.00006091,0.00000362,0.00945358,0.00293643,0.00141307,0.9550,0.1401,-9.5805,0.052506,-0.009424,0.023717,21.7310,-7.9421,14.6540,19.9941,0.2620,137,0,0,-0.001782,-0.001200,-0.255043,0.228091,0.024451,0.138954,-0.6222,0.5414,0.4606
11120,11.0,0.001720,-0.000698,-0.261219,0.024986,0.004303,0.022580,-0.6230,4.1682,-0.2668,0.00004301,-0.00005804,0.00000380,0.00936931,0.00296035,0.00141460,0.9594,0.1372,-9.5102,0.014530,-0.055222,0.038289,21.7310,-7.9421,14.6540,19.9941,0.2620,137,0,0,-0.001819,-0.001240,-0.257580,0.230663,0.023001,0.107300,-0.5855,0.5728,0.5213
11131,11.0,0.002130,-0.000640,-0.261648,0.029970,0.005239,0.016399,-0.6014,4.0661,-0.2189,0.00004312,-0.00005015,0.00000393,0.00863477,0.00283913,0.00839100,0.9659,0.1953,-9.5799,0.036734,-0.078627,0.076588,21.7310,-7.9421,14.6540,19.9941,0.2630,137,0,0,-0.001782,-0.001300,-0.256447,0.231130,0.022537,0.119516,-0.5821,0.5790,0.5614
11142,11.0,0.002526,-0.000513,-0.261455,0.035494,0.008896,0.018520,-0.5175,3.9964,-0.1854,0.00003951,-0.00004779,0.00000356,0.00856260,0.00276403,0.00839977,1.1247,0.3456,-9.5516,0.088540,-0.082641,0.046288,21.7310,-7.9421,14.6540,19.9941,0.2630,135,0,0,-0.001568,-0.001359,-0.258509,0.233772,0.023419,0.094297,-0.5445,0.5398,0.6811
11153,11.0,0.002723,-0.000470,-0.261146,0.037980,0.010132,0.020312,-0.5347,4.0831,-0.1844,0.00004472,-0.00006522,0.00000372,0.00889631,0.00285344,0.00726209,1.2983,0.3187,-9.6824,0.022756,-0.031765,0.002466,21.7310,-7.9421,14.6540,19.9941,0.2630,133,0,0,-0.001445,-0.001322,-0.257413,0.237564,0.025399,0.106900,-0.4987,0.5006,0.7179
11164,11.0,0.001555,-0.000522,-0.261702,0.014859,0.009293,0.009531,-0.6555,4.8388,-0.1644,0.00006038,-0.00019785,0.00000170,0.00970106,0.00288525,0.01472162,1.3048,0.3216,-9.8523,-0.050442,0.040648,-0.009263,21.7310,-7.9421,14.6540,19.9941,0.2630,135,-2,0,-0.001485,-0.001429,-0.256294,0.240218,0.026453,0.117288,-0.4959,0.5347,0.7463
11175,11.0,0.000222,-0.000584,-0.261529,-0.008344,0.006667,0.009754,-0.7664,5.5147,-0.1696,0.00007491,-0.00032662,0.00000023,0.01110701,0.00305478,0.01364327,1.1829,0.1437,-9.7715,-0.060206,0.066217,-0.029357,21.7310,-7.9421,14.6540,19.9941,0.2620,135,-2,0,-0.001938,-0.001468,-0.255076,0.243871,0.028201,0.126437,-0.5209,0.5547,0.7597
11186,11.0,-0.000193,-0.000581,-0.261423,-0.015130,0.005608,0.009904,-0.8008,5.6912,-0.1718,0.00008141,-0.00035458,0.00000035,0.01138274,0.00311244,0.01360020,0.8372,0.1504,-9.7419,-0.008318,0.081988,-0.000586,20.0829,-8.7617,14.9107,20.0179,0.2620,134,0,0,-0.002872,-0.001667,-0.258127,0.244558,0.028117,0.087352,-0.5989,0.6960,0.7870
11197,11.0,-0.000047,-0.000562,-0.260895,-0.012839,0.006080,0.015494,-0.8110,5.6074,-0.1759,0.00008553,-0.00032225,0.00000160,0.01152854,0.00322890,0.00954658,0.6630,0.2560,-9.7211,0.008510,0.072770,0.008673,20.0829,-8.7617,14.9107,20.0179,0.2620,129,1,0,-0.002995,-0.001740,-0.256080,0.240656,0.028307,0.107839,-0.6109,0.8319,0.8257
11208,11.0,0.000188,-0.000547,-0.260727,-0.009905,0.007720,0.014825,-0.8313,5.4993,-0.1942,0.00009272,-0.00028227,0.00000333,0.01129259,0.00323230,0.00958796,0.6326,0.3956,-9.8450,0.009177,0.056725,-0.010611,20.0829,-8.7617,14.9107,20.0179,0.2630,127,1,0,-0.002935,-0.001822,-0.259856,0.237193,0.028813,0.063592,-0.6219,0.9045,0.8508
11219,11.0,-0.000066,-0.000550,-0.260481,-0.015240,0.009494,0.013875,-0.8697,5.5730,-0.1769,0.00010372,-0.00029509,0.00000374,0.01147185,0.00332392,0.00862366,0.6760,0.4703,-9.9681,-0.005219,0.049365,0.023207,20.0829,-8.7617,14.9107,20.0179,0.2630,129,0,0,-0.002810,-0.001829,-0.259104,0.234773,0.031032,0.072390,-0.6201,0.9427,0.8603
11230,11.0,0.000371,-0.000628,-0.261102,-0.008323,0.009570,0.002374,-0.9777,5.3924,-0.2078,0.00012695,-0.00022915,0.00000836,0.01041386,0.00323905,0.01590901,0.6975,0.4692,-9.9958,-0.059058,0.026030,0.000306,20.0829,-8.7617,14.9107,20.0179,0.2630,129,1,0,-0.002739,-0.001947,-0.257400,0.228891,0.035515,0.087325,-0.6601,1.0308,0.9226
11241,11.0,0.001004,-0.000708,-0.261016,0.001412,0.009395,0.000645,-1.0768,5.1574,-0.2543,0.00014888,-0.00014642,0.00001397,0.01007033,0.00336298,0.01525222,0.7607,0.4519,-9.9965,-0.059172,-0.010910,-0.006688,20.0829,-8.7617,14.9107,20.0179,0.2620,130,1,0,-0.002763,-0.002079,-0.259776,0.225367,0.037084,0.057485,-0.7147,1.0752,0.9546
11252,11.0,0.001878,-0.000814,-0.261021,0.013976,0.007770,-0.001707,-1.1927,4.8676,-0.3172,0.00017435,-0.00004495,0.00002066,0.00963084,0.00344988,0.01530462,0.8019,0.3609,-9.9683,-0.078840,-0.052319,-0.024182,20.0829,-8.7617,14.9107,20.0179,0.2620,130,1,0,-0.002498,-0.002121,-0.259170,0.224198,0.039257,0.063746,-0.7528,1.0760,0.9652
11263,11.0,0.002406,-0.001009,-0.260965,0.019871,0.002724,0.000213,-1.3625,4.7126,-0.3443,0.00020738,0.00000035,0.00002494,0.00950050,0.00360496,0.01467781,0.8388,0.1388,-9.6558,-0.144894,-0.077658,-0.021074,20.0829,-8.7617,14.9107,20.0179,0.2620,133,0,0,-0.002021,-0.002290,-0.257652,0.222216,0.040106,0.079171,-0.8743,1.0482,0.9777
11274,11.0,0.002848,-0.001225,-0.260943,0.022168,-0.002961,0.003808,-1.5233,4.6152,-0.3479,0.00023644,0.00002917,0.00002788,0.00938191,0.00372443,0.01467761,0.6772,0.0388,-9.4455,-0.154960,-0.055819,-0.002593,20.0829,-8.7617,14.9107,20.1130,0.2630,136,0,0,-0.001866,-0.002425,-0.260448,0.220245,0.038493,0.048587,-0.9672,1.0379,0.9824
11285,11.0,0.002001,-0.001302,-0.260816,0.005941,-0.006418,0.009306,-1.5686,4.8735,-0.3303,0.00024042,-0.00011119,0.00002508,0.01001787,0.00376057,0.01406030,0.7923,-0.0251,-9.3366,-0.059499,-0.034006,0.007077,20.4877,-7.1204,14.9152,20.1130,0.2630,133,-2,0,-0.001970,-0.002556,-0.259242,0.215788,0.033490,0.072519,-1.1182,0.9961,0.9254
11296,11.0,0.001582,-0.000749,-0.261389,0.000811,0.000488,0.004947,-1.4146,4.9803,-0.3073,0.00015786,-0.00017692,0.00001753,0.00976362,0.00323412,0.02021293,1.0201,0.0308,-9.3925,-0.001609,-0.024947,0.040618,20.4877,-7.1204,14.9152,20.1130,0.2630,129,-1,1,-0.002286,-0.002576,-0.258381,0.214507,0.030570,0.085873,-1.1459,0.9841,0.9494
11307,11.0,0.000963,-0.000196,-0.261272,-0.004813,0.006981,0.008588,-1.2854,5.1421,-0.2636,0.00008198,-0.00026624,0.00000945,0.01014861,0.00294800,0.01980362,1.1955,0.0818,-9.4428,-0.008068,0.011443,0.061368,20.4877,-7.1204,14.9152,20.1130,0.2630,132,-1,1,-0.002449,-0.002368,-0.257462,0.215430,0.028883,0.097951,-1.1496,0.9804,0.9908
11318,11.0,0.000819,-0.000197,-0.261165,-0.002489,0.005017,0.010742,-1.3079,5.1845,-0.2527,0.00009217,-0.00028284,0.00001037,0.01018784,0.00299183,0.01979327,1.2329,0.1363,-9.5227,-0.011732,0.025059,0.024865,20.4877,-7.1204,14.9152,20.1130,0.2630,129,0,0,-0.002807,-0.002256,-0.259910,0.217878,0.026055,0.075683,-1.1658,1.0581,1.0757
11329,11.0,0.000684,-0.000193,-0.260913,-0.001986,0.003496,0.014227,-1.3218,5.2265,-0.2507,0.00009910,-0.00030041,0.00001094,0.01034013,0.00304240,0.01874392,1.0827,0.1459,-9.5467,-0.006379,0.024604,0.009560,20.4877,-7.1204,14.9152,20.1685,0.2620,134,0,0,-0.002849,-0.002263,-0.259102,0.220395,0.024868,0.086021,-1.1762,1.0802,1.1024
11341,12.0,0.000506,-0.000193,-0.260724,-0.004758,0.001617,0.017355,-1.3362,5.2813,-0.2664,0.00010374,-0.00032284,0.00001130,0.01042715,0.00307622,0.01874001,0.8274,0.1046,-9.4959,-0.009707,0.034676,-0.015441,20.4877,-7.1204,14.9152,20.1685,0.2620,131,0,0,-0.003012,-0.002139,-0.259455,0.218808,0.023042,0.083913,-1.1923,1.1647,1.1298
11352,11.0,0.000480,-0.000175,-0.260478,-0.006180,0.000347,0.020833,-1.3313,5.2764,-0.2732,0.00010256,-0.00031700,0.00001123,0.01043793,0.00307897,0.01841381,0.7127,0.0989,-9.4935,0.006532,0.003940,-0.012179,20.4877,-7.1204,14.9152,20.1685,0.2620,134,0,0,-0.003040,-0.002144,-0.258527,0.216952,0.021599,0.095272,-1.2013,1.1887,1.1338
11364,12.0,0.000602,-0.000087,-0.260561,-0.006744,0.000941,0.019550,-1.2745,5.2106,-0.2674,0.00008777,-0.00028030,0.00001025,0.01014094,0.00299150,0.02128244,0.5897,0.1708,-9.5422,0.056691,-0.031845,0.000560,20.4877,-7.1204,14.9152,20.1685,0.2620,127,0,0,-0.003014,-0.002137,-0.257522,0.214135,0.020208,0.105828,-1.1991,1.1961,1.1392
11375,11.0,0.001353,-0.000036,-0.260310,0.003499,0.001215,0.021156,-1.2421,5.0302,-0.2286,0.00008028,-0.00014269,0.00001095,0.00975887,0.00297307,0.02104837,0.7798,0.1891,-9.6419,0.034259,-0.039899,0.037586,20.4877,-7.1204,14.9152,20.1685,0.2620,122,1,0,-0.002892,-0.002115,-0.258753,0.206939,0.018462,0.089691,-1.1483,1.1890,1.1697
11386,11.0,0.001418,-0.000019,-0.260073,0.003951,0.000850,0.021878,-1.2314,5.0186,-0.1860,0.00007905,-0.00013835,0.00001091,0.00974518,0.00297458,0.02104869,0.8735,0.1721,-9.6835,0.009103,-0.012592,0.066745,22.1467,-8.3530,14.6517,20.1685,0.2620,129,0,0,-0.002652,-0.002140,-0.257812,0.204631,0.018103,0.098687,-1.1348,1.1987,1.2279
11398,12.0,0.001348,-0.000007,-0.260415,0.004520,0.000774,0.015036,-1.2217,5.0511,-0.1414,0.00007778,-0.00016177,0.00001052,0.00937390,0.00289937,0.02585308,1.0606,0.2019,-9.7121,0.006397,0.012284,0.067557,22.1467,-8.3530,14.6517,20.1685,0.2620,126,0,0,-0.002674,-0.002201,-0.255618,0.202282,0.017298,0.116136,-1.1337,1.2413,1.3276
11409,11.0,0.001155,0.000040,-0.260253,0.004857,0.000832,0.014414,-1.1946,5.1165,-0.1195,0.00007046,-0.00021030,0.00000923,0.00945797,0.00288573,0.02584894,1.2309,0.1676,-9.7696,0.028413,0.030166,0.040069,22.1467,-8.3530,14.6517,20.2266,0.2620,133,0,0,-0.002719,-0.002205,-0.259261,0.204150,0.016946,0.072043,-1.1282,1.2635,1.3747
11420,11.0,0.000986,0.000113,-0.260087,0.004230,0.001489,0.013280,-1.1549,5.1714,-0.1199,0.00005856,-0.00025441,0.00000741,0.00955608,0.00286435,0.02572229,1.1241,0.1901,-9.8420,0.046197,0.024283,0.000880,22.1467,-8.3530,14.6517,20.2266,0.2620,134,0,0,-0.002867,-0.002270,-0.258504,0.204111,0.016364,0.079462,-1.1154,1.3282,1.4073
11431,11.0,0.000873,0.000199,-0.260463,0.002457,0.001274,0.005898,-1.1104,5.2072,-0.1368,0.00004300,-0.00028637,0.00000552,0.00923642,0.00279288,0.02972305,0.9396,0.0891,-9.8623,0.051550,0.014637,-0.025507,22.1467,-8.3530,14.6517,20.2266,0.2620,134,0,0,-0.002926,-0.002254,-0.257675,0.205602,0.016036,0.086409,-1.0956,1.3524,1.4272
11442,11.0,0.000855,0.000289,-0.260399,0.000797,0.002010,0.003679,-1.0620,5.2114,-0.1365,0.00002768,-0.00029405,0.00000391,0.00925694,0.00277104,0.02962858,0.8152,0.1695,-9.9617,0.057278,-0.003350,-0.001922,22.1467,-8.3530,14.6517,20.2266,0.2620,133,0,0,-0.003049,-0.002263,-0.258978,0.201857,0.014873,0.067447,-1.0405,1.4163,1.4298
11453,11.0,0.001055,0.000319,-0.260368,0.002669,0.002619,0.001990,-1.0483,5.1562,-0.1280,0.00002673,-0.00025408,0.00000431,0.00920749,0.00276241,0.02963085,0.8506,0.2359,-9.8961,0.019740,-0.039682,0.007774,22.1467,-8.3530,14.6517,20.2266,0.2620,133,0,0,-0.003085,-0.002281,-0.258276,0.198455,0.014531,0.072966,-1.0130,1.4455,1.4389
11464,11.0,0.000966,0.000257,-0.260665,0.001569,0.001317,-0.002732,-1.0900,5.1218,-0.1396,0.00004516,-0.00027995,0.00000574,0.00901077,0.00275324,0.03202484,0.9437,0.1714,-9.8278,-0.043870,-0.084063,-0.014345,22.1467,-8.3530,14.6517,20.2847,0.2620,131,-1,0,-0.003337,-0.002339,-0.256682,0.193256,0.014397,0.084949,-1.0096,1.4351,1.4673
11475,11.0,0.001521,0.000148,-0.260692,0.010083,-0.001351,-0.002043,-1.1552,4.9845,-0.1477,0.00006939,-0.00016735,0.00000948,0.00886084,0.00279225,0.03202812,1.0278,0.0826,-9.6639,-0.074712,-0.094104,-0.023467,22.1467,-8.3530,14.6517,20.2847,0.2620,127,0,0,-0.003355,-0.002379,-0.259689,0.192615,0.014025,0.049389,-1.0420,1.3958,1.4715
11486,11.0,0.001373,0.000071,-0.260713,0.009265,-0.003671,-0.000870,-1.1997,4.9787,-0.1847,0.00008116,-0.00022729,0.00001021,0.00892727,0.00280548,0.03207374,1.0990,0.0500,-9.6068,-0.054236,-0.071137,-0.046185,22.1357,-7.9400,14.9152,20.2847,0.2620,129,-1,0,-0.003235,-0.002504,-0.258546,0.192757,0.011852,0.064976,-1.1261,1.3398,1.4346
11497,11.0,0.001461,0.000045,-0.260847,0.011527,-0.004786,-0.000499,-1.2096,4.9741,-0.2190,0.00007562,-0.00023452,0.00000965,0.00881893,0.00279695,0.03307584,1.0838,0.0757,-9.5436,-0.016657,-0.013494,-0.053721,22.1357,-7.9400,14.9152,20.2847,0.2620,132,0,0,-0.003390,-0.002587,-0.257863,0.191604,0.010743,0.073802,-1.1522,1.3486,1.4088
11508,11.0,0.001304,0.000025,-0.260847,0.009772,-0.004756,0.001283,-1.2142,5.0344,-0.2539,0.00006800,-0.00030144,0.00000829,0.00889613,0.00278739,0.03310923,1.0265,0.1690,-9.5554,-0.010515,0.032429,-0.045125,22.1357,-7.9400,14.9152,20.2847,0.2620,132,0,0,-0.003352,-0.002603,-0.260004,0.192527,0.009647,0.051344,-1.1678,1.3488,1.3896
11519,11.0,0.000880,-0.000001,-0.260824,0.003315,-0.004306,0.002851,-1.2195,5.1588,-0.2658,0.00006232,-0.00042552,0.00000639,0.00904331,0.00277954,0.03310371,0.8874,0.2179,-9.5909,-0.013224,0.083807,-0.001078,22.1357,-7.9400,14.9152,20.2847,0.2620,133,0,0,-0.003532,-0.002685,-0.258805,0.190780,0.008853,0.068948,-1.1874,1.4380,1.3607
11530,11.0,0.000387,-0.000018,-0.260826,-0.005061,-0.003131,0.004153,-1.2178,5.2879,-0.2471,0.00005646,-0.00054890,0.00000403,0.00915865,0.00276924,0.03341142,0.7136,0.2835,-9.5839,-0.005951,0.095421,0.040928,22.1357,-7.9400,14.9152,20.2847,0.2620,136,0,0,-0.003720,-0.002751,-0.258073,0.187532,0.008842,0.077560,-1.2001,1.5191,1.3726
11540,10.0,0.000599,0.000019,-0.260781,-0.002954,-0.000789,0.004745,-1.1909,5.2901,-0.2236,0.00004255,-0.00048307,0.00000384,0.00910078,0.00273133,0.03341448,0.7777,0.3678,-9.6826,0.030648,0.063487,0.037115,22.1357,-7.9400,14.9152,20.2847,0.2620,135,1,0,-0.003873,-0.002770,-0.257266,0.184171,0.009403,0.086210,-1.2077,1.5828,1.4047
11551,11.0,0.001174,0.000059,-0.260707,0.004910,0.001710,0.003938,-1.1639,5.2094,-0.2245,0.00003261,-0.00033260,0.00000671,0.00896778,0.00272327,0.03321178,0.9432,0.3919,-9.8311,0.034262,-0.007019,0.007085,22.1357,-7.9400,14.9152,20.1923,0.2620,133,1,0,-0.003868,-0.002814,-0.259304,0.178791,0.012052,0.063427,-1.1844,1.6777,1.4660
11562,11.0,0.001347,-0.000020,-0.260775,0.005905,0.001692,0.002229,-1.2108,5.1793,-0.2503,0.00005945,-0.00030188,0.00000999,0.00886450,0.00272273,0.03399935,0.8549,0.3202,-9.7742,-0.050156,-0.023482,-0.036874,22.1357,-7.9400,14.9152,20.1923,0.2620,132,0,0,-0.003673,-0.002869,-0.258640,0.176975,0.013277,0.069487,-1.1809,1.7038,1.4836
11573,11.0,0.001504,-0.000146,-0.260724,0.006185,-0.000322,0.003451,-1.2849,5.1573,-0.2819,0.00009636,-0.00027647,0.00001401,0.00885651,0.00275961,0.03384176,0.8013,0.1874,-9.6550,-0.085530,-0.015076,-0.046188,22.1357,-7.9400,14.9152,20.1923,0.2610,132,0,0,-0.003596,-0.002895,-0.257914,0.175521,0.014464,0.075806,-1.2019,1.6968,1.4791
11584,11.0,0.001691,-0.000196,-0.260678,0.006867,-0.000997,0.004965,-1.3123,5.1245,-0.3002,0.00010821,-0.00024364,0.00001592,0.00883704,0.00277243,0.03384397,0.8011,0.2092,-9.6041,-0.032495,-0.028097,-0.026754,21.3081,-7.5291,14.6608,20.1923,0.2610,137,0,0,-0.003477,-0.003025,-0.258731,0.170555,0.014032,0.067391,-1.2957,1.7094,1.4575
11595,11.0,0.001851,-0.000216,-0.260203,0.008183,-0.001791,0.011910,-1.3223,5.0978,-0.3058,0.00010940,-0.00022073,0.00001658,0.00908899,0.00283522,0.03095852,0.8932,0.1566,-9.5420,-0.014111,-0.026528,-0.008051,21.3081,-7.5291,14.6608,20.1923,0.2610,138,0,0,-0.003437,-0.003080,-0.257988,0.167639,0.013687,0.075993,-1.3162,1.7206,1.4515
11606,11.0,0.002034,-0.000287,-0.260059,0.009967,-0.003106,0.014228,-1.3566,5.0717,-0.3068,0.00012174,-0.00019682,0.00001831,0.00905948,0.00285533,0.03095908,0.9250,0.1568,-9.5237,-0.046135,-0.025804,0.000038,21.3081,-7.5291,14.6608,20.1923,0.2620,131,0,0,-0.003363,-0.003086,-0.257185,0.166489,0.012912,0.084662,-1.3259,1.7119,1.4558
11618,12.0,0.001692,-0.000350,-0.259832,0.006054,-0.005388,0.017128,-1.3872,5.1012,-0.3027,0.00012591,-0.00032832,0.00001625,0.00921484,0.00286656,0.03065905,1.0191,0.0535,-9.5290,-0.042546,-0.034723,0.007173,21.3081,-7.5291,14.6608,20.1579,0.2620,134,-1,0,-0.003252,-0.003182,-0.258956,0.164405,0.010856,0.066512,-1.3896,1.7181,1.4748
11628,10.0,0.000650,-0.000280,-0.260333,-0.005678,-0.005239,0.011090,-1.3489,5.2096,-0.2957,0.00009008,-0.00064280,0.00000776,0.00907443,0.00273681,0.03536134,1.0557,0.0885,-9.5251,0.040225,-0.026647,0.022736,21.3081,-7.5291,14.6608,20.1579,0.2620,139,-2,0,-0.003439,-0.003246,-0.258247,0.162710,0.009272,0.075318,-1.4127,1.7342,1.4792
11639,11.0,0.000592,-0.000190,-0.260171,-0.003113,-0.004355,0.012985,-1.2931,5.2105,-0.2862,0.00004650,-0.00064599,0.00000320,0.00909822,0.00270042,0.03513639,1.1320,0.1407,-9.5741,0.061494,-0.001452,0.006977,21.3081,-7.5291,14.6608,20.1579,0.2610,133,0,0,-0.003844,-0.003259,-0.259083,0.161444,0.006607,0.064834,-1.3682,1.7548,1.5096
11650,11.0,0.000377,-0.000132,-0.260027,-0.003092,-0.003130,0.013132,-1.2538,5.2524,-0.2662,0.00001568,-0.00070352,-0.00000105,0.00913227,0.00267334,0.03513282,1.1157,0.2163,-9.6986,0.041885,0.031742,0.027621,21.3081,-7.5291,14.6608,20.1579,0.2610,135,0,0,-0.003858,-0.003231,-0.258395,0.162595,0.005955,0.072793,-1.3387,1.7634,1.5254
11661,11.0,0.000050,-0.000062,-0.259832,-0.005060,-0.001080,0.013103,-1.2115,5.3177,-0.2605,-0.00001350,-0.00079368,-0.00000603,0.00923934,0.00265798,0.03476284,1.0679,0.2938,-9.7755,0.050393,0.051986,0.002705,21.3081,-7.5291,14.6608,20.1579,0.2610,135,0,0,-0.004091,-0.003261,-0.256759,0.162037,0.006378,0.086324,-1.2950,1.8578,1.5674
11672,11.0,-0.000280,-0.000001,-0.259693,-0.007854,0.000667,0.012147,-1.1791,5.3809,-0.2698,-0.00003332,-0.00087832,-0.00001015,0.00929379,0.00263554,0.03476034,0.9788,0.2947,-9.8104,0.042625,0.053737,-0.021592,21.3081,-7.5291,14.6608,20.1579,0.2620,135,0,0,-0.004247,-0.003310,-0.259391,0.160216,0.007059,0.053330,-1.2756,1.9232,1.5725
11683,11.0,-0.000712,-0.000100,-0.259522,-0.015139,0.000107,0.012074,-1.2317,5.4723,-0.2683,0.00000148,-0.00097963,-0.00000917,0.00938740,0.00266408,0.03448159,0.6348,0.2757,-9.8076,-0.065129,0.090565,0.003432,20.8997,-7.9400,14.4019,20.1579,0.2620,131,0,0,-0.004363,-0.003322,-0.258831,0.157219,0.007665,0.058526,-1.2790,1.9732,1.5763
11694,11.0,-0.001030,-0.000252,-0.259026,-0.020043,-0.001597,0.016930,-1.3085,5.5314,-0.2394,0.00005016,-0.00101748,-0.00000581,0.00971509,0.00274462,0.03210202,0.6397,0.2254,-9.7005,-0.100892,0.072651,0.045745,20.8997,-7.9400,14.4019,20.1579,0.2600,131,0,0,-0.004507,-0.003391,-0.258219,0.152269,0.008101,0.064026,-1.3141,2.0436,1.5850
11705,11.0,-0.000529,-0.000347,-0.258805,-0.012445,-0.002515,0.017893,-1.3504,5.4707,-0.2136,0.00007363,-0.00078507,0.00000206,0.00959350,0.00276281,0.03188989,0.8418,0.2257,-9.6868,-0.059787,0.017490,0.054604,20.8997,-7.9400,14.4019,20.1579,0.2600,128,1,0,-0.004477,-0.003525,-0.258116,0.143989,0.007545,0.064097,-1.4288,2.1507,1.6559
11716,11.0,-0.000322,-0.000360,-0.258606,-0.007022,-0.002187,0.018327,-1.3499,5.4118,-0.1949,0.00006859,-0.00067654,0.00000438,0.00951852,0.00275808,0.03188687,1.0649,0.2465,-9.6792,-0.005036,-0.042579,0.035393,20.8997,-7.9400,14.4019,20.1579,0.2600,128,0,0,-0.004276,-0.003558,-0.257404,0.142379,0.007234,0.071393,-1.4688,2.1709,1.6978
11727,11.0,0.000015,-0.000300,-0.259682,-0.000454,-0.001137,0.003937,-1.3160,5.3274,-0.2071,0.00004059,-0.00054468,0.00000506,0.00864572,0.00254939,0.04021857,1.0825,0.2360,-9.6579,0.041972,-0.072138,-0.015068,20.8997,-7.9400,14.4019,20.1579,0.2620,127,0,0,-0.004143,-0.003607,-0.255837,0.141732,0.006891,0.085306,-1.4768,2.1599,1.7454
11738,11.0,0.000143,-0.000263,-0.259636,0.002731,-0.000901,0.004350,-1.2964,5.2976,-0.2211,0.00002289,-0.00050414,0.00000433,0.00860993,0.00254216,0.04021581,1.0706,0.1905,-9.6738,0.024990,-0.028814,-0.022384,20.8997,-7.9400,14.4019,20.1579,0.2620,129,0,0,-0.004079,-0.003640,-0.259238,0.141249,0.006908,0.045602,-1.4575,2.1551,1.7419
11749,11.0,0.000065,-0.000264,-0.259526,0.002763,-0.001322,0.005185,-1.2983,5.3177,-0.2396,0.00001916,-0.00054347,0.00000301,0.00867019,0.00255034,0.03980378,1.0428,0.1727,-9.7071,-0.001800,0.014498,-0.031194,20.8997,-7.9400,14.4019,20.0998,0.2620,129,0,0,-0.004020,-0.003627,-0.258748,0.141732,0.006488,0.052374,-1.4470,2.1443,1.7392
11760,11.0,-0.000072,-0.000292,-0.259103,0.000184,-0.001995,0.010203,-1.3122,5.3515,-0.2516,0.00002247,-0.00059884,0.00000213,0.00893111,0.00261463,0.03749981,0.8548,0.1717,-9.6614,-0.018823,0.029548,-0.019272,20.8997,-7.9400,14.4019,20.0998,0.2600,127,0,0,-0.004109,-0.003684,-0.257498,0.139852,0.005140,0.066269,-1.4611,2.2010,1.7161
11771,11.0,-0.000131,-0.000279,-0.258940,-0.002046,-0.002295,0.011535,-1.3045,5.3636,-0.2600,0.00000912,-0.00061711,0.00000045,0.00897102,0.00261545,0.03718713,0.7727,0.1551,-9.6740,0.007889,0.011280,-0.014370,20.8997,-7.9400,14.4019,20.0998,0.2600,127,0,0,-0.004181,-0.003726,-0.258576,0.136863,0.004616,0.053977,-1.4722,2.2414,1.7092
11783,12.0,-0.000206,-0.000278,-0.258796,-0.003944,-0.001617,0.012418,-1.2987,5.3767,-0.2594,-0.00000005,-0.00063107,-0.00000078,0.00899405,0.00260664,0.03718842,0.8024,0.2530,-9.6644,0.005029,0.013199,-0.000307,20.8997,-7.9400,14.4019,20.0998,0.2600,132,0,0,-0.004223,-0.003753,-0.257304,0.130955,0.003426,0.068271,-1.4739,2.2845,1.6774
11794,11.0,-0.000469,-0.000306,-0.259787,-0.005246,-0.001084,-0.000331,-1.3082,5.4292,-0.2359,0.00000526,-0.00071307,-0.00000232,0.00835017,0.00244544,0.04424337,1.0501,0.2876,-9.6724,-0.015853,0.048623,0.034116,20.0757,-7.9400,14.1452,20.0998,0.2620,134,0,0,-0.004267,-0.003762,-0.256508,0.129501,0.003448,0.076134,-1.4790,2.3103,1.6938
11805,11.0,-0.000556,-0.000318,-0.259793,-0.003873,-0.000828,-0.000829,-1.3112,5.4425,-0.2254,0.00000588,-0.00072789,-0.00000263,0.00834313,0.00244363,0.04424239,1.1072,0.2514,-9.7479,-0.006089,0.014182,0.016213,20.0757,-7.9400,14.1452,20.0998,0.2620,129,0,0,-0.004445,-0.003844,-0.258830,0.128498,0.004170,0.049608,-1.5008,2.3947,1.7438
11816,11.0,-0.000531,-0.000327,-0.259738,-0.002161,-0.000888,0.000250,-1.3158,5.4338,-0.2389,0.00000572,-0.00070528,-0.00000207,0.00837239,0.00245304,0.04384243,1.0251,0.2198,-9.6815,-0.005366,-0.005421,-0.020097,20.0757,-7.9400,14.1452,20.0998,0.2620,131,0,0,-0.004494,-0.003899,-0.258242,0.127435,0.004175,0.056125,-1.5083,2.4281,1.7518
11827,11.0,0.000017,-0.000371,-0.259196,0.004433,-0.002212,0.007686,-1.3366,5.3896,-0.2508,0.00001480,-0.00049275,0.00000391,0.00860233,0.00254597,0.04056977,0.9137,0.1342,-9.6137,-0.028882,0.009579,-0.008559,20.0757,-7.9400,14.1452,20.1579,0.2600,135,1,0,-0.004473,-0.003906,-0.257649,0.127139,0.003837,0.062540,-1.5171,2.4325,1.7505
11838,11.0,0.000041,-0.000389,-0.259072,0.001756,-0.002620,0.009597,-1.3435,5.3908,-0.2564,0.00001146,-0.00049653,0.00000351,0.00862332,0.00254918,0.04037360,0.6857,0.1798,-9.6074,-0.011301,0.000143,-0.009114,20.0757,-7.9400,14.1452,20.1579,0.2600,129,0,0,-0.004290,-0.003957,-0.258008,0.123066,0.001995,0.059350,-1.5499,2.4719,1.7493
11850,12.0,0.000073,-0.000315,-0.258953,0.000659,-0.000856,0.010127,-1.2984,5.3811,-0.2574,-0.00002690,-0.00048884,0.00000009,0.00863381,0.00252556,0.04037293,0.8165,0.2772,-9.6888,0.053222,-0.011892,-0.002988,20.0757,-7.9400,14.1452,20.1579,0.2600,128,0,0,-0.004290,-0.003971,-0.257379,0.119076,0.001656,0.066453,-1.5491,2.4884,1.7492
11861,11.0,0.000710,-0.000274,-0.258792,0.008685,0.001506,0.010510,-1.2738,5.3182,-0.3793,-0.00004417,-0.00024931,0.00002366,0.00857427,0.00250013,0.04005778,0.9925,0.3977,-9.7334,0.034609,-0.015081,-0.007866,20.0757,-7.9400,14.1452,20.1579,0.2600,132,1,0,-0.004267,-0.003951,-0.256632,0.116725,0.001914,0.073487,-1.5253,2.4901,1.7557
11872,11.0,0.000867,-0.000368,-0.258677,0.010812,0.001011,0.010400,-1.3224,5.3012,-0.4024,0.00000063,-0.00022894,0.00002854,0.00855460,0.00251062,0.04005773,1.0540,0.2982,-9.7209,-0.058663,-0.019611,-0.032474,20.0757,-7.9400,14.1452,20.1579,0.2620,128,0,0,-0.004029,-0.003987,-0.259309,0.115444,0.003916,0.039799,-1.5157,2.5037,1.7613
11883,11.0,0.001140,-0.000424,-0.258520,0.013889,0.000190,0.011292,-1.3523,5.2610,-0.4299,0.00002620,-0.00017131,0.00003271,0.00855760,0.00252604,0.03980902,1.0351,0.2235,-9.6774,-0.035329,-0.043544,-0.037445,19.6673,-7.9410,14.6563,20.1579,0.2620,134,0,0,-0.004005,-0.004073,-0.258882,0.114578,0.004115,0.045527,-1.5569,2.5181,1.6959
11894,11.0,0.001455,-0.000425,-0.258641,0.016989,-0.000558,0.009193,-1.3560,5.2126,-0.4666,0.00002520,-0.00011087,0.00003431,0.00838214,0.00249209,0.04128925,1.0199,0.1627,-9.6421,-0.001246,-0.055618,-0.054666,19.6673,-7.9410,14.6563,20.2160,0.2600,134,0,0,-0.003911,-0.004099,-0.258397,0.114683,0.003855,0.051542,-1.5883,2.5027,1.6843
11905,11.0,0.001041,-0.000478,-0.258519,0.011089,-0.001576,0.010691,-1.3833,5.2483,-0.4559,0.00004421,-0.00035379,0.00003000,0.00847992,0.00250210,0.04120744,0.9939,0.1855,-9.5967,-0.037540,-0.022675,0.004825,19.6673,-7.9410,14.6563,20.2160,0.2600,134,-1,0,-0.003749,-0.004142,-0.258338,0.113986,0.002098,0.053929,-1.6099,2.4785,1.6392
11916,11.0,0.000524,-0.000512,-0.258394,0.004534,-0.003020,0.012084,-1.4003,5.2975,-0.4388,0.00004902,-0.00061463,0.00002463,0.00857062,0.00251690,0.04121169,0.9789,0.1145,-9.5935,-0.027310,-0.006185,0.020056,19.6673,-7.9410,14.6563,20.2160,0.2600,139,-1,0,-0.003934,-0.004198,-0.257747,0.112300,0.001412,0.061119,-1.6304,2.4912,1.6394
11927,11.0,0.000159,-0.000476,-0.259645,-0.000916,-0.003051,-0.002635,-1.3823,5.3046,-0.4464,0.00002032,-0.00078421,0.00001810,0.00783245,0.00228967,0.04933457,0.8389,0.1564,-9.5887,0.021540,-0.042264,-0.019058,19.6673,-7.9410,14.6563,20.2160,0.2620,134,-1,0,-0.004319,-0.004260,-0.259456,0.109417,-0.000748,0.040362,-1.6578,2.5128,1.6681
11938,11.0,0.000548,-0.000456,-0.259660,0.002101,-0.003267,-0.000198,-1.3710,5.2257,-0.4801,-0.00000527,-0.00061476,0.00001921,0.00778831,0.00229299,0.04933295,0.7398,0.1508,-9.5117,0.014807,-0.072352,-0.053940,19.6673,-7.9410,14.6563,20.2160,0.2620,129,0,0,-0.004425,-0.004252,-0.259002,0.107205,-0.001816,0.047695,-1.6502,2.4930,1.6630
11948,10.0,0.000860,-0.000426,-0.259639,0.004245,-0.002133,0.000920,-1.3545,5.1676,-0.5060,-0.00003153,-0.00049120,0.00001954,0.00774828,0.00228460,0.04921930,0.7638,0.2754,-9.6389,0.023916,-0.059935,-0.043872,19.6673,-7.9410,14.6563,20.2160,0.2620,139,0,0,-0.004310,-0.004250,-0.258486,0.104392,-0.002631,0.055463,-1.6413,2.4701,1.6358
11959,11.0,0.001018,-0.000402,-0.259226,0.005789,-0.000047,0.004819,-1.3387,5.1389,-0.5210,-0.00004664,-0.00044484,0.00001924,0.00795634,0.00231987,0.04686387,0.9224,0.3855,-9.7938,0.022533,-0.031771,-0.023111,19.6673,-7.9410,14.6563,20.2160,0.2600,136,0,0,-0.004100,-0.004260,-0.257221,0.099737,-0.002004,0.068200,-1.6258,2.4313,1.6088
11970,11.0,0.001075,-0.000454,-0.259157,0.007062,0.000922,0.003644,-1.3623,5.1359,-0.6349,-0.00002194,-0.00045156,0.00004276,0.00797752,0.00230401,0.04672236,1.0271,0.3873,-9.8386,-0.029328,-0.006080,-0.007087,19.6673,-7.9410,14.6563,20.1817,0.2600,132,0,0,-0.004040,-0.004259,-0.258553,0.099297,-0.000697,0.051274,-1.6192,2.4202,1.6053
11981,11.0,0.001061,-0.000579,-0.259123,0.008091,0.000512,0.002655,-1.4234,5.1532,-0.6357,0.00003968,-0.00049711,0.00004729,0.00797361,0.00231254,0.04672274,1.0954,0.3500,-9.7898,-0.078918,0.013898,-0.001639,20.4877,-7.9400,15.1719,20.1817,0.2600,135,0,0,-0.004051,-0.004330,-0.257991,0.098496,0.000299,0.055943,-1.6409,2.4434,1.6095
11992,11.0,0.001283,-0.000730,-0.258948,0.011352,-0.001897,0.006142,-1.4993,5.1266,-0.6537,0.00010594,-0.00044264,0.00005545,0.00803044,0.00235238,0.04595862,1.0399,0.1850,-9.5352,-0.099716,-0.026748,-0.019858,20.4877,-7.9400,15.1719,20.1817,0.2600,139,0,0,-0.004084,-0.004481,-0.256735,0.099329,0.001189,0.066553,-1.7439,2.4898,1.5762
12003,11.0,0.000914,-0.000846,-0.258856,0.006048,-0.005375,0.010513,-1.5600,5.1487,-0.6710,0.00014281,-0.00065995,0.00005382,0.00811003,0.00236631,0.04596047,0.8904,0.0161,-9.3278,-0.082798,-0.025106,-0.033583,20.4877,-7.9400,15.1719,20.1817,0.2620,136,-1,0,-0.003997,-0.004535,-0.259443,0.100082,0.000199,0.037460,-1.8062,2.4796,1.5718
12014,11.0,0.000337,-0.000832,-0.258675,-0.001832,-0.007742,0.017109,-1.5543,5.1983,-0.6780,0.00010506,-0.00094218,0.00004507,0.00826022,0.00235383,0.04578116,0.7969,-0.0582,-9.1700,-0.000336,0.000980,-0.010050,20.4877,-7.9400,15.1719,20.1817,0.2620,136,-1,0,-0.004257,-0.004607,-0.258477,0.097312,-0.004856,0.057146,-1.8996,2.4675,1.5550
12025,11.0,0.000155,-0.000652,-0.259212,-0.004389,-0.006849,0.012760,-1.4592,5.2225,-0.6636,-0.00001703,-0.00101442,0.00003252,0.00789199,0.00217991,0.04995101,0.7959,0.0464,-9.3299,0.116122,0.017330,0.021757,20.4877,-7.9400,15.1719,20.1817,0.2610,131,0,0,-0.004665,-0.004398,-0.257852,0.094600,-0.007389,0.068025,-1.8966,2.4760,1.5611
12036,11.0,-0.000276,-0.000395,-0.259036,-0.008951,-0.003658,0.015184,-1.3260,5.2872,-0.6402,-0.00016513,-0.00118615,0.00001615,0.00799463,0.00210645,0.04980790,0.8688,0.1845,-9.5258,0.168090,0.055060,0.040452,20.4877,-7.9400,15.1719,20.1817,0.2610,131,0,0,-0.004711,-0.004338,-0.259197,0.092867,-0.009462,0.055013,-1.8408,2.4916,1.5792
12047,11.0,-0.000876,-0.000208,-0.258880,-0.014638,0.000343,0.013326,-1.2272,5.3841,-0.5937,-0.00026107,-0.00141438,0.00000268,0.00809136,0.00205006,0.04980482,0.9344,0.3666,-9.8800,0.124809,0.091128,0.072507,20.4877,-7.9400,15.1719,20.1817,0.2610,134,0,0,-0.005004,-0.004182,-0.257950,0.090043,-0.009714,0.068538,-1.6645,2.5740,1.6470
12058,11.0,-0.001969,-0.000692,-0.259287,-0.026200,-0.003501,0.004558,-1.2226,5.5071,-0.5427,-0.00003016,-0.00183880,0.00001371,0.00795403,0.00206952,0.05277583,0.8668,0.3875,-9.9397,0.060646,0.082212,0.071848,20.4877,-7.9400,15.1719,20.1817,0.2610,132,-1,-1,-0.005235,-0.004173,-0.257207,0.087822,-0.008546,0.072614,-1.6013,2.6519,1.6967
12069,11.0,-0.002301,-0.000682,-0.259255,-0.026841,-0.001161,0.001356,-1.2080,5.5457,-0.5019,-0.00004664,-0.00185896,0.00001150,0.00795776,0.00204882,0.05277474,0.9624,0.3895,-9.9971,0.012902,0.052882,0.063261,20.4877,-7.9400,15.1719,20.1817,0.2630,132,0,0,-0.005598,-0.004368,-0.256465,0.085403,-0.007603,0.075713,-1.5673,2.7087,1.7452
12080,11.0,-0.001802,-0.001304,-0.259226,-0.016926,-0.006386,-0.001461,-1.2613,5.4934,-0.5402,0.00023913,-0.00148541,0.00005722,0.00791241,0.00209091,0.05260842,1.0563,0.3874,-9.9875,-0.013800,0.009689,0.031799,20.4877,-7.9400,15.1719,20.1817,0.2630,128,1,-1,-0.005580,-0.004634,-0.259819,0.084053,-0.005201,0.033811,-1.5673,2.7911,1.7807
12092,12.0,-0.000479,-0.001421,-0.260075,0.002106,-0.006326,-0.013563,-1.3035,5.3620,-0.5874,0.00025167,-0.00076564,0.00007954,0.00741419,0.00198105,0.05698526,1.0985,0.2695,-9.9126,-0.055824,-0.026501,-0.021886,20.0685,-7.5281,14.4065,20.1817,0.2620,130,2,0,-0.005212,-0.004687,-0.259469,0.084408,-0.003950,0.036163,-1.5836,2.8224,1.8040
12103,11.0,-0.000141,-0.001574,-0.260200,0.005471,-0.008556,-0.013265,-1.3724,5.3078,-0.6294,0.00028669,-0.00061373,0.00008687,0.00741057,0.00198820,0.05685061,0.9006,0.1013,-9.7125,-0.094872,-0.047657,-0.058872,20.0685,-7.5281,14.4065,20.1817,0.2620,138,0,0,-0.004695,-0.004774,-0.260199,0.085691,-0.003770,0.027944,-1.6597,2.8191,1.7842
12114,11.0,-0.000398,-0.001702,-0.260332,0.001107,-0.011306,-0.010702,-1.4297,5.3009,-0.6621,0.00029543,-0.00076328,0.00008479,0.00744509,0.00202435,0.05685275,0.8253,-0.0003,-9.4881,-0.083922,-0.046838,-0.052324,20.0685,-7.5281,14.4065,20.1817,0.2620,130,-1,0,-0.004562,-0.004816,-0.259862,0.084846,-0.005489,0.033784,-1.7191,2.7962,1.7589
12125,11.0,-0.001069,-0.001728,-0.260613,-0.008020,-0.012432,-0.010733,-1.4348,5.3630,-0.6721,0.00024466,-0.00109004,0.00007443,0.00741874,0.00199017,0.05777540,0.7734,0.0213,-9.5438,-0.019138,0.019200,-0.010715,20.0685,-7.5281,14.4065,20.1817,0.2620,131,-1,0,-0.004838,-0.004884,-0.259041,0.079832,-0.009920,0.048324,-1.7939,2.7868,1.7173
12137,12.0,-0.001970,-0.001082,-0.260731,-0.018260,-0.004746,-0.008883,-1.3500,5.4558,-0.6806,-0.00014169,-0.00147981,0.00003382,0.00751708,0.00192522,0.05776815,0.8186,0.1161,-9.5644,0.038472,0.048610,0.000988,20.0685,-7.5281,14.4065,20.1817,0.2630,131,-1,1,-0.005127,-0.004892,-0.261065,0.076572,-0.011567,0.027810,-1.7922,2.8216,1.7096
12149,12.0,-0.002227,-0.000413,-0.260797,-0.019257,0.003338,-0.007378,-1.2648,5.4836,-0.6816,-0.00049492,-0.00149979,0.00000203,0.00753890,0.00185232,0.05757749,0.8820,0.2122,-9.6184,0.046749,0.034418,0.002364,20.0685,-7.5281,14.4065,20.1817,0.2630,133,0,1,-0.005429,-0.004673,-0.260754,0.073985,-0.012369,0.034426,-1.7746,2.8560,1.7173
12160,11.0,-0.002383,-0.000372,-0.261355,-0.017592,0.004406,-0.013688,-1.2485,5.4933,-0.6815,-0.00049462,-0.00147534,0.00000248,0.00730241,0.00179349,0.06001392,1.0498,0.3190,-9.7707,0.025558,0.019596,0.000185,20.0685,-7.5281,14.4065,20.1817,0.2630,139,0,0,-0.005605,-0.004444,-0.259909,0.071209,-0.012030,0.046121,-1.7264,2.9189,1.7264
12171,11.0,-0.002438,-0.000356,-0.261480,-0.014671,0.005614,-0.015108,-1.2444,5.4870,-0.6890,-0.00047483,-0.00141077,0.00000584,0.00731052,0.00179996,0.05982630,1.0912,0.3720,-9.8536,0.011625,0.003686,-0.009697,20.0685,-7.5281,14.4065,20.1473,0.2630,130,0,0,-0.005685,-0.004480,-0.261314,0.070736,-0.011199,0.030096,-1.7173,2.9544,1.7297
12182,11.0,-0.002418,-0.000974,-0.261656,-0.011473,-0.000641,-0.016859,-1.3028,5.4702,-0.7096,-0.00013277,-0.00132129,0.00004147,0.00729092,0.00182339,0.05983187,1.0686,0.3615,-9.8478,-0.012655,-0.007038,-0.013077,21.3081,-8.3487,14.6608,20.1473,0.2630,137,0,-1,-0.005701,-0.004483,-0.260958,0.071496,-0.010030,0.034315,-1.7140,2.9643,1.7318
12193,11.0,-0.002316,-0.001072,-0.262305,-0.008779,-0.000426,-0.023240,-1.3471,5.4457,-0.7673,-0.00008640,-0.00120622,0.00005674,0.00706502,0.00176820,0.06217062,0.9589,0.3463,-9.7960,-0.056163,-0.012964,-0.034383,21.3081,-8.3487,14.6608,20.1473,0.2640,132,0,0,-0.005481,-0.004971,-0.260143,0.072006,-0.008968,0.042066,-1.7455,2.9876,1.6785
12204,11.0,-0.001397,-0.001212,-0.262559,0.001765,-0.001159,-0.022848,-1.4095,5.3418,-0.8286,-0.00002127,-0.00068889,0.00007752,0.00703012,0.00176509,0.06216900,0.8390,0.3080,-9.6726,-0.077810,-0.047740,-0.068398,21.3081,-8.3487,14.6608,20.1473,0.2640,129,1,0,-0.005468,-0.005041,-0.261982,0.070921,-0.008178,0.021223,-1.7825,3.0020,1.6648
12215,11.0,-0.000211,-0.001412,-0.262752,0.013983,-0.004555,-0.020045,-1.5004,5.2015,-0.8992,0.00006199,-0.00009340,0.00010057,0.00697799,0.00178154,0.06192615,0.8062,0.1115,-9.5101,-0.117236,-0.088240,-0.090375,21.3081,-8.3487,14.6608,20.1473,0.2640,129,1,0,-0.004807,-0.005130,-0.261405,0.069170,-0.008289,0.032843,-1.8845,2.9595,1.5893
12226,11.0,-0.000277,-0.000963,-0.262343,0.010856,-0.001503,-0.009024,-1.5296,5.1678,-0.9418,-0.00019736,-0.00020592,0.00007452,0.00729298,0.00181486,0.05885129,0.8065,-0.0041,-9.3595,-0.097738,-0.076544,-0.071607,21.3081,-8.3487,14.6608,20.1473,0.2630,136,-1,1,-0.004591,-0.005183,-0.261040,0.067862,-0.010100,0.040023,-1.9572,2.9134,1.5466
12237,11.0,-0.000696,-0.000934,-0.262389,0.003863,-0.002452,-0.005298,-1.5201,5.1861,-0.9506,-0.00022159,-0.00047821,0.00006712,0.00737375,0.00181390,0.05867300,0.7790,0.1115,-9.4203,0.010682,-0.030114,-0.013171,21.3081,-8.3487,14.6608,20.1473,0.2630,133,-1,0,-0.004691,-0.005035,-0.261302,0.064341,-0.014750,0.044885,-2.0428,2.8472,1.5013
12248,11.0,-0.001548,-0.000808,-0.262437,-0.006814,-0.000993,-0.003416,-1.4628,5.2731,-0.9340,-0.00029489,-0.00093563,0.00005159,0.00749711,0.00179839,0.05867780,0.8248,0.2297,-9.5432,0.072146,0.038009,0.029130,21.3081,-8.3487,14.6608,20.2610,0.2630,127,-1,0,-0.004875,-0.005020,-0.260815,0.062161,-0.015952,0.052560,-2.0271,2.8478,1.5087
12259,11.0,-0.002005,-0.000104,-0.262640,-0.011375,0.008057,-0.005111,-1.3669,5.3482,-0.8951,-0.00065735,-0.00113642,0.00001526,0.00746845,0.00169365,0.05950031,0.8825,0.3440,-9.6840,0.067748,0.073468,0.066326,21.3081,-8.3487,14.6608,20.2610,0.2640,129,0,1,-0.005171,-0.004990,-0.260254,0.060175,-0.016260,0.059148,-1.9874,2.8786,1.5351
12270,11.0,-0.002348,-0.000013,-0.262699,-0.013739,0.009780,-0.005536,-1.3316,5.3974,-0.8685,-0.00065078,-0.00125002,0.00001271,0.00749069,0.00167865,0.05950114,0.9325,0.4003,-9.7389,0.053319,0.051911,0.038091,21.3081,-8.3487,14.6608,20.2610,0.2640,129,0,0,-0.005501,-0.004762,-0.261525,0.056988,-0.014048,0.044103,-1.9158,2.9872,1.6115
12281,11.0,-0.002445,0.000058,-0.262769,-0.011191,0.011320,-0.007810,-1.3083,5.3994,-0.8748,-0.00062587,-0.00122707,0.00001570,0.00748876,0.00168276,0.05948448,1.1335,0.4255,-9.8920,0.042440,0.006901,-0.008009,21.3081,-8.3487,14.6608,20.2610,0.2640,138,0,0,-0.005623,-0.004790,-0.261063,0.056032,-0.012653,0.048230,-1.8934,3.0333,1.5893
12293,12.0,-0.002452,0.000059,-0.262264,-0.008291,0.011823,-0.003467,-1.3267,5.3898,-0.9018,-0.00054761,-0.00116540,0.00002512,0.00774059,0.00175805,0.05647196,1.0805,0.4135,-9.9207,-0.009123,-0.002717,-0.033132,19.2553,-8.7606,14.3995,20.2610,0.2630,138,0,0,-0.005659,-0.004778,-0.260566,0.057106,-0.011005,0.051161,-1.8724,3.0454,1.5936
12304,11.0,-0.002408,-0.000019,-0.262272,-0.007509,0.010245,-0.003885,-1.3787,5.3783,-1.1665,-0.00043985,-0.00109241,0.00010161,0.00776479,0.00170819,0.05629668,0.8602,0.3043,-9.7889,-0.054692,-0.001347,-0.037308,19.2553,-8.7606,14.3995,20.1473,0.2630,139,0,0,-0.005475,-0.005053,-0.261107,0.057318,-0.009799,0.040510,-1.9002,3.0762,1.5672
12315,11.0,-0.002265,-0.000122,-0.262312,-0.006498,0.007021,-0.003401,-1.4380,5.3522,-1.1612,-0.00032994,-0.00096366,0.00011555,0.00777635,0.00173014,0.05630121,0.7751,0.1571,-9.6795,-0.073288,-0.015966,0.016329,19.2553,-8.7606,14.3995,20.1473,0.2630,129,0,0,-0.005475,-0.005105,-0.260635,0.055585,-0.009867,0.045191,-1.9361,3.0923,1.5506
12326,11.0,-0.002143,-0.000192,-0.262549,-0.005277,0.005046,-0.004766,-1.4767,5.3293,-1.1448,-0.00025347,-0.00085553,0.00012553,0.00767526,0.00170292,0.05729195,0.8214,0.2127,-9.6254,-0.048629,-0.015750,0.030903,19.2553,-8.7606,14.3995,20.1473,0.2640,129,0,0,-0.005413,-0.005142,-0.260158,0.053902,-0.010915,0.050201,-1.9821,3.0900,1.5616
12337,11.0,-0.001957,-0.000257,-0.262590,-0.001111,0.002903,-0.002799,-1.5115,5.2952,-1.1386,-0.00019366,-0.00072849,0.00013464,0.00764797,0.00171729,0.05729160,1.0400,0.1757,-9.5180,-0.044743,-0.029531,0.015741,19.2553,-8.7606,14.3995,20.1473,0.2640,135,0,0,-0.005329,-0.005194,-0.261537,0.051445,-0.012800,0.037379,-2.0380,3.0908,1.5988
12348,11.0,-0.001931,-0.000278,-0.262567,0.001634,0.001958,-0.000755,-1.5246,5.2911,-1.1356,-0.00016656,-0.00071475,0.00013763,0.00766646,0.00172907,0.05706745,1.1243,0.2261,-9.5520,-0.015993,-0.004628,0.006255,19.2553,-8.7606,14.3995,20.1473,0.2640,133,0,0,-0.005310,-0.005233,-0.261130,0.051480,-0.013662,0.043999,-2.0594,3.0974,1.6049
12360,12.0,-0.002810,0.000364,-0.262680,-0.006622,0.008518,-0.001254,-1.4745,5.3894,-1.1086,-0.00049411,-0.00121502,0.00009187,0.00767722,0.00166743,0.05757635,1.0750,0.2251,-9.6298,0.010916,0.049420,0.009409,19.2553,-8.7606,14.3995,20.1473,0.2640,132,-1,1,-0.005594,-0.005084,-0.260062,0.053030,-0.014161,0.056825,-2.0802,3.1365,1.6183
12371,11.0,-0.003267,0.000404,-0.262650,-0.010377,0.006958,0.000845,-1.4682,5.4670,-1.0780,-0.00046459,-0.00142583,0.00008960,0.00772695,0.00167819,0.05740679,0.9724,0.1573,-9.5509,0.011213,0.078515,0.046508,19.2553,-8.7606,14.3995,20.1473,0.2640,131,0,0,-0.005706,-0.005082,-0.262028,0.053749,-0.014729,0.035206,-2.0764,3.1742,1.6275
12382,11.0,-0.003789,0.000426,-0.262628,-0.016688,0.005263,0.003120,-1.4669,5.5544,-1.0304,-0.00043610,-0.00164051,0.00008754,0.00779712,0.00170168,0.05741385,0.7584,0.1386,-9.5173,0.000120,0.092908,0.075806,20.8997,-8.3498,14.1452,20.1473,0.2640,127,0,0,-0.006066,-0.005100,-0.261161,0.050939,-0.016903,0.047879,-2.0660,3.2991,1.6288
12392,10.0,-0.004162,0.000481,-0.262611,-0.021317,0.005386,0.004861,-1.4461,5.6065,-0.9942,-0.00043514,-0.00174651,0.00008514,0.00780708,0.00169810,0.05753351,0.6936,0.2532,-9.5247,0.030179,0.064731,0.062685,20.8997,-8.3498,14.1452,20.2028,0.2640,135,0,0,-0.006249,-0.005092,-0.260616,0.047087,-0.017781,0.055022,-2.0562,3.3638,1.6676
12403,11.0,-0.004193,0.000571,-0.262557,-0.019739,0.006853,0.005002,-1.4070,5.5897,-0.9792,-0.00044972,-0.00163190,0.00008664,0.00779226,0.00168315,0.05753126,0.8940,0.3551,-9.6939,0.056300,-0.006436,0.026334,20.8997,-8.3498,14.1452,20.2028,0.2640,132,0,0,-0.006361,-0.005081,-0.262062,0.043889,-0.017958,0.039805,-2.0387,3.4059,1.7075
12414,11.0,-0.003930,0.000602,-0.262487,-0.014045,0.008112,0.003479,-1.3986,5.5222,-1.0499,-0.00042470,-0.00136660,0.00010682,0.00776831,0.00168094,0.05740838,1.0034,0.4166,-9.8608,0.022671,-0.055436,-0.046452,20.8997,-8.3498,14.1452,20.2028,0.2640,132,0,0,-0.006353,-0.005053,-0.261146,0.041292,-0.016195,0.049081,-1.9853,3.4138,1.7371
12425,11.0,-0.003530,0.000544,-0.262055,-0.006127,0.007749,0.006843,-1.4349,5.4388,-1.1094,-0.00034314,-0.00106210,0.00012396,0.00790219,0.00173883,0.05553282,1.1219,0.3720,-9.8058,-0.034755,-0.072359,-0.076597,20.8997,-8.3498,14.1452,20.2028,0.2630,135,0,0,-0.006069,-0.005077,-0.260640,0.041567,-0.014972,0.052089,-1.9834,3.4006,1.7134
12436,11.0,-0.003128,0.000427,-0.261960,0.000716,0.004979,0.007305,-1.5001,5.3654,-1.1634,-0.00023683,-0.00080213,0.00014209,0.00788402,0.00175289,0.05544095,1.0855,0.2005,-9.6730,-0.076492,-0.065173,-0.069827,20.8997,-8.3498,14.1452,20.2028,0.2630,128,0,0,-0.005927,-0.005097,-0.261452,0.042962,-0.013968,0.040787,-2.0072,3.3635,1.6772
12447,11.0,-0.002870,0.000368,-0.261863,0.004311,0.001929,0.010290,-1.5360,5.3225,-1.1849,-0.00018107,-0.00066334,0.00015124,0.00786408,0.00176095,0.05543983,0.9779,0.0814,-9.4353,-0.043706,-0.041328,-0.028188,20.8997,-8.3498,14.1452,20.1130,0.2630,138,0,0,-0.005694,-0.005189,-0.260542,0.044272,-0.015763,0.051158,-2.0966,3.3182,1.6106
12458,11.0,-0.003468,0.000460,-0.262809,-0.002552,0.000675,0.000189,-1.5040,5.3642,-1.1793,-0.00022055,-0.00102980,0.00013914,0.00743152,0.00159009,0.06037281,0.9412,0.0595,-9.4909,0.043212,-0.005050,0.003280,20.8997,-8.3498,14.1452,20.1130,0.2650,139,-1,0,-0.005607,-0.005201,-0.262337,0.044502,-0.017809,0.031791,-2.1224,3.3012,1.6028
12470,12.0,-0.003594,0.000632,-0.262799,-0.002800,0.001892,0.001545,-1.4204,5.3767,-1.1721,-0.00031452,-0.00108877,0.00012846,0.00743524,0.00157783,0.06037092,0.9891,0.1995,-9.5851,0.104210,0.006480,0.006181,20.8997,-8.3498,14.1452,20.1130,0.2650,133,0,0,-0.005807,-0.005180,-0.261985,0.043633,-0.019914,0.038579,-2.1050,3.3031,1.6107
12481,11.0,-0.003590,0.000771,-0.262721,-0.001236,0.002362,0.002443,-1.3628,5.3660,-1.2079,-0.00038403,-0.00107427,0.00012167,0.00746191,0.00157468,0.06009123,1.0405,0.1623,-9.6778,0.083379,-0.013763,-0.060779,21.7237,-7.9400,14.4019,20.1130,0.2650,132,0,0,-0.005923,-0.005079,-0.261032,0.042518,-0.021205,0.050901,-1.9880,3.3336,1.6012
12492,11.0,-0.003440,0.000816,-0.261642,0.001105,0.001752,0.015316,-1.3479,5.3343,-1.2492,-0.00039824,-0.00098056,0.00012214,0.00793741,0.00171036,0.05536512,0.9676,0.1537,-9.6377,0.026401,-0.031644,-0.066696,21.7237,-7.9400,14.4019,20.1130,0.2620,132,0,0,-0.005972,-0.005048,-0.260499,0.042268,-0.021702,0.055678,-1.9375,3.3474,1.5671
12503,11.0,-0.003390,0.000838,-0.261419,0.001104,0.000677,0.017680,-1.3428,5.3254,-1.2750,-0.00040406,-0.00095755,0.00012196,0.00795559,0.00171450,0.05515743,0.8657,0.1193,-9.5503,0.010382,-0.009912,-0.041498,21.7237,-7.9400,14.4019,20.1130,0.2620,134,0,0,-0.005909,-0.005233,-0.260291,0.041543,-0.023549,0.056048,-1.9145,3.3375,1.5015
12514,11.0,-0.002766,0.000905,-0.261216,0.007666,0.000514,0.019238,-1.3071,5.2768,-1.2760,-0.00044807,-0.00060735,0.00012359,0.00789666,0.00171624,0.05515173,0.8761,0.1455,-9.5736,0.048759,-0.012031,-0.009732,21.7237,-7.9400,14.4019,20.1130,0.2620,135,1,0,-0.005888,-0.005223,-0.259639,0.040536,-0.024647,0.062749,-1.9110,3.3370,1.4863
12525,11.0,-0.002834,0.001023,-0.262505,0.005372,0.002156,0.002287,-1.2505,5.2912,-1.1665,-0.00051180,-0.00069629,0.00008570,0.00719351,0.00159243,0.06184075,0.8490,0.2577,-9.6698,0.074134,0.003866,0.027790,21.7237,-7.9400,14.4019,20.1130,0.2650,135,0,0,-0.005697,-0.005198,-0.258982,0.039581,-0.025408,0.068755,-1.8867,3.3447,1.4720
12536,11.0,-0.002987,0.000464,-0.262484,0.003407,-0.002831,0.001508,-1.2716,5.3206,-1.1380,-0.00016885,-0.00081468,0.00011597,0.00720503,0.00162649,0.06184686,0.9569,0.3697,-9.7677,0.025753,0.022705,0.054541,21.7237,-7.9400,14.4019,20.2266,0.2650,134,0,-1,-0.005769,-0.005154,-0.261625,0.036885,-0.024424,0.038299,-1.8106,3.3733,1.5168
12547,11.0,-0.003054,0.000397,-0.262453,0.003316,-0.002584,0.001406,-1.2964,5.3400,-1.1116,-0.00014486,-0.00087811,0.00011688,0.00722030,0.00163082,0.06177483,1.0223,0.2836,-9.7190,-0.038910,0.017251,0.042559,21.7237,-7.9400,14.4019,20.2266,0.2650,129,0,0,-0.005812,-0.005358,-0.261223,0.036431,-0.023573,0.041954,-1.7966,3.3930,1.5540
12558,11.0,-0.003074,0.000321,-0.261539,0.003895,-0.003459,0.011860,-1.3295,5.3509,-1.1076,-0.00011538,-0.00091298,0.00011909,0.00762309,0.00171395,0.05781709,1.0375,0.1923,-9.6927,-0.047895,0.009994,0.008013,21.7237,-7.9400,14.4019,20.2266,0.2620,130,0,0,-0.005885,-0.005441,-0.260947,0.036582,-0.022472,0.042823,-1.8443,3.4392,1.6072
12569,11.0,-0.003179,0.000280,-0.261391,0.002666,-0.003945,0.013030,-1.3473,5.3762,-1.1174,-0.00011327,-0.00100088,0.00011744,0.00763888,0.00171528,0.05776326,0.9574,0.1835,-9.6109,-0.026415,0.023415,-0.014857,21.7237,-7.9400,14.4019,20.2266,0.2620,135,0,0,-0.005938,-0.005481,-0.260496,0.036284,-0.022905,0.047461,-1.8662,3.4666,1.6035
12580,11.0,-0.003927,0.000268,-0.261242,-0.006055,-0.004548,0.014000,-1.3567,5.4495,-1.1230,-0.00012656,-0.00145460,0.00010734,0.00769351,0.00172428,0.05776566,0.9234,0.1369,-9.6200,-0.017042,0.031657,-0.005032,19.2481,-8.3487,15.1742,20.2266,0.2620,139,-1,0,-0.005970,-0.005497,-0.259980,0.035977,-0.023457,0.052807,-1.8853,3.4848,1.6011
12591,11.0,-0.004024,0.000249,-0.260884,-0.006843,-0.005090,0.017546,-1.3624,5.4637,-1.1261,-0.00014690,-0.00147045,0.00010507,0.00778460,0.00173872,0.05690784,0.8867,0.1433,-9.5979,-0.012412,0.018393,-0.004768,19.2481,-8.3487,15.1742,20.2266,0.2620,134,0,0,-0.006302,-0.005537,-0.258797,0.033400,-0.025023,0.063387,-1.9052,3.5387,1.5002
12602,11.0,-0.004018,0.000243,-0.260687,-0.007205,-0.004942,0.018390,-1.3596,5.4575,-1.1298,-0.00017890,-0.00141779,0.00010303,0.00779493,0.00174054,0.05690876,0.8119,0.1896,-9.6421,-0.000970,-0.001393,-0.006899,19.2481,-8.3487,15.1742,20.2266,0.2650,134,0,0,-0.006358,-0.005548,-0.262148,0.032069,-0.025642,0.026514,-1.9086,3.5626,1.4948
12613,11.0,-0.003993,0.000254,-0.260466,-0.006704,-0.003669,0.019126,-1.3477,5.4463,-1.1384,-0.00021679,-0.00135496,0.00010073,0.00779410,0.00173707,0.05684010,0.8702,0.2825,-9.6609,0.012997,-0.007313,-0.014638,19.2481,-8.3487,15.1742,20.2266,0.2650,134,0,0,-0.006348,-0.005549,-0.261858,0.030441,-0.026185,0.031500,-1.9127,3.5678,1.4973
12624,11.0,-0.003954,0.000241,-0.260523,-0.005855,-0.002655,0.016190,-1.3496,5.4342,-1.1567,-0.00023158,-0.00128790,0.00010072,0.00767487,0.00170665,0.05799296,0.8959,0.2992,-9.6916,-0.003042,-0.007724,-0.029359,19.2481,-8.3487,15.1742,20.2266,0.2620,139,0,0,-0.006323,-0.005767,-0.261118,0.027651,-0.025567,0.040546,-1.9066,3.5771,1.4895
12635,11.0,-0.003957,0.000196,-0.260332,-0.004736,-0.004073,0.016538,-1.3715,5.4321,-1.2989,-0.00023036,-0.00125496,0.00014493,0.00768383,0.00167324,0.05794086,0.9783,0.1123,-9.6851,-0.030253,0.003049,-0.034670,19.2481,-8.3487,15.1742,20.2266,0.2620,131,0,0,-0.006329,-0.005791,-0.261076,0.026468,-0.024988,0.040673,-1.9124,3.5882,1.4736
12646,11.0,-0.004092,0.000193,-0.260145,-0.006037,-0.004328,0.017408,-1.3685,5.4540,-1.2852,-0.00025730,-0.00130296,0.00014161,0.00769333,0.00167872,0.05794146,0.8952,0.1621,-9.6314,-0.002601,0.024257,0.022973,19.2481,-8.3487,15.1742,20.2266,0.2620,139,0,0,-0.006366,-0.005822,-0.260173,0.025510,-0.026824,0.049900,-1.9452,3.6153,1.4453
12657,11.0,-0.004889,0.000276,-0.261997,-0.013890,-0.003576,-0.006407,-1.3310,5.5231,-1.2709,-0.00033243,-0.00173882,0.00012674,0.00690554,0.00150538,0.06662542,0.9773,0.1654,-9.7063,0.042760,0.028456,0.028519,19.2481,-8.3487,15.1742,20.2266,0.2650,138,-1,0,-0.006411,-0.005821,-0.259630,0.024553,-0.027558,0.054984,-1.9452,3.6358,1.4649
12669,12.0,-0.005061,0.000319,-0.262080,-0.012362,-0.002475,-0.007309,-1.3033,5.5397,-1.2611,-0.00038253,-0.00175002,0.00012166,0.00689465,0.00150010,0.06662374,1.0998,0.2447,-9.7559,0.030243,0.020142,0.013565,19.2481,-8.3487,15.1742,20.2266,0.2650,138,0,0,-0.006719,-0.005816,-0.262195,0.023301,-0.027948,0.025088,-1.9188,3.6693,1.4788
12680,11.0,-0.005026,0.000274,-0.262152,-0.009329,-0.001888,-0.008615,-1.3207,5.5252,-1.2775,-0.00037127,-0.00165187,0.00012482,0.00689742,0.00150186,0.06655331,1.0725,0.3049,-9.8187,-0.023352,-0.006402,-0.025712,20.4986,-7.5334,15.1653,20.2266,0.2650,132,0,0,-0.006845,-0.005831,-0.261609,0.024262,-0.027305,0.032094,-1.8994,3.7168,1.4860
12691,11.0,-0.004969,0.000213,-0.261953,-0.006832,-0.001953,-0.006084,-1.3481,5.5099,-1.3047,-0.00034686,-0.00155854,0.00012928,0.00700952,0.00152275,0.06530088,1.0259,0.2680,-9.7730,-0.035282,-0.007987,-0.041892,20.4986,-7.5334,15.1653,20.2266,0.2630,137,0,0,-0.006828,-0.005849,-0.261274,0.024907,-0.026714,0.034905,-1.9172,3.7181,1.4755
12702,11.0,-0.004912,0.000139,-0.262006,-0.005138,-0.002505,-0.005765,-1.3797,5.4982,-1.3124,-0.00031738,-0.00148008,0.00013397,0.00701301,0.00152450,0.06524822,0.9681,0.2346,-9.6791,-0.044094,-0.005655,-0.010725,20.4986,-7.5334,15.1653,20.2266,0.2630,134,0,0,-0.006809,-0.005914,-0.261415,0.024708,-0.026350,0.032897,-1.9639,3.7317,1.4464
12713,11.0,-0.004825,0.000100,-0.262066,-0.003967,-0.002962,-0.005039,-1.3958,5.4803,-1.3284,-0.00031356,-0.00139209,0.00013630,0.00701482,0.00152864,0.06524830,0.8982,0.2028,-9.6359,-0.022757,-0.013312,-0.025079,20.4986,-7.5334,15.1653,20.2266,0.2630,129,0,0,-0.006811,-0.005952,-0.261048,0.023846,-0.026359,0.037408,-1.9885,3.7440,1.4406
12724,11.0,-0.004610,0.000072,-0.262982,-0.000962,-0.003129,-0.013826,-1.4047,5.4396,-1.3478,-0.00032131,-0.00123860,0.00013888,0.00664299,0.00144991,0.06883196,0.9422,0.2156,-9.5810,-0.012852,-0.037802,-0.031767,20.4986,-7.5334,15.1653,20.2266,0.2650,134,0,0,-0.006774,-0.005965,-0.260651,0.022976,-0.026779,0.042088,-2.0070,3.7416,1.4328
12735,11.0,-0.003884,0.000055,-0.263132,0.008002,-0.003333,-0.013370,-1.4033,5.3752,-1.3723,-0.00034288,-0.00080092,0.00014615,0.00661461,0.00145239,0.06882817,0.9999,0.2021,-9.6475,0.001640,-0.023743,-0.040132,20.4986,-7.5334,15.1653,20.2266,0.2650,138,1,0,-0.006666,-0.005982,-0.262387,0.022337,-0.027228,0.025599,-2.0207,3.7219,1.3998
12746,11.0,-0.003938,0.000026,-0.263262,0.007028,-0.003203,-0.013111,-1.4147,5.3937,-1.3041,-0.00034257,-0.00088659,0.00011132,0.00662018,0.00147860,0.06876012,0.9847,0.2458,-9.6835,-0.016810,0.013130,-0.023698,20.4986,-7.5334,15.1653,20.2266,0.2650,135,0,0,-0.006458,-0.005992,-0.262109,0.022598,-0.027460,0.029991,-2.0227,3.7281,1.3757
12757,11.0,-0.003529,0.000015,-0.262500,0.010830,-0.003409,-0.002239,-1.4134,5.3931,-1.3212,-0.00036306,-0.00068679,0.00011363,0.00699481,0.00156937,0.06506388,0.9336,0.1947,-9.6617,0.000389,0.034901,-0.026668,20.4986,-7.5334,15.1653,20.2266,0.2630,137,1,0,-0.006473,-0.006004,-0.261768,0.022494,-0.027512,0.034328,-2.0360,3.7391,1.3661
12768,11.0,-0.003691,0.000044,-0.262504,0.007252,-0.003275,-0.000419,-1.4027,5.4302,-1.3653,-0.00040110,-0.00085499,0.00010644,0.00701125,0.00156805,0.06501271,0.8761,0.1787,-9.5523,0.016343,0.029812,-0.069259,20.4986,-7.5334,15.1653,20.2266,0.2630,136,0,0,-0.006422,-0.006007,-0.261562,0.020741,-0.028403,0.038126,-2.0363,3.7977,1.3283
12779,11.0,-0.003614,0.000060,-0.262500,0.006125,-0.002885,0.001089,-1.3945,5.4211,-1.4046,-0.00043286,-0.00085236,0.00010347,0.00702599,0.00156835,0.06501375,0.8170,0.2165,-9.5721,0.012826,-0.013259,-0.062991,21.7274,-7.1215,14.3995,20.2266,0.2630,137,0,0,-0.006494,-0.006002,-0.261138,0.019108,-0.028669,0.043735,-2.0273,3.8233,1.2873
12791,12.0,-0.002879,0.000007,-0.263164,0.014576,-0.003939,-0.005476,-1.4119,5.3633,-1.4463,-0.00043471,-0.00046004,0.00011106,0.00670523,0.00150329,0.06776781,1.0151,0.1626,-9.5782,-0.019944,-0.019294,-0.063573,21.7274,-7.1215,14.3995,20.2266,0.2650,137,1,0,-0.006487,-0.005989,-0.260674,0.017408,-0.028687,0.049025,-2.0193,3.8271,1.3062
12802,11.0,-0.002876,0.000012,-0.263218,0.013596,-0.004196,-0.004363,-1.4078,5.3748,-1.4677,-0.00046501,-0.00055805,0.00010635,0.00670778,0.00150770,0.06776759,0.9917,0.1634,-9.5902,0.003644,0.001137,-0.033056,21.7274,-7.1215,14.3995,20.2266,0.2650,133,0,0,-0.006239,-0.006003,-0.262281,0.017557,-0.029838,0.032848,-2.0402,3.8256,1.2419
12813,11.0,-0.002897,0.000034,-0.263231,0.012527,-0.004122,-0.003056,-1.3956,5.3892,-1.4831,-0.00050532,-0.00066422,0.00010041,0.00673130,0.00150631,0.06764376,1.0010,0.1750,-9.6041,0.013855,0.003892,-0.024127,21.7274,-7.1215,14.3995,20.1896,0.2650,133,0,0,-0.006264,-0.006011,-0.261927,0.017086,-0.030363,0.037874,-2.0403,3.8389,1.2177
