timestamp_ms,dt_ms,pos_x,pos_y,pos_z,vel_x,vel_y,vel_z,roll_deg,pitch_deg,yaw_deg,gyro_bias_x,gyro_bias_y,gyro_bias_z,accel_bias_x,accel_bias_y,accel_bias_z,raw_accel_x,raw_accel_y,raw_accel_z,raw_gyro_x,raw_gyro_y,raw_gyro_z,raw_mag_x,raw_mag_y,raw_mag_z,raw_baro_alt,raw_tof,raw_flow_squal,raw_flow_dx,raw_flow_dy,dev_pos_x,dev_pos_y,dev_pos_z,dev_vel_x,dev_vel_y,dev_vel_z,dev_roll_deg,dev_pitch_deg,dev_yaw_deg
10865,10.0,-0.000287,-0.000083,-0.262927,-0.022984,-0.007017,-0.001440,-0.0286,0.0365,0.0000,0.00000000,0.00000000,0.00000000,0.00208353,0.00259695,0.00000000,1.1491,0.2556,-9.8881,-0.046152,0.050004,0.012925,21.3117,-7.9400,14.6585,20.0892,0.2630,131,0,0,-0.000921,0.000000,-0.297173,0.134366,0.014251,-0.319477,-0.1016,-0.0687,0.2878
10875,10.0,-0.000457,-0.000752,-0.262938,-0.012109,-0.036787,-0.000793,-0.2456,0.1009,0.0000,0.00000033,-0.00000017,0.00000000,0.00208041,0.00292583,0.00000016,1.0754,0.1425,-9.7414,-0.049781,0.028223,-0.017796,21.3117,-7.9400,14.6585,20.0892,0.2630,133,0,-1,-0.001019,-0.000019,-0.279253,0.141475,0.017136,-0.072745,-0.1273,-0.0441,0.3061
10886,11.0,-0.000502,-0.000861,-0.260890,-0.000451,-0.026063,0.095054,-0.0949,0.0816,0.0000,-0.00000018,-0.00000012,0.00000000,0.00204837,0.00260749,-0.00005814,0.9827,0.0731,-9.6444,-0.039814,0.003055,-0.028632,21.3117,-7.9400,14.6585,20.0892,0.2630,131,0,0,-0.001228,-0.000355,-0.280484,0.155227,0.017508,-0.049649,-0.1895,0.0209,0.3278
10898,12.0,0.000119,-0.000959,-0.262952,0.026570,-0.020199,0.001930,0.0775,-0.3529,0.0000,-0.00000100,0.00000152,0.00000000,0.00114225,0.00225559,0.00002076,0.9585,-0.0111,-9.5686,-0.027702,-0.007615,-0.023075,20.9033,-7.1215,15.1697,20.0892,0.2630,131,1,0,-0.001233,-0.000366,-0.280825,0.161294,0.017148,-0.035765,-0.2131,0.0191,0.3222
10909,11.0,0.000113,-0.000962,-0.262784,0.027702,-0.014804,0.007741,0.3358,0.0412,0.0000,-0.00000239,-0.00000070,0.00000000,0.00187897,0.00179651,-0.00002780,0.8957,-0.0526,-9.5929,0.016156,-0.002056,-0.013870,20.9033,-7.1215,15.1697,20.0892,0.2620,131,0,0,-0.001124,-0.000437,-0.281120,0.166922,0.015777,-0.022585,-0.2301,0.0529,0.3185
10920,11.0,0.000035,-0.000905,-0.262702,0.025013,-0.007612,0.008006,0.6377,0.6776,0.0000,-0.00000418,-0.00000544,0.00000000,0.00293493,0.00127942,-0.00002806,0.8149,0.1110,-9.7457,0.060990,0.010714,-0.002998,20.9033,-7.1215,15.1697,20.0892,0.2620,135,0,0,-0.001176,-0.000374,-0.267417,0.175551,0.014398,0.143019,-0.1991,0.0545,0.3150
10931,11.0,-0.000030,-0.000851,-0.262034,0.022975,-0.000466,0.017420,0.8475,1.2386,0.0000,-0.00000568,-0.00001032,0.00000000,0.00399450,0.00096270,-0.00036073,0.8469,0.2621,-9.9027,0.059675,0.009537,-0.005503,20.9033,-7.1215,15.1697,20.1447,0.2620,127,0,0,-0.001220,-0.000337,-0.265924,0.179351,0.014985,0.155635,-0.1654,0.0603,0.3236
10942,11.0,0.000032,-0.000891,-0.261856,0.024217,0.003252,0.015368,0.7076,1.6426,0.0000,-0.00000417,-0.00001478,0.00000000,0.00467487,0.00115088,-0.00035935,0.9393,0.3740,-9.9570,-0.017696,-0.002656,-0.018512,20.9033,-7.1215,15.1697,20.1447,0.2640,127,0,0,-0.001369,-0.000381,-0.263431,0.186520,0.018445,0.168186,-0.1255,0.1061,0.3499
10953,11.0,0.000278,-0.001032,-0.261604,0.030011,0.001902,0.016260,0.3160,1.7194,0.0000,-0.00000012,-0.00001597,0.00000000,0.00486275,0.00175496,-0.00050716,0.9640,0.2690,-9.8179,-0.103293,-0.028228,-0.034488,20.9033,-7.1215,15.1697,20.1447,0.2640,133,0,0,-0.001429,-0.000504,-0.261661,0.190432,0.020370,0.178985,-0.1569,0.1402,0.3662
10964,11.0,0.000561,-0.001205,-0.263164,0.033295,-0.002061,-0.006701,-0.1345,1.9723,0.0000,0.00000528,-0.00001958,0.00000000,0.00499397,0.00237041,0.00274019,0.9301,0.1519,-9.6469,-0.135613,-0.023431,-0.059276,20.9033,-7.1215,15.1697,20.1447,0.2640,127,0,0,-0.001357,-0.000563,-0.259813,0.195205,0.022193,0.190654,-0.2159,0.1251,0.3585
10975,11.0,0.000852,-0.001316,-0.263174,0.038377,-0.005065,-0.002785,-0.3185,2.1364,0.0000,0.00000753,-0.00002280,0.00000000,0.00536097,0.00262238,0.00259911,1.1061,-0.0281,-9.4613,-0.082811,-0.035349,-0.066627,20.9033,-7.1215,15.1697,20.1447,0.2630,128,0,0,-0.001280,-0.000774,-0.255673,0.203277,0.021738,0.218685,-0.3718,0.1328,0.3203
10986,11.0,0.000524,-0.001333,-0.263217,0.024937,-0.004631,-0.000919,-0.2540,3.3249,0.0000,0.00000619,-0.00004707,0.00000000,0.00760356,0.00250192,0.00262748,1.2089,-0.0205,-9.4905,-0.002107,-0.012948,-0.058870,21.3190,-7.1225,15.1675,20.1130,0.2630,131,-1,0,-0.001351,-0.000909,-0.259715,0.207702,0.019660,0.166030,-0.4194,0.1725,0.3542
10997,11.0,0.000449,-0.001338,-0.262766,0.021472,-0.003882,0.006255,-0.1708,3.8420,0.0000,0.00000441,-0.00005916,0.00000000,0.00874444,0.00237900,0.00082229,1.1898,-0.0243,-9.5676,0.006764,0.027716,-0.054431,21.3190,-7.1225,15.1675,20.1130,0.2630,128,0,0,-0.001543,-0.000904,-0.257932,0.213681,0.018424,0.181104,-0.4255,0.1653,0.3331
11008,11.0,0.000166,-0.000833,-0.262705,0.011016,0.011204,0.006544,0.5541,4.5957,0.0000,-0.00001487,-0.00007882,0.00000000,0.01008568,0.00101449,0.00083454,1.0683,0.0417,-9.6818,0.026966,0.071457,-0.020298,21.3190,-7.1225,15.1675,20.1130,0.2640,135,0,1,-0.001846,-0.000781,-0.259641,0.223179,0.016043,0.145505,-0.4188,0.2646,0.3042
11019,11.0,-0.000277,-0.000761,-0.262587,-0.005801,0.013579,0.006890,0.4899,5.3155,0.0000,-0.00001199,-0.00009997,0.00000000,0.01139417,0.00119094,0.00045344,0.6013,0.3030,-9.7838,0.038459,0.101079,0.001216,21.3190,-7.1225,15.1675,20.1130,0.2640,137,0,0,-0.002096,-0.000628,-0.258085,0.225563,0.015684,0.157982,-0.4051,0.3480,0.3093
11030,11.0,-0.000800,-0.000672,-0.262709,-0.022337,0.016377,0.004541,0.3892,5.8442,0.0000,-0.00000645,-0.00011607,0.00000000,0.01232788,0.00128860,0.00160697,0.4150,0.4216,-9.8067,0.043904,0.107879,0.009771,21.3190,-7.1225,15.1675,20.1130,0.2640,129,0,0,-0.002271,-0.000616,-0.256449,0.225819,0.017091,0.169295,-0.3879,0.4035,0.3220
11042,12.0,-0.000385,-0.000667,-0.262588,-0.009819,0.016713,0.005602,0.1380,5.1244,0.0000,0.00000338,-0.00008447,0.00000000,0.01093946,0.00173678,0.00123143,0.5519,0.4366,-9.7869,-0.032519,0.006205,-0.007717,21.3190,-7.1225,15.1675,20.1130,0.2620,127,1,0,-0.002617,-0.000667,-0.252771,0.220059,0.022479,0.191876,-0.3674,0.5337,0.3757
11053,11.0,0.000368,-0.000713,-0.262503,0.009160,0.014710,0.006206,-0.1446,4.2829,0.0000,0.00001584,-0.00004345,0.00000000,0.00936157,0.00215245,0.00119891,0.6794,0.3674,-9.7529,-0.062286,-0.050569,-0.031018,21.3190,-7.1225,15.1675,20.1130,0.2620,127,1,0,-0.002482,-0.000792,-0.257994,0.217755,0.024654,0.123668,-0.3986,0.5847,0.4110
11064,11.0,0.000825,-0.000754,-0.261713,0.020017,0.012042,0.016451,-0.3466,3.9054,0.0000,0.00002572,-0.00002639,0.00000000,0.00925796,0.00258651,-0.00467169,0.9414,0.2221,-9.5860,-0.053914,-0.087705,-0.062679,21.3190,-7.1225,15.1675,19.9941,0.2620,128,0,0,-0.002051,-0.000950,-0.255250,0.218327,0.028365,0.146501,-0.4849,0.5552,0.4075
11076,12.0,0.001263,-0.000795,-0.261497,0.027589,0.008378,0.019388,-0.5348,3.7245,0.0000,0.00003560,-0.00001766,0.00000000,0.00895412,0.00288074,-0.00467730,0.9645,0.1112,-9.5248,-0.059802,-0.069995,-0.046981,21.3190,-7.1225,15.1675,19.9941,0.2630,130,0,0,-0.001861,-0.000981,-0.253587,0.221341,0.028950,0.160566,-0.5192,0.5064,0.3850
11087,11.0,0.001373,-0.000837,-0.261161,0.026388,0.004582,0.024016,-0.6539,3.8696,0.0000,0.00004248,-0.00002933,0.00000000,0.00935676,0.00308680,-0.00575235,0.9313,-0.0036,-9.4673,-0.047254,-0.004296,-0.019249,21.3190,-7.1225,15.1675,19.9941,0.2630,135,0,0,-0.001697,-0.001138,-0.257656,0.225048,0.027210,0.111835,-0.6018,0.4939,0.4352
11098,11.0,0.001366,-0.000802,-0.261728,0.022806,0.003468,0.016806,-0.6700,4.1070,0.0000,0.00004417,-0.00004784,0.00000000,0.00910515,0.00297952,0.00226771,0.9644,0.0573,-9.5174,0.012973,0.011398,0.019505,21.7310,-7.9421,14.6540,19.9941,0.2630,134,0,0,-0.001763,-0.001209,-0.256369,0.225826,0.025507,0.126190,-0.6248,0.5309,0.4369
11109,11.0,0.001420,-0.000723,-0.261452,0.021298,0.004581,0.019784,-0.6112,4.2300,0.0000,0.00004165,-0.00006091,0.00000000,0.00945386,0.00294215,0.00141626,0.9550,0.1401,-9.5805,0.052506,-0.009424,0.023717,21.7310,-7.9421,14.6540,19.9941,0.2620,137,0,0,-0.001782,-0.001200,-0.255043,0.228091,0.024451,0.138954,-0.6222,0.5414,0.4606
11120,11.0,0.001719,-0.000693,-0.261219,0.024975,0.004485,0.022576,-0.6153,4.1684,0.0000,0.00004317,-0.00005805,0.00000000,0.00936968,0.00296673,0.00141770,0.9594,0.1372,-9.5102,0.014530,-0.055222,0.038289,21.7310,-7.9421,14.6540,19.9941,0.2620,137,0,0,-0.001819,-0.001240,-0.257580,0.230663,0.023001,0.107300,-0.5855,0.5728,0.5213
11131,11.0,0.002129,-0.000633,-0.261648,0.029953,0.005439,0.016395,-0.5977,4.0657,0.0000,0.00004335,-0.00005016,0.00000000,0.00863519,0.00284661,0.00839398,0.9659,0.1953,-9.5799,0.036734,-0.078627,0.076588,21.7310,-7.9421,14.6540,19.9941,0.2630,137,0,0,-0.001782,-0.001300,-0.256447,0.231130,0.022537,0.119516,-0.5821,0.5790,0.5614
11142,11.0,0.002525,-0.000505,-0.261456,0.035464,0.009105,0.018517,-0.5163,3.9957,0.0000,0.00003981,-0.00004779,0.00000000,0.00856301,0.00277255,0.00840269,1.1247,0.3456,-9.5516,0.088540,-0.082641,0.046288,21.7310,-7.9421,14.6540,19.9941,0.2630,135,0,0,-0.001568,-0.001359,-0.258509,0.233772,0.023419,0.094297,-0.5445,0.5398,0.6811
11153,11.0,0.002721,-0.000461,-0.261146,0.037947,0.010336,0.020308,-0.5341,4.0825,0.0000,0.00004508,-0.00006523,0.00000000,0.00889675,0.00286273,0.00726486,1.2983,0.3187,-9.6824,0.022756,-0.031765,0.002466,21.7310,-7.9421,14.6540,19.9941,0.2630,133,0,0,-0.001445,-0.001322,-0.257413,0.237564,0.025399,0.106900,-0.4987,0.5006,0.7179
11164,11.0,0.001553,-0.000517,-0.261703,0.014831,0.009407,0.009529,-0.6547,4.8382,0.0000,0.00006076,-0.00019786,0.00000000,0.00970166,0.00289512,0.01472296,1.3048,0.3216,-9.8523,-0.050442,0.040648,-0.009263,21.7310,-7.9421,14.6540,19.9941,0.2630,135,-2,0,-0.001485,-0.001429,-0.256294,0.240218,0.026453,0.117288,-0.4959,0.5347,0.7463
11175,11.0,0.000221,-0.000583,-0.261529,-0.008363,0.006696,0.009752,-0.7641,5.5143,0.0000,0.00007532,-0.00032664,0.00000000,0.01110768,0.00306490,0.01364443,1.1829,0.1437,-9.7715,-0.060206,0.066217,-0.029357,21.7310,-7.9421,14.6540,19.9941,0.2620,135,-2,0,-0.001938,-0.001468,-0.255076,0.243871,0.028201,0.126437,-0.5209,0.5547,0.7597
11186,11.0,-0.000195,-0.000581,-0.261424,-0.015145,0.005612,0.009901,-0.7986,5.6908,0.0000,0.00008186,-0.00035460,0.00000000,0.01138344,0.00312285,0.01360126,0.8372,0.1504,-9.7419,-0.008318,0.081988,-0.000586,20.0829,-8.7617,14.9107,20.0179,0.2620,134,0,0,-0.002872,-0.001667,-0.258127,0.244558,0.028117,0.087352,-0.5989,0.6960,0.7870
11197,11.0,-0.000048,-0.000562,-0.260896,-0.012856,0.006087,0.015492,-0.8096,5.6070,0.0000,0.00008602,-0.00032227,0.00000000,0.01152933,0.00323972,0.00954702,0.6630,0.2560,-9.7211,0.008510,0.072770,0.008673,20.0829,-8.7617,14.9107,20.0179,0.2620,129,1,0,-0.002995,-0.001740,-0.256080,0.240656,0.028307,0.107839,-0.6109,0.8319,0.8257
11208,11.0,0.000187,-0.000546,-0.260727,-0.009926,0.007732,0.014822,-0.8294,5.4990,0.0000,0.00009325,-0.00028230,0.00000000,0.01129341,0.00324341,0.00958829,0.6326,0.3956,-9.8450,0.009177,0.056725,-0.010611,20.0829,-8.7617,14.9107,20.0179,0.2630,127,1,0,-0.002935,-0.001822,-0.259856,0.237193,0.028813,0.063592,-0.6219,0.9045,0.8508
11219,11.0,-0.000068,-0.000550,-0.260482,-0.015268,0.009485,0.013873,-0.8694,5.5726,0.0000,0.00010429,-0.00029512,0.00000000,0.01147270,0.00333528,0.00862386,0.6760,0.4703,-9.9681,-0.005219,0.049365,0.023207,20.0829,-8.7617,14.9107,20.0179,0.2630,129,0,0,-0.002810,-0.001829,-0.259104,0.234773,0.031032,0.072390,-0.6201,0.9427,0.8603
11230,11.0,0.000369,-0.000627,-0.261102,-0.008350,0.009576,0.002374,-0.9776,5.3920,0.0000,0.00012756,-0.00022918,0.00000000,0.01041488,0.00325076,0.01590771,0.6975,0.4692,-9.9958,-0.059058,0.026030,0.000306,20.0829,-8.7617,14.9107,20.0179,0.2630,129,1,0,-0.002739,-0.001947,-0.257400,0.228891,0.035515,0.087325,-0.6601,1.0308,0.9226
11241,11.0,0.001003,-0.000704,-0.261017,0.001385,0.009432,0.000645,-1.0763,5.1570,0.0000,0.00014948,-0.00014644,0.00000000,0.01007136,0.00337468,0.01525076,0.7607,0.4519,-9.9965,-0.059172,-0.010910,-0.006688,20.0829,-8.7617,14.9107,20.0179,0.2620,130,1,0,-0.002763,-0.002079,-0.259776,0.225367,0.037084,0.057485,-0.7147,1.0752,0.9546
11252,11.0,0.001878,-0.000805,-0.261021,0.013955,0.007863,-0.001708,-1.1905,4.8674,0.0000,0.00017484,-0.00004496,0.00000000,0.00963180,0.00346107,0.01530308,0.8019,0.3609,-9.9683,-0.078840,-0.052319,-0.024182,20.0829,-8.7617,14.9107,20.0179,0.2620,130,1,0,-0.002498,-0.002121,-0.259170,0.224198,0.039257,0.063746,-0.7528,1.0760,0.9652
11263,11.0,0.002407,-0.000998,-0.260965,0.019875,0.002852,0.000213,-1.3591,4.7126,0.0000,0.00020779,0.00000038,0.00000000,0.00950130,0.00361582,0.01467571,0.8388,0.1388,-9.6558,-0.144894,-0.077658,-0.021074,20.0829,-8.7617,14.9107,20.0179,0.2620,133,0,0,-0.002021,-0.002290,-0.257652,0.222216,0.040106,0.079171,-0.8743,1.0482,0.9777
11274,11.0,0.002850,-0.001211,-0.260943,0.022204,-0.002815,0.003808,-1.5196,4.6153,0.0000,0.00023681,0.00002924,0.00000000,0.00938257,0.00373511,0.01467542,0.6772,0.0388,-9.4455,-0.154960,-0.055819,-0.002593,20.0829,-8.7617,14.9107,20.1130,0.2630,136,0,0,-0.001866,-0.002425,-0.260448,0.220245,0.038493,0.048587,-0.9672,1.0379,0.9824
11285,11.0,0.002004,-0.001293,-0.260816,0.005995,-0.006365,0.009305,-1.5659,4.8735,0.0000,0.00024105,-0.00011113,0.00000000,0.01001862,0.00377234,0.01405791,0.7923,-0.0251,-9.3366,-0.059499,-0.034006,0.007077,20.4877,-7.1204,14.9152,20.1130,0.2630,133,-2,0,-0.001970,-0.002556,-0.259242,0.215788,0.033490,0.072519,-1.1182,0.9961,0.9254
11296,11.0,0.001582,-0.000743,-0.261389,0.000827,0.000516,0.004946,-1.4142,4.9798,0.0000,0.00015858,-0.00017695,0.00000000,0.00976471,0.00324626,0.02021112,1.0201,0.0308,-9.3925,-0.001609,-0.024947,0.040618,20.4877,-7.1204,14.9152,20.1130,0.2630,129,-1,1,-0.002286,-0.002576,-0.258381,0.214507,0.030570,0.085873,-1.1459,0.9841,0.9494
11307,11.0,0.000960,-0.000192,-0.261272,-0.004828,0.006981,0.008587,-1.2885,5.1406,0.0000,0.00008274,-0.00026631,0.00000000,0.01014982,0.00296031,0.01980206,1.1955,0.0818,-9.4428,-0.008068,0.011443,0.061368,20.4877,-7.1204,14.9152,20.1130,0.2630,132,-1,1,-0.002449,-0.002368,-0.257462,0.215430,0.028883,0.097951,-1.1496,0.9804,0.9908
11318,11.0,0.000816,-0.000193,-0.261166,-0.002495,0.005021,0.010741,-1.3125,5.1828,0.0000,0.00009295,-0.00028294,0.00000000,0.01018913,0.00300425,0.01979166,1.2329,0.1363,-9.5227,-0.011732,0.025059,0.024865,20.4877,-7.1204,14.9152,20.1130,0.2630,129,0,0,-0.002807,-0.002256,-0.259910,0.217878,0.026055,0.075683,-1.1658,1.0581,1.0757
11329,11.0,0.000681,-0.000191,-0.260913,-0.001985,0.003492,0.014228,-1.3269,5.2247,0.0000,0.00009988,-0.00030054,0.00000000,0.01034158,0.00305486,0.01874156,1.0827,0.1459,-9.5467,-0.006379,0.024604,0.009560,20.4877,-7.1204,14.9152,20.1685,0.2620,134,0,0,-0.002849,-0.002263,-0.259102,0.220395,0.024868,0.086021,-1.1762,1.0802,1.1024
11341,12.0,0.000503,-0.000191,-0.260724,-0.004748,0.001591,0.017355,-1.3404,5.2798,0.0000,0.00010452,-0.00032299,0.00000000,0.01042867,0.00308876,0.01873763,0.8274,0.1046,-9.4959,-0.009707,0.034676,-0.015441,20.4877,-7.1204,14.9152,20.1685,0.2620,131,0,0,-0.003012,-0.002139,-0.259455,0.218808,0.023042,0.083913,-1.1923,1.1647,1.1298
11352,11.0,0.000477,-0.000173,-0.260478,-0.006163,0.000309,0.020833,-1.3347,5.2750,0.0000,0.00010332,-0.00031718,0.00000000,0.01043954,0.00309146,0.01841143,0.7127,0.0989,-9.4935,0.006532,0.003940,-0.012179,20.4877,-7.1204,14.9152,20.1685,0.2620,134,0,0,-0.003040,-0.002144,-0.258527,0.216952,0.021599,0.095272,-1.2013,1.1887,1.1338
11364,12.0,0.000599,-0.000085,-0.260561,-0.006730,0.000895,0.019551,-1.2779,5.2093,0.0000,0.00008849,-0.00028052,0.00000000,0.01014263,0.00300403,0.02127983,0.5897,0.1708,-9.5422,0.056691,-0.031845,0.000560,20.4877,-7.1204,14.9152,20.1685,0.2620,127,0,0,-0.003014,-0.002137,-0.257522,0.214135,0.020208,0.105828,-1.1991,1.1961,1.1392
11375,11.0,0.001349,-0.000030,-0.260310,0.003511,0.001209,0.021157,-1.2477,5.0284,0.0000,0.00008099,-0.00014294,0.00000000,0.00976064,0.00298557,0.02104583,0.7798,0.1891,-9.6419,0.034259,-0.039899,0.037586,20.4877,-7.1204,14.9152,20.1685,0.2620,122,1,0,-0.002892,-0.002115,-0.258753,0.206939,0.018462,0.089691,-1.1483,1.1890,1.1697
11386,11.0,0.001414,-0.000013,-0.260073,0.003966,0.000838,0.021880,-1.2406,5.0160,0.0000,0.00007972,-0.00013863,0.00000000,0.00974698,0.00298717,0.02104616,0.8735,0.1721,-9.6835,0.009103,-0.012592,0.066745,22.1467,-8.3530,14.6517,20.1685,0.2620,129,0,0,-0.002652,-0.002140,-0.257812,0.204631,0.018103,0.098687,-1.1348,1.1987,1.2279
11398,12.0,0.001344,-0.000001,-0.260416,0.004538,0.000751,0.015037,-1.2348,5.0475,0.0000,0.00007835,-0.00016209,0.00000000,0.00937578,0.00291169,0.02585067,1.0606,0.2019,-9.7121,0.006397,0.012284,0.067557,22.1467,-8.3530,14.6517,20.1685,0.2620,126,0,0,-0.002674,-0.002201,-0.255618,0.202282,0.017298,0.116136,-1.1337,1.2413,1.3276
11409,11.0,0.001151,0.000045,-0.260253,0.004878,0.000794,0.014416,-1.2099,5.1124,0.0000,0.00007083,-0.00021065,0.00000000,0.00945988,0.00289778,0.02584650,1.2309,0.1676,-9.7696,0.028413,0.030166,0.040069,22.1467,-8.3530,14.6517,20.2266,0.2620,133,0,0,-0.002719,-0.002205,-0.259261,0.204150,0.016946,0.072043,-1.1282,1.2635,1.3747
11420,11.0,0.000982,0.000118,-0.260087,0.004254,0.001431,0.013282,-1.1699,5.1673,0.0000,0.00005874,-0.00025480,0.00000000,0.00955805,0.00287596,0.02571980,1.1241,0.1901,-9.8420,0.046197,0.024283,0.000880,22.1467,-8.3530,14.6517,20.2266,0.2620,134,0,0,-0.002867,-0.002270,-0.258504,0.204111,0.016364,0.079462,-1.1154,1.3282,1.4073
11431,11.0,0.000869,0.000203,-0.260463,0.002484,0.001196,0.005899,-1.1238,5.2034,0.0000,0.00004295,-0.00028681,0.00000000,0.00923833,0.00280432,0.02972139,0.9396,0.0891,-9.8623,0.051550,0.014637,-0.025507,22.1467,-8.3530,14.6517,20.2266,0.2620,134,0,0,-0.002926,-0.002254,-0.257675,0.205602,0.016036,0.086409,-1.0956,1.3524,1.4272
11442,11.0,0.000850,0.000294,-0.260399,0.000825,0.001915,0.003680,-1.0752,5.2078,0.0000,0.00002742,-0.00029455,0.00000000,0.00925892,0.00278215,0.02962687,0.8152,0.1695,-9.9617,0.057278,-0.003350,-0.001922,22.1467,-8.3530,14.6517,20.2266,0.2620,133,0,0,-0.003049,-0.002263,-0.258978,0.201857,0.014873,0.067447,-1.0405,1.4163,1.4298
11453,11.0,0.001051,0.000324,-0.260368,0.002697,0.002519,0.001991,-1.0618,5.1525,0.0000,0.00002625,-0.00025466,0.00000000,0.00920949,0.00277357,0.02962919,0.8506,0.2359,-9.8961,0.019740,-0.039682,0.007774,22.1467,-8.3530,14.6517,20.2266,0.2620,133,0,0,-0.003085,-0.002281,-0.258276,0.198455,0.014531,0.072966,-1.0130,1.4455,1.4389
11464,11.0,0.000962,0.000262,-0.260666,0.001603,0.001205,-0.002732,-1.1024,5.1184,0.0000,0.00004440,-0.00028062,0.00000000,0.00901284,0.00276403,0.03202385,0.9437,0.1714,-9.8278,-0.043870,-0.084063,-0.014345,22.1467,-8.3530,14.6517,20.2847,0.2620,131,-1,0,-0.003337,-0.002339,-0.256682,0.193256,0.014397,0.084949,-1.0096,1.4351,1.4673
11475,11.0,0.001518,0.000155,-0.260692,0.010124,-0.001447,-0.002043,-1.1662,4.9814,0.0000,0.00006836,-0.00016812,0.00000000,0.00886296,0.00280297,0.03202736,1.0278,0.0826,-9.6639,-0.074712,-0.094104,-0.023467,22.1467,-8.3530,14.6517,20.2847,0.2620,127,0,0,-0.003355,-0.002379,-0.259689,0.192615,0.014025,0.049389,-1.0420,1.3958,1.4715
11486,11.0,0.001369,0.000077,-0.260714,0.009313,-0.003773,-0.000869,-1.2079,4.9762,0.0000,0.00007983,-0.00022814,0.00000000,0.00892950,0.00281582,0.03207296,1.0990,0.0500,-9.6068,-0.054236,-0.071137,-0.046185,22.1357,-7.9400,14.9152,20.2847,0.2620,129,-1,0,-0.003235,-0.002504,-0.258546,0.192757,0.011852,0.064976,-1.1261,1.3398,1.4346
11497,11.0,0.001457,0.000051,-0.260847,0.011578,-0.004877,-0.000498,-1.2147,4.9724,0.0000,0.00007397,-0.00023546,0.00000000,0.00882128,0.00280699,0.03307454,1.0838,0.0757,-9.5436,-0.016657,-0.013494,-0.053721,22.1357,-7.9400,14.9152,20.2847,0.2620,132,0,0,-0.003390,-0.002587,-0.257863,0.191604,0.010743,0.073802,-1.1522,1.3486,1.4088
11508,11.0,0.001301,0.000030,-0.260847,0.009822,-0.004846,0.001285,-1.2166,5.0334,0.0000,0.00006612,-0.00030246,0.00000000,0.00889860,0.00279712,0.03310782,1.0265,0.1690,-9.5554,-0.010515,0.032429,-0.045125,22.1357,-7.9400,14.9152,20.2847,0.2620,132,0,0,-0.003352,-0.002603,-0.260004,0.192527,0.009647,0.051344,-1.1678,1.3488,1.3896
11519,11.0,0.000877,0.000002,-0.260825,0.003361,-0.004412,0.002853,-1.2217,5.1579,0.0000,0.00006029,-0.00042661,0.00000000,0.00904586,0.00278911,0.03310216,0.8874,0.2179,-9.5909,-0.013224,0.083807,-0.001078,22.1357,-7.9400,14.9152,20.2847,0.2620,133,0,0,-0.003532,-0.002685,-0.258805,0.190780,0.008853,0.068948,-1.1874,1.4380,1.3607
11530,11.0,0.000384,-0.000017,-0.260826,-0.005022,-0.003263,0.004154,-1.2223,5.2864,0.0000,0.00005426,-0.00055006,0.00000000,0.00916127,0.00277858,0.03340996,0.7136,0.2835,-9.5839,-0.005951,0.095421,0.040928,22.1357,-7.9400,14.9152,20.2847,0.2620,136,0,0,-0.003720,-0.002751,-0.258073,0.187532,0.008842,0.077560,-1.2001,1.5191,1.3726
11540,10.0,0.000596,0.000021,-0.260782,-0.002926,-0.000907,0.004746,-1.1972,5.2882,0.0000,0.00004004,-0.00048430,0.00000000,0.00910344,0.00274047,0.03341302,0.7777,0.3678,-9.6826,0.030648,0.063487,0.037115,22.1357,-7.9400,14.9152,20.2847,0.2620,135,1,0,-0.003873,-0.002770,-0.257266,0.184171,0.009403,0.086210,-1.2077,1.5828,1.4047
11551,11.0,0.001171,0.000063,-0.260708,0.004928,0.001625,0.003939,-1.1704,5.2075,0.0000,0.00002978,-0.00033391,0.00000000,0.00897050,0.00273207,0.03321040,0.9432,0.3919,-9.8311,0.034262,-0.007019,0.007085,22.1357,-7.9400,14.9152,20.1923,0.2620,133,1,0,-0.003868,-0.002814,-0.259304,0.178791,0.012052,0.063427,-1.1844,1.6777,1.4660
11562,11.0,0.001344,-0.000015,-0.260776,0.005924,0.001613,0.002229,-1.2151,5.1779,0.0000,0.00005630,-0.00030324,0.00000000,0.00886721,0.00273132,0.03399830,0.8549,0.3202,-9.7742,-0.050156,-0.023482,-0.036874,22.1357,-7.9400,14.9152,20.1923,0.2620,132,0,0,-0.003673,-0.002869,-0.258640,0.176975,0.013277,0.069487,-1.1809,1.7038,1.4836
11573,11.0,0.001502,-0.000141,-0.260724,0.006214,-0.000393,0.003452,-1.2863,5.1566,0.0000,0.00009290,-0.00027786,0.00000000,0.00885923,0.00276790,0.03384081,0.8013,0.1874,-9.6550,-0.085530,-0.015076,-0.046188,22.1357,-7.9400,14.9152,20.1923,0.2610,132,0,0,-0.003596,-0.002895,-0.257914,0.175521,0.014464,0.075806,-1.2019,1.6968,1.4791
11584,11.0,0.001689,-0.000190,-0.260678,0.006897,-0.001055,0.004966,-1.3121,5.1242,0.0000,0.00010444,-0.00024508,0.00000000,0.00883979,0.00278043,0.03384306,0.8011,0.2092,-9.6041,-0.032495,-0.028097,-0.026754,21.3081,-7.5291,14.6608,20.1923,0.2610,137,0,0,-0.003477,-0.003025,-0.258731,0.170555,0.014032,0.067391,-1.2957,1.7094,1.4575
11595,11.0,0.001849,-0.000210,-0.260203,0.008215,-0.001830,0.011910,-1.3215,5.0976,0.0000,0.00010538,-0.00022223,0.00000000,0.00909177,0.00284296,0.03095785,0.8932,0.1566,-9.5420,-0.014111,-0.026528,-0.008051,21.3081,-7.5291,14.6608,20.1923,0.2610,138,0,0,-0.003437,-0.003080,-0.257988,0.167639,0.013687,0.075993,-1.3162,1.7206,1.4515
11606,11.0,0.002032,-0.000280,-0.260059,0.010003,-0.003125,0.014228,-1.3558,5.0715,0.0000,0.00011748,-0.00019836,0.00000000,0.00906229,0.00286282,0.03095843,0.9250,0.1568,-9.5237,-0.046135,-0.025804,0.000038,21.3081,-7.5291,14.6608,20.1923,0.2620,131,0,0,-0.003363,-0.003086,-0.257185,0.166489,0.012912,0.084662,-1.3259,1.7119,1.4558
11618,12.0,0.001691,-0.000345,-0.259832,0.006100,-0.005417,0.017128,-1.3867,5.1009,0.0000,0.00012159,-0.00032991,0.00000000,0.00921771,0.00287402,0.03065834,1.0191,0.0535,-9.5290,-0.042546,-0.034723,0.007173,21.3081,-7.5291,14.6608,20.1579,0.2620,134,-1,0,-0.003252,-0.003182,-0.258956,0.164405,0.010856,0.066512,-1.3896,1.7181,1.4748
11628,10.0,0.000649,-0.000280,-0.260333,-0.005634,-0.005319,0.011090,-1.3496,5.2090,0.0000,0.00008578,-0.00064448,0.00000000,0.00907738,0.00274436,0.03536066,1.0557,0.0885,-9.5251,0.040225,-0.026647,0.022736,21.3081,-7.5291,14.6608,20.1579,0.2620,139,-2,0,-0.003439,-0.003246,-0.258247,0.162710,0.009272,0.075318,-1.4127,1.7342,1.4792
11639,11.0,0.000590,-0.000191,-0.260171,-0.003075,-0.004417,0.012985,-1.2942,5.2098,0.0000,0.00004205,-0.00064775,0.00000000,0.00910126,0.00270784,0.03513565,1.1320,0.1407,-9.5741,0.061494,-0.001452,0.006977,21.3081,-7.5291,14.6608,20.1579,0.2610,133,0,0,-0.003844,-0.003259,-0.259083,0.161444,0.006607,0.064834,-1.3682,1.7548,1.5096
11650,11.0,0.000375,-0.000134,-0.260027,-0.003061,-0.003189,0.013132,-1.2564,5.2514,0.0000,0.00001110,-0.00070533,0.00000000,0.00913536,0.00268069,0.03513200,1.1157,0.2163,-9.6986,0.041885,0.031742,0.027621,21.3081,-7.5291,14.6608,20.1579,0.2610,135,0,0,-0.003858,-0.003231,-0.258395,0.162595,0.005955,0.072793,-1.3387,1.7634,1.5254
11661,11.0,0.000048,-0.000065,-0.259832,-0.005037,-0.001147,0.013103,-1.2142,5.3166,0.0000,-0.00001822,-0.00079554,0.00000000,0.00924249,0.00266526,0.03476195,1.0679,0.2938,-9.7755,0.050393,0.051986,0.002705,21.3081,-7.5291,14.6608,20.1579,0.2610,135,0,0,-0.004091,-0.003261,-0.256759,0.162037,0.006378,0.086324,-1.2950,1.8578,1.5674
11672,11.0,-0.000282,-0.000006,-0.259694,-0.007841,0.000587,0.012147,-1.1805,5.3802,0.0000,-0.00003815,-0.00088025,0.00000000,0.00929698,0.00264278,0.03475938,0.9788,0.2947,-9.8104,0.042625,0.053737,-0.021592,21.3081,-7.5291,14.6608,20.1579,0.2620,135,0,0,-0.004247,-0.003310,-0.259391,0.160216,0.007059,0.053330,-1.2756,1.9232,1.5725
11683,11.0,-0.000715,-0.000107,-0.259522,-0.015124,-0.000004,0.012074,-1.2333,5.4716,0.0000,-0.00000348,-0.00098160,0.00000000,0.00939061,0.00267126,0.03448062,0.6348,0.2757,-9.8076,-0.065129,0.090565,0.003432,20.8997,-7.9400,14.4019,20.1579,0.2620,131,0,0,-0.004363,-0.003322,-0.258831,0.157219,0.007665,0.058526,-1.2790,1.9732,1.5763
11694,11.0,-0.001031,-0.000261,-0.259026,-0.020021,-0.001727,0.016929,-1.3128,5.5300,0.0000,0.00004503,-0.00101952,0.00000000,0.00971828,0.00275185,0.03210119,0.6397,0.2254,-9.7005,-0.100892,0.072651,0.045745,20.8997,-7.9400,14.4019,20.1579,0.2600,131,0,0,-0.004507,-0.003391,-0.258219,0.152269,0.008101,0.064026,-1.3141,2.0436,1.5850
11705,11.0,-0.000530,-0.000354,-0.258806,-0.012420,-0.002620,0.017892,-1.3580,5.4686,0.0000,0.00006851,-0.00078720,0.00000000,0.00959671,0.00276999,0.03188915,0.8418,0.2257,-9.6868,-0.059787,0.017490,0.054604,20.8997,-7.9400,14.4019,20.1579,0.2600,128,1,0,-0.004477,-0.003525,-0.258116,0.143989,0.007545,0.064097,-1.4288,2.1507,1.6559
11716,11.0,-0.000323,-0.000366,-0.258606,-0.006996,-0.002278,0.018327,-1.3596,5.4091,0.0000,0.00006334,-0.00067872,0.00000000,0.00952174,0.00276529,0.03188616,1.0649,0.2465,-9.6792,-0.005036,-0.042579,0.035393,20.8997,-7.9400,14.4019,20.1579,0.2600,128,0,0,-0.004276,-0.003558,-0.257404,0.142379,0.007234,0.071393,-1.4688,2.1709,1.6978
11727,11.0,0.000014,-0.000305,-0.259682,-0.000430,-0.001213,0.003937,-1.3248,5.3250,0.0000,0.00003516,-0.00054692,0.00000000,0.00864898,0.00255648,0.04021776,1.0825,0.2360,-9.6579,0.041972,-0.072138,-0.015068,20.8997,-7.9400,14.4019,20.1579,0.2620,127,0,0,-0.004143,-0.003607,-0.255837,0.141732,0.006891,0.085306,-1.4768,2.1599,1.7454
11738,11.0,0.000142,-0.000267,-0.259637,0.002756,-0.000972,0.004350,-1.3037,5.2955,0.0000,0.00001718,-0.00050646,0.00000000,0.00861321,0.00254919,0.04021499,1.0706,0.1905,-9.6738,0.024990,-0.028814,-0.022384,20.8997,-7.9400,14.4019,20.1579,0.2620,129,0,0,-0.004079,-0.003640,-0.259238,0.141249,0.006908,0.045602,-1.4575,2.1551,1.7419
11749,11.0,0.000063,-0.000269,-0.259526,0.002791,-0.001396,0.005186,-1.3037,5.3161,0.0000,0.00001314,-0.00054587,0.00000000,0.00867352,0.00255722,0.03980292,1.0428,0.1727,-9.7071,-0.001800,0.014498,-0.031194,20.8997,-7.9400,14.4019,20.0998,0.2620,129,0,0,-0.004020,-0.003627,-0.258748,0.141732,0.006488,0.052374,-1.4470,2.1443,1.7392
11760,11.0,-0.000073,-0.000297,-0.259104,0.000215,-0.002079,0.010203,-1.3164,5.3502,0.0000,0.00001615,-0.00060131,0.00000000,0.00893446,0.00262147,0.03749881,0.8548,0.1717,-9.6614,-0.018823,0.029548,-0.019272,20.8997,-7.9400,14.4019,20.0998,0.2600,127,0,0,-0.004109,-0.003684,-0.257498,0.139852,0.005140,0.066269,-1.4611,2.2010,1.7161
11771,11.0,-0.000133,-0.000285,-0.258940,-0.002015,-0.002387,0.011536,-1.3078,5.3626,0.0000,0.00000250,-0.00061967,0.00000000,0.00897442,0.00262214,0.03718610,0.7727,0.1551,-9.6740,0.007889,0.011280,-0.014370,20.8997,-7.9400,14.4019,20.0998,0.2600,127,0,0,-0.004181,-0.003726,-0.258576,0.136863,0.004616,0.053977,-1.4722,2.2414,1.7092
11783,12.0,-0.000207,-0.000284,-0.258796,-0.003916,-0.001714,0.012419,-1.3019,5.3757,0.0000,-0.00000696,-0.00063371,0.00000000,0.00899746,0.00261326,0.03718736,0.8024,0.2530,-9.6644,0.005029,0.013199,-0.000307,20.8997,-7.9400,14.4019,20.0998,0.2600,132,0,0,-0.004223,-0.003753,-0.257304,0.130955,0.003426,0.068271,-1.4739,2.2845,1.6774
11794,11.0,-0.000470,-0.000314,-0.259787,-0.005221,-0.001182,-0.000330,-1.3133,5.4277,0.0000,-0.00000199,-0.00071580,0.00000000,0.00835365,0.00245193,0.04424217,1.0501,0.2876,-9.6724,-0.015853,0.048623,0.034116,20.0757,-7.9400,14.1452,20.0998,0.2620,134,0,0,-0.004267,-0.003762,-0.256508,0.129501,0.003448,0.076134,-1.4790,2.3103,1.6938
11805,11.0,-0.000557,-0.000326,-0.259794,-0.003849,-0.000920,-0.000828,-1.3172,5.4408,0.0000,-0.00000168,-0.00073070,0.00000000,0.00834662,0.00245007,0.04424118,1.1072,0.2514,-9.7479,-0.006089,0.014182,0.016213,20.0757,-7.9400,14.1452,20.0998,0.2620,129,0,0,-0.004445,-0.003844,-0.258830,0.128498,0.004170,0.049608,-1.5008,2.3947,1.7438
11816,11.0,-0.000532,-0.000335,-0.259738,-0.002137,-0.000974,0.000251,-1.3205,5.4324,0.0000,-0.00000215,-0.00070817,0.00000000,0.00837592,0.00245935,0.04384122,1.0251,0.2198,-9.6815,-0.005366,-0.005421,-0.020097,20.0757,-7.9400,14.1452,20.0998,0.2620,131,0,0,-0.004494,-0.003899,-0.258242,0.127435,0.004175,0.056125,-1.5083,2.4281,1.7518
11827,11.0,0.000016,-0.000376,-0.259196,0.004463,-0.002268,0.007687,-1.3407,5.3884,0.0000,0.00000663,-0.00049572,0.00000000,0.00860586,0.00255218,0.04056852,0.9137,0.1342,-9.6137,-0.028882,0.009579,-0.008559,20.0757,-7.9400,14.1452,20.1579,0.2600,135,1,0,-0.004473,-0.003906,-0.257649,0.127139,0.003837,0.062540,-1.5171,2.4325,1.7505
11838,11.0,0.000040,-0.000394,-0.259072,0.001787,-0.002687,0.009599,-1.3470,5.3897,0.0000,0.00000298,-0.00049957,0.00000000,0.00862690,0.00255526,0.04037234,0.6857,0.1798,-9.6074,-0.011301,0.000143,-0.009114,20.0757,-7.9400,14.1452,20.1579,0.2600,129,0,0,-0.004290,-0.003957,-0.258008,0.123066,0.001995,0.059350,-1.5499,2.4719,1.7493
11850,12.0,0.000072,-0.000320,-0.258953,0.000682,-0.000926,0.010128,-1.3016,5.3801,0.0000,-0.00003568,-0.00049198,0.00000000,0.00863741,0.00253158,0.04037162,0.8165,0.2772,-9.6888,0.053222,-0.011892,-0.002988,20.0757,-7.9400,14.1452,20.1579,0.2600,128,0,0,-0.004290,-0.003971,-0.257379,0.119076,0.001656,0.066453,-1.5491,2.4884,1.7492
11861,11.0,0.000708,-0.000276,-0.258792,0.008689,0.001493,0.010511,-1.2760,5.3177,0.0000,-0.00005267,-0.00025223,0.00000000,0.00857264,0.00253090,0.04005706,0.9925,0.3977,-9.7334,0.034609,-0.015081,-0.007866,20.0757,-7.9400,14.1452,20.1579,0.2600,132,1,0,-0.004267,-0.003951,-0.256632,0.116725,0.001914,0.073487,-1.5253,2.4901,1.7557
11872,11.0,0.000866,-0.000369,-0.258677,0.010818,0.001016,0.010401,-1.3227,5.3011,0.0000,-0.00000822,-0.00023181,0.00000000,0.00855295,0.00254117,0.04005704,1.0540,0.2982,-9.7209,-0.058663,-0.019611,-0.032474,20.0757,-7.9400,14.1452,20.1579,0.2620,128,0,0,-0.004029,-0.003987,-0.259309,0.115444,0.003916,0.039799,-1.5157,2.5037,1.7613
11883,11.0,0.001140,-0.000422,-0.258520,0.013900,0.000226,0.011293,-1.3503,5.2614,0.0000,0.00001691,-0.00017417,0.00000000,0.00855597,0.00255629,0.03980835,1.0351,0.2235,-9.6774,-0.035329,-0.043544,-0.037445,19.6673,-7.9410,14.6563,20.1579,0.2620,134,0,0,-0.004005,-0.004073,-0.258882,0.114578,0.004115,0.045527,-1.5569,2.5181,1.6959
11894,11.0,0.001454,-0.000421,-0.258641,0.017004,-0.000486,0.009194,-1.3507,5.2139,0.0000,0.00001544,-0.00011378,0.00000000,0.00838056,0.00252200,0.04128848,1.0199,0.1627,-9.6421,-0.001246,-0.055618,-0.054666,19.6673,-7.9410,14.6563,20.2160,0.2600,134,0,0,-0.003911,-0.004099,-0.258397,0.114683,0.003855,0.051542,-1.5883,2.5027,1.6843
11905,11.0,0.001041,-0.000477,-0.258519,0.011108,-0.001535,0.010692,-1.3784,5.2495,0.0000,0.00003486,-0.00035668,0.00000000,0.00847829,0.00253244,0.04120666,0.9939,0.1855,-9.5967,-0.037540,-0.022675,0.004825,19.6673,-7.9410,14.6563,20.2160,0.2600,134,-1,0,-0.003749,-0.004142,-0.258338,0.113986,0.002098,0.053929,-1.6099,2.4785,1.6392
11916,11.0,0.000524,-0.000516,-0.258394,0.004562,-0.003018,0.012084,-1.3966,5.2984,0.0000,0.00004004,-0.00061753,0.00000000,0.00856899,0.00254752,0.04121090,0.9789,0.1145,-9.5935,-0.027310,-0.006185,0.020056,19.6673,-7.9410,14.6563,20.2160,0.2600,139,-1,0,-0.003934,-0.004198,-0.257747,0.112300,0.001412,0.061119,-1.6304,2.4912,1.6394
11927,11.0,0.000160,-0.000483,-0.259645,-0.000890,-0.003082,-0.002634,-1.3776,5.3058,0.0000,0.00001153,-0.00078718,0.00000000,0.00783080,0.00232052,0.04933397,0.8389,0.1564,-9.5887,0.021540,-0.042264,-0.019058,19.6673,-7.9410,14.6563,20.2160,0.2620,134,-1,0,-0.004319,-0.004260,-0.259456,0.109417,-0.000748,0.040362,-1.6578,2.5128,1.6681
11938,11.0,0.000548,-0.000460,-0.259660,0.002126,-0.003261,-0.000198,-1.3630,5.2278,0.0000,-0.00001447,-0.00061777,0.00000000,0.00778675,0.00232339,0.04933233,0.7398,0.1508,-9.5117,0.014807,-0.072352,-0.053940,19.6673,-7.9410,14.6563,20.2160,0.2620,129,0,0,-0.004425,-0.004252,-0.259002,0.107205,-0.001816,0.047695,-1.6502,2.4930,1.6630
11948,10.0,0.000860,-0.000426,-0.259639,0.004258,-0.002094,0.000921,-1.3441,5.1703,0.0000,-0.00004102,-0.00049426,0.00000000,0.00774675,0.00231480,0.04921867,0.7638,0.2754,-9.6389,0.023916,-0.059935,-0.043872,19.6673,-7.9410,14.6563,20.2160,0.2620,139,0,0,-0.004310,-0.004250,-0.258486,0.104392,-0.002631,0.055463,-1.6413,2.4701,1.6358
11959,11.0,0.001017,-0.000401,-0.259226,0.005780,0.000022,0.004820,-1.3270,5.1419,0.0000,-0.00005615,-0.00044789,0.00000000,0.00795487,0.00234982,0.04686333,0.9224,0.3855,-9.7938,0.022533,-0.031771,-0.023111,19.6673,-7.9410,14.6563,20.2160,0.2600,136,0,0,-0.004100,-0.004260,-0.257221,0.099737,-0.002004,0.068200,-1.6258,2.4313,1.6088
11970,11.0,0.001075,-0.000453,-0.259157,0.007032,0.001024,0.003645,-1.3503,5.1394,0.0000,-0.00002994,-0.00045387,0.00000000,0.00797020,0.00236135,0.04672209,1.0271,0.3873,-9.8386,-0.029328,-0.006080,-0.007087,19.6673,-7.9410,14.6563,20.1817,0.2600,132,0,0,-0.004040,-0.004259,-0.258553,0.099297,-0.000697,0.051274,-1.6192,2.4202,1.6053
11981,11.0,0.001062,-0.000578,-0.259123,0.008061,0.000643,0.002656,-1.4114,5.1567,0.0000,0.00003204,-0.00049909,0.00000000,0.00796622,0.00236988,0.04672245,1.0954,0.3500,-9.7898,-0.078918,0.013898,-0.001639,20.4877,-7.9400,15.1719,20.1817,0.2600,135,0,0,-0.004051,-0.004330,-0.257991,0.098496,0.000299,0.055943,-1.6409,2.4434,1.6095
11992,11.0,0.001287,-0.000727,-0.258948,0.011347,-0.001715,0.006142,-1.4862,5.1303,0.0000,0.00009835,-0.00044429,0.00000000,0.00802299,0.00240938,0.04595835,1.0399,0.1850,-9.5352,-0.099716,-0.026748,-0.019858,20.4877,-7.9400,15.1719,20.1817,0.2600,139,0,0,-0.004084,-0.004481,-0.256735,0.099329,0.001189,0.066553,-1.7439,2.4898,1.5762
12003,11.0,0.000919,-0.000846,-0.258856,0.006080,-0.005240,0.010513,-1.5451,5.1529,0.0000,0.00013628,-0.00066131,0.00000000,0.00810242,0.00242397,0.04596027,0.8904,0.0161,-9.3278,-0.082798,-0.025106,-0.033583,20.4877,-7.9400,15.1719,20.1817,0.2620,136,-1,0,-0.003997,-0.004535,-0.259443,0.100082,0.000199,0.037460,-1.8062,2.4796,1.5718
12014,11.0,0.000342,-0.000840,-0.258675,-0.001775,-0.007684,0.017108,-1.5391,5.2027,0.0000,0.00009978,-0.00094350,0.00000000,0.00825255,0.00241206,0.04578115,0.7969,-0.0582,-9.1700,-0.000336,0.000980,-0.010050,20.4877,-7.9400,15.1719,20.1817,0.2620,136,-1,0,-0.004257,-0.004607,-0.258477,0.097312,-0.004856,0.057146,-1.8996,2.4675,1.5550
12025,11.0,0.000158,-0.000662,-0.259212,-0.004345,-0.006806,0.012759,-1.4454,5.2266,0.0000,-0.00002163,-0.00101587,0.00000000,0.00788435,0.00223856,0.04995095,0.7959,0.0464,-9.3299,0.116122,0.017330,0.021757,20.4877,-7.9400,15.1719,20.1817,0.2610,131,0,0,-0.004665,-0.004398,-0.257852,0.094600,-0.007389,0.068025,-1.8966,2.4760,1.5611
12036,11.0,-0.000276,-0.000410,-0.259036,-0.008945,-0.003655,0.015183,-1.3147,5.2907,0.0000,-0.00016894,-0.00118769,0.00000000,0.00798698,0.00216542,0.04980817,0.8688,0.1845,-9.5258,0.168090,0.055060,0.040452,20.4877,-7.9400,15.1719,20.1817,0.2610,131,0,0,-0.004711,-0.004338,-0.259197,0.092867,-0.009462,0.055013,-1.8408,2.4916,1.5792
12047,11.0,-0.000879,-0.000229,-0.258880,-0.014677,0.000295,0.013326,-1.2202,5.3866,0.0000,-0.00026416,-0.00141583,0.00000000,0.00808365,0.00210935,0.04980537,0.9344,0.3666,-9.8800,0.124809,0.091128,0.072507,20.4877,-7.9400,15.1719,20.1817,0.2610,134,0,0,-0.005004,-0.004182,-0.257950,0.090043,-0.009714,0.068538,-1.6645,2.5740,1.6470
12058,11.0,-0.001967,-0.000724,-0.259287,-0.026203,-0.003659,0.004560,-1.2200,5.5086,0.0000,-0.00003274,-0.00184005,0.00000000,0.00794629,0.00212949,0.05277499,0.8668,0.3875,-9.9397,0.060646,0.082212,0.071848,20.4877,-7.9400,15.1719,20.1817,0.2610,132,-1,-1,-0.005235,-0.004173,-0.257207,0.087822,-0.008546,0.072614,-1.6013,2.6519,1.6967
12069,11.0,-0.002299,-0.000717,-0.259255,-0.026864,-0.001329,0.001359,-1.2094,5.5463,0.0000,-0.00004890,-0.00186002,0.00000000,0.00794995,0.00210899,0.05277395,0.9624,0.3895,-9.9971,0.012902,0.052882,0.063261,20.4877,-7.9400,15.1719,20.1817,0.2630,132,0,0,-0.005598,-0.004368,-0.256465,0.085403,-0.007603,0.075713,-1.5673,2.7087,1.7452
12080,11.0,-0.001794,-0.001333,-0.259226,-0.016901,-0.006475,-0.001458,-1.2645,5.4936,0.0000,0.00023778,-0.00148623,0.00000000,0.00790305,0.00215865,0.05260724,1.0563,0.3874,-9.9875,-0.013800,0.009689,0.031799,20.4877,-7.9400,15.1719,20.1817,0.2630,128,1,-1,-0.005580,-0.004634,-0.259819,0.084053,-0.005201,0.033811,-1.5673,2.7911,1.7807
12092,12.0,-0.000471,-0.001437,-0.260075,0.002134,-0.006246,-0.013560,-1.3053,5.3625,0.0000,0.00025040,-0.00076635,0.00000000,0.00740549,0.00204595,0.05698345,1.0985,0.2695,-9.9126,-0.055824,-0.026501,-0.021886,20.0685,-7.5281,14.4065,20.1817,0.2620,130,2,0,-0.005212,-0.004687,-0.259469,0.084408,-0.003950,0.036163,-1.5836,2.8224,1.8040
12103,11.0,-0.000131,-0.001587,-0.260199,0.005527,-0.008450,-0.013262,-1.3707,5.3091,0.0000,0.00028542,-0.00061422,0.00000000,0.00740196,0.00205261,0.05684872,0.9006,0.1013,-9.7125,-0.094872,-0.047657,-0.058872,20.0685,-7.5281,14.4065,20.1817,0.2620,138,0,0,-0.004695,-0.004774,-0.260199,0.085691,-0.003770,0.027944,-1.6597,2.8191,1.7842
12114,11.0,-0.000386,-0.001717,-0.260331,0.001196,-0.011253,-0.010698,-1.4250,5.3029,0.0000,0.00029466,-0.00076352,0.00000000,0.00743649,0.00208873,0.05685091,0.8253,-0.0003,-9.4881,-0.083922,-0.046838,-0.052324,20.0685,-7.5281,14.4065,20.1817,0.2620,130,-1,0,-0.004562,-0.004816,-0.259862,0.084846,-0.005489,0.033784,-1.7191,2.7962,1.7589
12125,11.0,-0.001057,-0.001751,-0.260613,-0.007916,-0.012482,-0.010731,-1.4297,5.3653,0.0000,0.00024470,-0.00109015,0.00000000,0.00741009,0.00205455,0.05777399,0.7734,0.0213,-9.5438,-0.019138,0.019200,-0.010715,20.0685,-7.5281,14.4065,20.1817,0.2620,131,-1,0,-0.004838,-0.004884,-0.259041,0.079832,-0.009920,0.048324,-1.7939,2.7868,1.7173
12137,12.0,-0.001965,-0.001116,-0.260730,-0.018245,-0.004913,-0.008881,-1.3450,5.4581,0.0000,-0.00014080,-0.00148034,0.00000000,0.00750865,0.00198899,0.05776719,0.8186,0.1161,-9.5644,0.038472,0.048610,0.000988,20.0685,-7.5281,14.4065,20.1817,0.2630,131,-1,1,-0.005127,-0.004892,-0.261065,0.076572,-0.011567,0.027810,-1.7922,2.8216,1.7096
12149,12.0,-0.002231,-0.000450,-0.260797,-0.019336,0.003161,-0.007375,-1.2600,5.4858,0.0000,-0.00049373,-0.00150064,0.00000000,0.00753053,0.00191596,0.05757683,0.8820,0.2122,-9.6184,0.046749,0.034418,0.002364,20.0685,-7.5281,14.4065,20.1817,0.2630,133,0,1,-0.005429,-0.004673,-0.260754,0.073985,-0.012369,0.034426,-1.7746,2.8560,1.7173
12160,11.0,-0.002387,-0.000411,-0.261354,-0.017683,0.004251,-0.013685,-1.2438,5.4955,0.0000,-0.00049313,-0.00147596,0.00000000,0.00729403,0.00185718,0.06001319,1.0498,0.3190,-9.7707,0.025558,0.019596,0.000185,20.0685,-7.5281,14.4065,20.1817,0.2630,139,0,0,-0.005605,-0.004444,-0.259909,0.071209,-0.012030,0.046121,-1.7264,2.9189,1.7264
12171,11.0,-0.002442,-0.000396,-0.261480,-0.014776,0.005494,-0.015105,-1.2391,5.4893,0.0000,-0.00047312,-0.00141116,0.00000000,0.00730213,0.00186354,0.05982553,1.0912,0.3720,-9.8536,0.011625,0.003686,-0.009697,20.0685,-7.5281,14.4065,20.1473,0.2630,130,0,0,-0.005685,-0.004480,-0.261314,0.070736,-0.011199,0.030096,-1.7173,2.9544,1.7297
12182,11.0,-0.002415,-0.001014,-0.261655,-0.011501,-0.000720,-0.016856,-1.2968,5.4726,0.0000,-0.00013091,-0.00132103,0.00000000,0.00728271,0.00188584,0.05983079,1.0686,0.3615,-9.8478,-0.012655,-0.007038,-0.013077,21.3081,-8.3487,14.6608,20.1473,0.2630,137,0,-1,-0.005701,-0.004483,-0.260958,0.071496,-0.010030,0.034315,-1.7140,2.9643,1.7318
12193,11.0,-0.002311,-0.001110,-0.262305,-0.008811,-0.000466,-0.023238,-1.3389,5.4487,0.0000,-0.00008392,-0.00120539,0.00000000,0.00705509,0.00183824,0.06217030,0.9589,0.3463,-9.7960,-0.056163,-0.012964,-0.034383,21.3081,-8.3487,14.6608,20.1473,0.2640,132,0,0,-0.005481,-0.004971,-0.260143,0.072006,-0.008968,0.042066,-1.7455,2.9876,1.6785
12204,11.0,-0.001390,-0.001237,-0.262558,0.001743,-0.001047,-0.022846,-1.3971,5.3457,0.0000,-0.00001990,-0.00068773,0.00000000,0.00702075,0.00183233,0.06216839,0.8390,0.3080,-9.6726,-0.077810,-0.047740,-0.068398,21.3081,-8.3487,14.6608,20.1473,0.2640,129,1,0,-0.005468,-0.005041,-0.261982,0.070921,-0.008178,0.021223,-1.7825,3.0020,1.6648
12215,11.0,-0.000202,-0.001418,-0.262752,0.014009,-0.004243,-0.020044,-1.4824,5.2067,0.0000,0.00006149,-0.00009175,0.00000000,0.00696900,0.00184659,0.06192517,0.8062,0.1115,-9.5101,-0.117236,-0.088240,-0.090375,21.3081,-8.3487,14.6608,20.1473,0.2640,129,1,0,-0.004807,-0.005130,-0.261405,0.069170,-0.008289,0.032843,-1.8845,2.9595,1.5893
12226,11.0,-0.000275,-0.000970,-0.262343,0.010828,-0.001223,-0.009027,-1.5077,5.1743,0.0000,-0.00019680,-0.00020513,0.00000000,0.00728387,0.00188018,0.05885249,0.8065,-0.0041,-9.3595,-0.097738,-0.076544,-0.071607,21.3081,-8.3487,14.6608,20.1473,0.2630,136,-1,1,-0.004591,-0.005183,-0.261040,0.067862,-0.010100,0.040023,-1.9572,2.9134,1.5466
12237,11.0,-0.000694,-0.000948,-0.262389,0.003846,-0.002264,-0.005302,-1.4977,5.1929,0.0000,-0.00021924,-0.00047720,0.00000000,0.00736457,0.00187955,0.05867441,0.7790,0.1115,-9.4203,0.010682,-0.030114,-0.013171,21.3081,-8.3487,14.6608,20.1473,0.2630,133,-1,0,-0.004691,-0.005035,-0.261302,0.064341,-0.014750,0.044885,-2.0428,2.8472,1.5013
12248,11.0,-0.001548,-0.000837,-0.262437,-0.006858,-0.000956,-0.003420,-1.4424,5.2793,0.0000,-0.00029017,-0.00093451,0.00000000,0.00748797,0.00186405,0.05867963,0.8248,0.2297,-9.5432,0.072146,0.038009,0.029130,21.3081,-8.3487,14.6608,20.2610,0.2630,127,-1,0,-0.004875,-0.005020,-0.260815,0.062161,-0.015952,0.052560,-2.0271,2.8478,1.5087
12259,11.0,-0.002017,-0.000140,-0.262640,-0.011564,0.008038,-0.005113,-1.3505,5.3534,0.0000,-0.00065128,-0.00113575,0.00000000,0.00745938,0.00175939,0.05950225,0.8825,0.3440,-9.6840,0.067748,0.073468,0.066326,21.3081,-8.3487,14.6608,20.2610,0.2640,129,0,1,-0.005171,-0.004990,-0.260254,0.060175,-0.016260,0.059148,-1.9874,2.8786,1.5351
12270,11.0,-0.002361,-0.000054,-0.262698,-0.013955,0.009734,-0.005537,-1.3177,5.4021,0.0000,-0.00064355,-0.00124893,0.00000000,0.00748152,0.00174482,0.05950317,0.9325,0.4003,-9.7389,0.053319,0.051911,0.038091,21.3081,-8.3487,14.6608,20.2610,0.2640,129,0,0,-0.005501,-0.004762,-0.261525,0.056988,-0.014048,0.044103,-1.9158,2.9872,1.6115
12281,11.0,-0.002459,0.000015,-0.262769,-0.011432,0.011317,-0.007811,-1.2940,5.4041,0.0000,-0.00061771,-0.00122554,0.00000000,0.00747956,0.00174894,0.05948647,1.1335,0.4255,-9.8920,0.042440,0.006901,-0.008009,21.3081,-8.3487,14.6608,20.2610,0.2640,138,0,0,-0.005623,-0.004790,-0.261063,0.056032,-0.012653,0.048230,-1.8934,3.0333,1.5893
12293,12.0,-0.002466,0.000016,-0.262264,-0.008540,0.011871,-0.003465,-1.3105,5.3949,0.0000,-0.00053858,-0.00116340,0.00000000,0.00773163,0.00182359,0.05647267,1.0805,0.4135,-9.9207,-0.009123,-0.002717,-0.033132,19.2553,-8.7606,14.3995,20.2610,0.2630,138,0,0,-0.005659,-0.004778,-0.260566,0.057106,-0.011005,0.051161,-1.8724,3.0454,1.5936
12304,11.0,-0.002421,-0.000060,-0.262272,-0.007759,0.010322,-0.003883,-1.3595,5.3847,0.0000,-0.00042620,-0.00108689,0.00000000,0.00774233,0.00183630,0.05629780,0.8602,0.3043,-9.7889,-0.054692,-0.001347,-0.037308,19.2553,-8.7606,14.3995,20.1473,0.2630,139,0,0,-0.005475,-0.005053,-0.261107,0.057318,-0.009799,0.040510,-1.9002,3.0762,1.5672
12315,11.0,-0.002275,-0.000161,-0.262312,-0.006688,0.007124,-0.003398,-1.4200,5.3582,0.0000,-0.00031559,-0.00095727,0.00000000,0.00775417,0.00185700,0.05630204,0.7751,0.1571,-9.6795,-0.073288,-0.015966,0.016329,19.2553,-8.7606,14.3995,20.1473,0.2630,129,0,0,-0.005475,-0.005105,-0.260635,0.055585,-0.009867,0.045191,-1.9361,3.0923,1.5506
12326,11.0,-0.002152,-0.000228,-0.262548,-0.005432,0.005176,-0.004764,-1.4606,5.3347,0.0000,-0.00023821,-0.00084849,0.00000000,0.00765315,0.00182936,0.05729258,0.8214,0.2127,-9.6254,-0.048629,-0.015750,0.030903,19.2553,-8.7606,14.3995,20.1473,0.2640,129,0,0,-0.005413,-0.005142,-0.260158,0.053902,-0.010915,0.050201,-1.9821,3.0900,1.5616
12337,11.0,-0.001964,-0.000289,-0.262590,-0.001226,0.003115,-0.002797,-1.4964,5.3002,0.0000,-0.00017753,-0.00072090,0.00000000,0.00762602,0.00184296,0.05729204,1.0400,0.1757,-9.5180,-0.044743,-0.029531,0.015741,19.2553,-8.7606,14.3995,20.1473,0.2640,135,0,0,-0.005329,-0.005194,-0.261537,0.051445,-0.012800,0.037379,-2.0380,3.0908,1.5988
12348,11.0,-0.001938,-0.000310,-0.262567,0.001536,0.002223,-0.000754,-1.5101,5.2959,0.0000,-0.00014910,-0.00070672,0.00000000,0.00764449,0.00185477,0.05706786,1.1243,0.2261,-9.5520,-0.015993,-0.004628,0.006255,19.2553,-8.7606,14.3995,20.1473,0.2640,133,0,0,-0.005310,-0.005233,-0.261130,0.051480,-0.013662,0.043999,-2.0594,3.0974,1.6049
12360,12.0,-0.002829,0.000315,-0.262680,-0.006851,0.008618,-0.001254,-1.4609,5.3943,0.0000,-0.00047355,-0.00120742,0.00000000,0.00765448,0.00179669,0.05757845,1.0750,0.2251,-9.6298,0.010916,0.049420,0.009409,19.2553,-8.7606,14.3995,20.1473,0.2640,132,-1,1,-0.005594,-0.005084,-0.260062,0.053030,-0.014161,0.056825,-2.0802,3.1365,1.6183
12371,11.0,-0.003287,0.000347,-0.262649,-0.010575,0.006984,0.000845,-1.4576,5.4710,0.0000,-0.00044228,-0.00141774,0.00000000,0.00770403,0.00180816,0.05740902,0.9724,0.1573,-9.5509,0.011213,0.078515,0.046508,19.2553,-8.7606,14.3995,20.1473,0.2640,131,0,0,-0.005706,-0.005082,-0.262028,0.053749,-0.014729,0.035206,-2.0764,3.1742,1.6275
12382,11.0,-0.003810,0.000360,-0.262627,-0.016852,0.005167,0.003120,-1.4611,5.5571,0.0000,-0.00041236,-0.00163194,0.00000000,0.00777412,0.00183200,0.05741619,0.7584,0.1386,-9.5173,0.000120,0.092908,0.075806,20.8997,-8.3498,14.1452,20.1473,0.2640,127,0,0,-0.006066,-0.005100,-0.261161,0.050939,-0.016903,0.047879,-2.0660,3.2991,1.6288
12392,10.0,-0.004183,0.000408,-0.262611,-0.021478,0.005194,0.004861,-1.4439,5.6083,0.0000,-0.00041030,-0.00173750,0.00000000,0.00778398,0.00182888,0.05753548,0.6936,0.2532,-9.5247,0.030179,0.064731,0.062685,20.8997,-8.3498,14.1452,20.2028,0.2640,135,0,0,-0.006249,-0.005092,-0.260616,0.047087,-0.017781,0.055022,-2.0562,3.3638,1.6676
12403,11.0,-0.004216,0.000498,-0.262557,-0.019921,0.006670,0.005002,-1.4066,5.5910,0.0000,-0.00042394,-0.00162250,0.00000000,0.00776917,0.00181378,0.05753321,0.8940,0.3551,-9.6939,0.056300,-0.006436,0.026334,20.8997,-8.3498,14.1452,20.2028,0.2640,132,0,0,-0.006361,-0.005081,-0.262062,0.043889,-0.017958,0.039805,-2.0387,3.4059,1.7075
12414,11.0,-0.003954,0.000534,-0.262487,-0.014246,0.008013,0.003480,-1.3953,5.5242,0.0000,-0.00039770,-0.00135641,0.00000000,0.00774347,0.00181961,0.05741025,1.0034,0.4166,-9.8608,0.022671,-0.055436,-0.046452,20.8997,-8.3498,14.1452,20.2028,0.2640,132,0,0,-0.006353,-0.005053,-0.261146,0.041292,-0.016195,0.049081,-1.9853,3.4138,1.7371
12425,11.0,-0.003553,0.000484,-0.262054,-0.006319,0.007786,0.006843,-1.4270,5.4420,0.0000,-0.00031593,-0.00105164,0.00000000,0.00787790,0.00187504,0.05553441,1.1219,0.3720,-9.8058,-0.034755,-0.072359,-0.076597,20.8997,-8.3498,14.1452,20.2028,0.2630,135,0,0,-0.006069,-0.005077,-0.260640,0.041567,-0.014972,0.052089,-1.9834,3.4006,1.7134
12436,11.0,-0.003149,0.000375,-0.261959,0.000578,0.005147,0.007305,-1.4881,5.3696,0.0000,-0.00020947,-0.00079129,0.00000000,0.00786016,0.00188702,0.05544225,1.0855,0.2005,-9.6730,-0.076492,-0.065173,-0.069827,20.8997,-8.3498,14.1452,20.2028,0.2630,128,0,0,-0.005927,-0.005097,-0.261452,0.042962,-0.013968,0.040787,-2.0072,3.3635,1.6772
12447,11.0,-0.002890,0.000321,-0.261862,0.004232,0.002172,0.010290,-1.5224,5.3271,0.0000,-0.00015320,-0.00065216,0.00000000,0.00784036,0.00189432,0.05544099,0.9779,0.0814,-9.4353,-0.043706,-0.041328,-0.028188,20.8997,-8.3498,14.1452,20.1130,0.2630,138,0,0,-0.005694,-0.005189,-0.260542,0.044272,-0.015763,0.051158,-2.0966,3.3182,1.6106
12458,11.0,-0.003489,0.000401,-0.262809,-0.002607,0.000780,0.000188,-1.4908,5.3688,0.0000,-0.00019062,-0.00101836,0.00000000,0.00740750,0.00172470,0.06037463,0.9412,0.0595,-9.4909,0.043212,-0.005050,0.003280,20.8997,-8.3498,14.1452,20.1130,0.2650,139,-1,0,-0.005607,-0.005201,-0.262337,0.044502,-0.017809,0.031791,-2.1224,3.3012,1.6028
12470,12.0,-0.003619,0.000571,-0.262799,-0.002883,0.001997,0.001544,-1.4078,5.3811,0.0000,-0.00028341,-0.00107722,0.00000000,0.00741112,0.00171301,0.06037294,0.9891,0.1995,-9.5851,0.104210,0.006480,0.006181,20.8997,-8.3498,14.1452,20.1130,0.2650,133,0,0,-0.005807,-0.005180,-0.261985,0.043633,-0.019914,0.038579,-2.1050,3.3031,1.6107
12481,11.0,-0.003618,0.000710,-0.262721,-0.001332,0.002501,0.002441,-1.3467,5.3713,0.0000,-0.00035189,-0.00106258,0.00000000,0.00743766,0.00171046,0.06009336,1.0405,0.1623,-9.6778,0.083379,-0.013763,-0.060779,21.7237,-7.9400,14.4019,20.1130,0.2650,132,0,0,-0.005923,-0.005079,-0.261032,0.042518,-0.021205,0.050901,-1.9880,3.3336,1.6012
12492,11.0,-0.003469,0.000758,-0.261642,0.001017,0.001948,0.015316,-1.3280,5.3406,0.0000,-0.00036537,-0.00096864,0.00000000,0.00791330,0.00184583,0.05536672,0.9676,0.1537,-9.6377,0.026401,-0.031644,-0.066696,21.7237,-7.9400,14.4019,20.1130,0.2620,132,0,0,-0.005972,-0.005048,-0.260499,0.042268,-0.021702,0.055678,-1.9375,3.3474,1.5671
12503,11.0,-0.003419,0.000782,-0.261419,0.001035,0.000886,0.017679,-1.3206,5.3322,0.0000,-0.00037010,-0.00094531,0.00000000,0.00793142,0.00185021,0.05515905,0.8657,0.1193,-9.5503,0.010382,-0.009912,-0.041498,21.7237,-7.9400,14.4019,20.1130,0.2620,134,0,0,-0.005909,-0.005233,-0.260291,0.041543,-0.023549,0.056048,-1.9145,3.3375,1.5015
12514,11.0,-0.002797,0.000863,-0.261216,0.007594,0.000885,0.019237,-1.2843,5.2838,0.0000,-0.00041375,-0.00059481,0.00000000,0.00787243,0.00185233,0.05515323,0.8761,0.1455,-9.5736,0.048759,-0.012031,-0.009732,21.7237,-7.9400,14.4019,20.1130,0.2620,135,1,0,-0.005888,-0.005223,-0.259639,0.040536,-0.024647,0.062749,-1.9110,3.3370,1.4863
12525,11.0,-0.002867,0.000979,-0.262505,0.005260,0.002486,0.002288,-1.2297,5.2977,0.0000,-0.00047791,-0.00068487,0.00000000,0.00717481,0.00170330,0.06184160,0.8490,0.2577,-9.6698,0.074134,0.003866,0.027790,21.7237,-7.9400,14.4019,20.1130,0.2650,135,0,0,-0.005697,-0.005198,-0.258982,0.039581,-0.025408,0.068755,-1.8867,3.3447,1.4720
12536,11.0,-0.003010,0.000418,-0.262484,0.003391,-0.002529,0.001509,-1.2542,5.3262,0.0000,-0.00013356,-0.00080290,0.00000000,0.00718662,0.00173628,0.06184718,0.9569,0.3697,-9.7677,0.025753,0.022705,0.054541,21.7237,-7.9400,14.4019,20.2266,0.2650,134,0,-1,-0.005769,-0.005154,-0.261625,0.036885,-0.024424,0.038299,-1.8106,3.3733,1.5168
12547,11.0,-0.003075,0.000350,-0.262453,0.003292,-0.002281,0.001407,-1.2816,5.3450,0.0000,-0.00010809,-0.00086588,0.00000000,0.00720183,0.00174078,0.06177517,1.0223,0.2836,-9.7190,-0.038910,0.017251,0.042559,21.7237,-7.9400,14.4019,20.2266,0.2650,129,0,0,-0.005812,-0.005358,-0.261223,0.036431,-0.023573,0.041954,-1.7966,3.3930,1.5540
12558,11.0,-0.003093,0.000273,-0.261538,0.003888,-0.003148,0.011861,-1.3155,5.3557,0.0000,-0.00007727,-0.00090035,0.00000000,0.00760472,0.00182356,0.05781741,1.0375,0.1923,-9.6927,-0.047895,0.009994,0.008013,21.7237,-7.9400,14.4019,20.2266,0.2620,130,0,0,-0.005885,-0.005441,-0.260947,0.036582,-0.022472,0.042823,-1.8443,3.4392,1.6072
12569,11.0,-0.003198,0.000230,-0.261390,0.002669,-0.003661,0.013030,-1.3325,5.3812,0.0000,-0.00007370,-0.00098778,0.00000000,0.00762043,0.00182510,0.05776365,0.9574,0.1835,-9.6109,-0.026415,0.023415,-0.014857,21.7237,-7.9400,14.4019,20.2266,0.2620,135,0,0,-0.005938,-0.005481,-0.260496,0.036284,-0.022905,0.047461,-1.8662,3.4666,1.6035
12580,11.0,-0.003946,0.000203,-0.261242,-0.006038,-0.004438,0.014000,-1.3418,5.4545,0.0000,-0.00008557,-0.00144104,0.00000000,0.00767511,0.00183382,0.05776636,0.9234,0.1369,-9.6200,-0.017042,0.031657,-0.005032,19.2481,-8.3487,15.1742,20.2266,0.2620,139,-1,0,-0.005970,-0.005497,-0.259980,0.035977,-0.023457,0.052807,-1.8853,3.4848,1.6011
12591,11.0,-0.004042,0.000183,-0.260884,-0.006816,-0.004996,0.017546,-1.3474,5.4687,0.0000,-0.00010449,-0.00145642,0.00000000,0.00776611,0.00184847,0.05690873,0.8867,0.1433,-9.5979,-0.012412,0.018393,-0.004768,19.2481,-8.3487,15.1742,20.2266,0.2620,134,0,0,-0.006302,-0.005537,-0.258797,0.033400,-0.025023,0.063387,-1.9052,3.5387,1.5002
12602,11.0,-0.004036,0.000177,-0.260686,-0.007180,-0.004857,0.018390,-1.3444,5.4626,0.0000,-0.00013500,-0.00140327,0.00000000,0.00777647,0.00185025,0.05690970,0.8119,0.1896,-9.6421,-0.000970,-0.001393,-0.006899,19.2481,-8.3487,15.1742,20.2266,0.2650,134,0,0,-0.006358,-0.005548,-0.262148,0.032069,-0.025642,0.026514,-1.9086,3.5626,1.4948
12613,11.0,-0.004011,0.000189,-0.260465,-0.006704,-0.003575,0.019126,-1.3318,5.4515,0.0000,-0.00017145,-0.00133997,0.00000000,0.00777556,0.00184703,0.05684109,0.8702,0.2825,-9.6609,0.012997,-0.007313,-0.014638,19.2481,-8.3487,15.1742,20.2266,0.2650,134,0,0,-0.006348,-0.005549,-0.261858,0.030441,-0.026185,0.031500,-1.9127,3.5678,1.4973
12624,11.0,-0.003973,0.000177,-0.260522,-0.005877,-0.002543,0.016191,-1.3321,5.4398,0.0000,-0.00018473,-0.00127240,0.00000000,0.00765637,0.00181651,0.05799394,0.8959,0.2992,-9.6916,-0.003042,-0.007724,-0.029359,19.2481,-8.3487,15.1742,20.2266,0.2620,139,0,0,-0.006323,-0.005767,-0.261118,0.027651,-0.025567,0.040546,-1.9066,3.5771,1.4895
12635,11.0,-0.003975,0.000132,-0.260331,-0.004728,-0.003932,0.016538,-1.3518,5.4384,0.0000,-0.00017888,-0.00123681,0.00000000,0.00765767,0.00181814,0.05794214,0.9783,0.1123,-9.6851,-0.030253,0.003049,-0.034670,19.2481,-8.3487,15.1742,20.2266,0.2620,131,0,0,-0.006329,-0.005791,-0.261076,0.026468,-0.024988,0.040673,-1.9124,3.5882,1.4736
12646,11.0,-0.004110,0.000126,-0.260145,-0.006023,-0.004212,0.017408,-1.3504,5.4599,0.0000,-0.00020406,-0.00128433,0.00000000,0.00766725,0.00182336,0.05794283,0.8952,0.1621,-9.6314,-0.002601,0.024257,0.022973,19.2481,-8.3487,15.1742,20.2266,0.2620,139,0,0,-0.006366,-0.005822,-0.260173,0.025510,-0.026824,0.049900,-1.9452,3.6153,1.4453
12657,11.0,-0.004908,0.000192,-0.261997,-0.013892,-0.003633,-0.006407,-1.3149,5.5285,0.0000,-0.00027644,-0.00171969,0.00000000,0.00687948,0.00164992,0.06662707,0.9773,0.1654,-9.7063,0.042760,0.028456,0.028519,19.2481,-8.3487,15.1742,20.2266,0.2650,138,-1,0,-0.006411,-0.005821,-0.259630,0.024553,-0.027558,0.054984,-1.9452,3.6358,1.4649
12669,12.0,-0.005081,0.000231,-0.262079,-0.012389,-0.002498,-0.007309,-1.2884,5.5448,0.0000,-0.00032486,-0.00173040,0.00000000,0.00686859,0.00164475,0.06662551,1.0998,0.2447,-9.7559,0.030243,0.020142,0.013565,19.2481,-8.3487,15.1742,20.2266,0.2650,138,0,0,-0.006719,-0.005816,-0.262195,0.023301,-0.027948,0.025088,-1.9188,3.6693,1.4788
12680,11.0,-0.005045,0.000187,-0.262152,-0.009368,-0.001849,-0.008615,-1.3043,5.5306,0.0000,-0.00031214,-0.00163170,0.00000000,0.00687135,0.00164647,0.06655501,1.0725,0.3049,-9.8187,-0.023352,-0.006402,-0.025712,20.4986,-7.5334,15.1653,20.2266,0.2650,132,0,0,-0.006845,-0.005831,-0.261609,0.024262,-0.027305,0.032094,-1.8994,3.7168,1.4860
12691,11.0,-0.004987,0.000127,-0.261952,-0.006870,-0.001859,-0.006084,-1.3294,5.5159,0.0000,-0.00028632,-0.00153778,0.00000000,0.00698360,0.00166684,0.06530236,1.0259,0.2680,-9.7730,-0.035282,-0.007987,-0.041892,20.4986,-7.5334,15.1653,20.2266,0.2630,137,0,0,-0.006828,-0.005849,-0.261274,0.024907,-0.026714,0.034905,-1.9172,3.7181,1.4755
12702,11.0,-0.004929,0.000055,-0.262006,-0.005163,-0.002370,-0.005765,-1.3606,5.5043,0.0000,-0.00025535,-0.00145874,0.00000000,0.00698714,0.00166834,0.06524961,0.9681,0.2346,-9.6791,-0.044094,-0.005655,-0.010725,20.4986,-7.5334,15.1653,20.2266,0.2630,134,0,0,-0.006809,-0.005914,-0.261415,0.024708,-0.026350,0.032897,-1.9639,3.7317,1.4464
12713,11.0,-0.004841,0.000018,-0.262065,-0.003983,-0.002797,-0.005038,-1.3753,5.4867,0.0000,-0.00025000,-0.00137017,0.00000000,0.00698909,0.00167200,0.06524964,0.8982,0.2028,-9.6359,-0.022757,-0.013312,-0.025079,20.4986,-7.5334,15.1653,20.2266,0.2630,129,0,0,-0.006811,-0.005952,-0.261048,0.023846,-0.026359,0.037408,-1.9885,3.7440,1.4406
12724,11.0,-0.004625,-0.000005,-0.262982,-0.000976,-0.002889,-0.013827,-1.3825,5.4464,0.0000,-0.00025620,-0.00121607,0.00000000,0.00661719,0.00159334,0.06883364,0.9422,0.2156,-9.5810,-0.012852,-0.037802,-0.031767,20.4986,-7.5334,15.1653,20.2266,0.2650,134,0,0,-0.006774,-0.005965,-0.260651,0.022976,-0.026779,0.042088,-2.0070,3.7416,1.4328
12735,11.0,-0.003899,-0.000004,-0.263131,0.007989,-0.002873,-0.013371,-1.3789,5.3825,0.0000,-0.00027702,-0.00077784,0.00000000,0.00658896,0.00159531,0.06882963,0.9999,0.2021,-9.6475,0.001640,-0.023743,-0.040132,20.4986,-7.5334,15.1653,20.2266,0.2650,138,1,0,-0.006666,-0.005982,-0.262387,0.022337,-0.027228,0.025599,-2.0207,3.7219,1.3998
12746,11.0,-0.003952,-0.000034,-0.263262,0.007011,-0.002763,-0.013112,-1.3893,5.4011,0.0000,-0.00027732,-0.00086438,0.00000000,0.00659987,0.00159695,0.06876144,0.9847,0.2458,-9.6835,-0.016810,0.013130,-0.023698,20.4986,-7.5334,15.1653,20.2266,0.2650,135,0,0,-0.006458,-0.005992,-0.262109,0.022598,-0.027460,0.029991,-2.0227,3.7281,1.3757
12757,11.0,-0.003543,-0.000035,-0.262500,0.010815,-0.002870,-0.002241,-1.3867,5.4007,0.0000,-0.00029629,-0.00066405,0.00000000,0.00697461,0.00168714,0.06506559,0.9336,0.1947,-9.6617,0.000389,0.034901,-0.026668,20.4986,-7.5334,15.1653,20.2266,0.2630,137,1,0,-0.006473,-0.006004,-0.261768,0.022494,-0.027512,0.034328,-2.0360,3.7391,1.3661
12768,11.0,-0.003706,-0.000010,-0.262503,0.007231,-0.002810,-0.000422,-1.3722,5.4389,0.0000,-0.00033210,-0.00083168,0.00000000,0.00699096,0.00168614,0.06501462,0.8761,0.1787,-9.5523,0.016343,0.029812,-0.069259,20.4986,-7.5334,15.1653,20.2266,0.2630,136,0,0,-0.006422,-0.006007,-0.261562,0.020741,-0.028403,0.038126,-2.0363,3.7977,1.3283
12779,11.0,-0.003629,0.000008,-0.262499,0.006092,-0.002429,0.001086,-1.3605,5.4306,0.0000,-0.00036179,-0.00082844,0.00000000,0.00700584,0.00168591,0.06501575,0.8170,0.2165,-9.5721,0.012826,-0.013259,-0.062991,21.7274,-7.1215,14.3995,20.2266,0.2630,137,0,0,-0.006494,-0.006002,-0.261138,0.019108,-0.028669,0.043735,-2.0273,3.8233,1.2873
12791,12.0,-0.002893,-0.000026,-0.263163,0.014561,-0.003243,-0.005479,-1.3738,5.3738,0.0000,-0.00036238,-0.00043532,0.00000000,0.00668496,0.00162135,0.06776953,1.0151,0.1626,-9.5782,-0.019944,-0.019294,-0.063573,21.7274,-7.1215,14.3995,20.2266,0.2650,137,1,0,-0.006487,-0.005989,-0.260674,0.017408,-0.028687,0.049025,-2.0193,3.8271,1.3062
12802,11.0,-0.002890,-0.000021,-0.263218,0.013582,-0.003500,-0.004367,-1.3681,5.3858,0.0000,-0.00039005,-0.00053264,0.00000000,0.00668762,0.00162528,0.06776949,0.9917,0.1634,-9.5902,0.003644,0.001137,-0.033056,21.7274,-7.1215,14.3995,20.2266,0.2650,133,0,0,-0.006239,-0.006003,-0.262281,0.017557,-0.029838,0.032848,-2.0402,3.8256,1.2419
12813,11.0,-0.002912,0.000000,-0.263230,0.012507,-0.003427,-0.003061,-1.3549,5.4004,0.0000,-0.00042762,-0.00063811,0.00000000,0.00671105,0.00162418,0.06764587,1.0010,0.1750,-9.6041,0.013855,0.003892,-0.024127,21.7274,-7.1215,14.3995,20.1896,0.2650,133,0,0,-0.006264,-0.006011,-0.261927,0.017086,-0.030363,0.037874,-2.0403,3.8389,1.2177
