timestamp_ms,dt_ms,pos_x,pos_y,pos_z,vel_x,vel_y,vel_z,roll_deg,pitch_deg,yaw_deg,gyro_bias_x,gyro_bias_y,gyro_bias_z,accel_bias_x,accel_bias_y,accel_bias_z,raw_accel_x,raw_accel_y,raw_accel_z,raw_gyro_x,raw_gyro_y,raw_gyro_z,raw_mag_x,raw_mag_y,raw_mag_z,raw_baro_alt,raw_tof,raw_flow_squal,raw_flow_dx,raw_flow_dy,dev_pos_x,dev_pos_y,dev_pos_z,dev_vel_x,dev_vel_y,dev_vel_z,dev_roll_deg,dev_pitch_deg,dev_yaw_deg
14214,10.0,0.000011,-0.000007,-0.028000,-0.000006,-0.000085,-0.000532,-0.0007,0.0002,-0.0003,0.00000000,0.00000000,0.00423561,-0.00000087,0.00000056,0.00000000,-0.2173,0.1314,-9.8562,-0.001852,-0.000539,0.003704,-22.8794,39.7201,1.7585,-33.9004,0.0280,73,0,0,-0.000001,0.000000,-0.000000,-0.000722,0.000437,-0.000110,-0.2519,-0.4162,0.0008
14216,2.0,0.000019,-0.000013,-0.028001,-0.000240,0.000059,-0.000579,-0.2083,-0.3568,0.0002,0.00000045,0.00000078,0.00423561,-0.00018029,0.00009925,0.00000000,-0.2133,0.1231,-9.8443,-0.001371,-0.001510,0.002741,-22.8794,39.7201,1.7585,-33.9004,0.0280,64,0,0,-0.000003,0.000002,-0.000001,-0.001260,0.000740,-0.000196,-0.3718,-0.6293,0.0018
14219,3.0,0.000017,-0.000012,-0.028003,-0.000283,0.000129,-0.000668,-0.1374,-0.1970,0.0001,0.00000031,0.00000046,0.00423561,-0.00061292,0.00028990,0.00000273,-0.2175,0.1216,-9.8345,0.000767,-0.003839,0.002367,-22.8794,39.7201,1.7585,-33.9004,0.0280,64,0,0,-0.000007,0.000004,-0.000001,-0.001700,0.000972,-0.000259,-0.4397,-0.7583,0.0024
14221,2.0,0.000020,-0.000013,-0.028000,-0.000396,0.000147,-0.000372,-0.1687,-0.2835,-0.0003,0.00000056,0.00000100,0.00423561,-0.00125934,0.00067686,0.00000621,-0.2261,0.1240,-9.8469,-0.001652,-0.003444,0.001571,-22.8794,39.7201,1.7585,-33.9004,0.0280,64,0,0,0.000009,-0.000005,-0.000002,0.000004,0.000010,-0.000356,-0.4849,-0.8478,0.0028
14224,3.0,0.000016,-0.000011,-0.028002,-0.000403,0.000091,-0.000515,-0.0577,-0.1147,-0.0021,0.00000020,0.00000045,0.00423562,-0.00186013,0.00107223,0.00001024,-0.2257,0.1253,-9.8528,-0.003244,-0.003941,0.000611,-22.8794,39.7201,1.7585,-33.9004,0.0280,64,0,0,0.000009,-0.000005,-0.000003,-0.000224,0.000130,-0.000468,-0.5189,-0.9125,0.0028
14226,2.0,0.000016,-0.000012,-0.028003,-0.000452,0.000176,-0.000587,-0.0883,-0.1413,-0.0017,0.00000059,0.00000101,0.00423561,-0.00276104,0.00153018,0.00001440,-0.2223,0.1281,-9.8466,0.000039,-0.004784,0.002188,-22.8794,39.7201,1.7585,-33.9004,0.0280,58,0,0,0.000009,-0.000005,-0.000004,-0.000428,0.000251,-0.000565,-0.5466,-0.9597,0.0030
14229,3.0,0.000013,-0.000010,-0.028001,-0.000461,0.000255,-0.000466,-0.0266,0.0013,-0.0006,0.00000024,0.00000020,0.00423561,-0.00339344,0.00180102,0.00001594,-0.2225,0.1255,-9.8558,0.001966,-0.003812,0.004753,-22.8794,39.7201,1.7585,-33.9004,0.0280,58,0,0,0.000008,-0.000004,-0.000006,-0.000619,0.000356,-0.000686,-0.5665,-0.9969,0.0034
14232,3.0,0.000012,-0.000009,-0.028003,-0.000544,0.000299,-0.000632,-0.0216,0.0094,-0.0001,0.00000055,0.00000078,0.00423561,-0.00462393,0.00246458,0.00001833,-0.2100,0.1177,-9.8651,0.000765,-0.004084,0.005100,-22.8794,39.7201,1.7585,-33.9004,0.0280,58,0,0,0.000011,-0.000005,-0.000008,-0.000164,0.000183,-0.000833,-0.5472,-0.9446,0.0043
14235,3.0,0.000008,-0.000007,-0.028005,-0.000534,0.000286,-0.000795,0.0522,0.1285,-0.0000,-0.00000020,-0.00000044,0.00423561,-0.00527093,0.00286383,0.00001697,-0.2145,0.1344,-9.8609,-0.000353,-0.004190,0.003935,-22.8794,39.7201,1.7585,-33.9004,0.0280,58,0,0,0.000011,-0.000005,-0.027994,-0.000314,0.000299,-0.001124,-0.5651,-0.9681,0.0044
14237,2.0,0.000008,-0.000007,-0.028002,-0.000565,0.000251,-0.000644,0.0521,0.1129,-0.0002,0.00000017,0.00000041,0.00423561,-0.00644934,0.00357228,0.00001619,-0.2171,0.1237,-9.8554,-0.002088,-0.003580,0.004782,-22.8794,39.7201,1.7585,-33.9004,0.0280,69,0,0,0.000010,-0.000004,-0.027997,-0.000467,0.000380,-0.001244,-0.5765,-0.9898,0.0047
14239,2.0,0.000006,-0.000006,-0.028004,-0.000557,0.000195,-0.000748,0.0974,0.1866,-0.0008,-0.00000054,-0.00000073,0.00423561,-0.00691945,0.00386205,0.00001305,-0.2217,0.1136,-9.8596,-0.002763,-0.003344,0.001860,-22.8794,39.7201,1.7585,-33.9004,0.0280,69,0,0,0.000009,-0.000003,-0.028001,-0.000630,0.000426,-0.001374,-0.5824,-1.0104,0.0047
14241,2.0,0.000006,-0.000007,-0.028005,-0.000608,0.000251,-0.000859,0.0827,0.1675,-0.0009,0.00000008,0.00000023,0.00423561,-0.00813018,0.00452643,0.00001069,-0.2137,0.1237,-9.8673,-0.001075,-0.001951,0.002024,-22.8794,39.7201,1.7585,-33.9004,0.0280,69,0,0,0.000011,-0.000004,-0.028004,-0.000197,0.000166,-0.001528,-0.5535,-0.9623,0.0036
14244,3.0,0.000003,-0.000005,-0.028003,-0.000642,0.000357,-0.000803,0.1256,0.2509,0.0005,-0.00000089,-0.00000167,0.00423560,-0.00874408,0.00483995,0.00000374,-0.2061,0.1356,-9.8568,0.000882,-0.001409,0.004689,-22.8794,39.7201,1.7585,-33.9004,0.0280,69,0,0,0.000010,-0.000004,-0.028008,-0.000307,0.000278,-0.001652,-0.5650,-0.9741,0.0035
14246,2.0,0.000003,-0.000005,-0.028005,-0.000642,0.000358,-0.000873,0.1198,0.2412,0.0007,-0.00000036,-0.00000081,0.00423560,-0.01003289,0.00562877,-0.00000149,-0.2134,0.1350,-9.8468,-0.000307,-0.003149,0.005075,-22.8794,39.7201,1.7585,-33.9004,0.0280,67,0,0,0.000009,-0.000003,-0.028013,-0.000437,0.000386,-0.001750,-0.5750,-0.9865,0.0035
14249,3.0,-0.000000,-0.000003,-0.028008,-0.000668,0.000383,-0.000994,0.1682,0.3171,0.0019,-0.00000188,-0.00000322,0.00423560,-0.01067179,0.00603155,-0.00001013,-0.2080,0.1388,-9.8485,-0.000119,-0.005127,0.005225,-22.8794,39.7201,1.7585,-33.9004,0.0280,67,0,0,0.000008,-0.000002,-0.028017,-0.000548,0.000504,-0.001853,-0.5852,-0.9969,0.0035
14251,2.0,-0.000000,-0.000003,-0.028005,-0.000646,0.000375,-0.000890,0.1589,0.3032,0.0022,-0.00000114,-0.00000210,0.00423559,-0.01204875,0.00690806,-0.00001937,-0.1987,0.1325,-9.8537,-0.000046,-0.004595,0.005284,-22.8794,39.7201,1.7585,-33.9004,0.0280,67,0,0,0.000010,-0.000003,-0.028022,-0.000152,0.000208,-0.001972,-0.5596,-0.9634,0.0017
14254,3.0,-0.000003,-0.000002,-0.028008,-0.000694,0.000398,-0.001011,0.2049,0.3691,0.0034,-0.00000307,-0.00000489,0.00423559,-0.01267518,0.00734266,-0.00002994,-0.2061,0.1469,-9.8492,-0.001319,-0.003738,0.003356,-22.8794,39.7201,1.7585,-33.9004,0.0280,67,0,0,0.000010,-0.000003,-0.028027,-0.000256,0.000343,-0.002077,-0.5697,-0.9717,0.0011
14256,2.0,-0.000003,-0.000002,-0.028010,-0.000682,0.000397,-0.001096,0.1969,0.3575,0.0040,-0.00000232,-0.00000378,0.00423558,-0.01407018,0.00824808,-0.00003985,-0.2050,0.1392,-9.8551,-0.000513,-0.002755,0.004557,-22.8794,39.7201,1.7585,-33.9004,0.0280,62,0,0,0.000009,-0.000002,-0.028032,-0.000356,0.000454,-0.002197,-0.5779,-0.9793,0.0008
14259,3.0,-0.000006,0.000000,-0.028007,-0.000715,0.000470,-0.001024,0.2316,0.4175,0.0059,-0.00000418,-0.00000705,0.00423557,-0.01470079,0.00860690,-0.00005501,-0.1991,0.1327,-9.8511,0.001751,-0.002372,0.005024,-22.8794,39.7201,1.7585,-33.9004,0.0280,62,0,0,0.000008,-0.000001,-0.028038,-0.000439,0.000547,-0.002306,-0.5843,-0.9857,0.0007
14261,2.0,-0.000006,0.000000,-0.028009,-0.000694,0.000491,-0.001093,0.2213,0.4034,0.0074,-0.00000321,-0.00000566,0.00423556,-0.01620772,0.00945721,-0.00006689,-0.2084,0.1239,-9.8478,0.003282,-0.003524,0.007156,-22.8794,39.7201,1.7585,-33.9004,0.0280,62,0,0,0.000010,-0.000001,-0.028044,-0.000129,0.000328,-0.002409,-0.5689,-0.9650,0.0009
14264,3.0,-0.000008,0.000002,-0.028013,-0.000765,0.000461,-0.001241,0.2584,0.4604,0.0078,-0.00000574,-0.00000960,0.00423557,-0.01687441,0.00988532,-0.00008111,-0.2221,0.1231,-9.8585,-0.000024,-0.004622,0.007335,-22.8794,39.7201,1.7585,-33.9004,0.0280,62,0,0,0.000009,-0.000000,-0.028050,-0.000271,0.000390,-0.002537,-0.5726,-0.9739,0.0017
14268,4.0,-0.000011,0.000004,-0.028010,-0.000891,0.000438,-0.001228,0.2742,0.4759,0.0078,-0.00000665,-0.00001024,0.00423558,-0.01876417,0.01108777,-0.00011141,-0.2129,0.1280,-9.8614,-0.003261,-0.003749,0.007405,-22.8794,39.7201,1.7585,-33.9321,0.0280,57,0,0,0.000009,0.000001,-0.027996,-0.000387,0.000465,-0.000854,-0.5774,-0.9812,0.0022
14269,1.0,-0.000012,0.000004,-0.028011,-0.000685,0.000271,-0.001272,0.2965,0.5088,0.0077,-0.00000850,-0.00001297,0.00423559,-0.01918103,0.01137103,-0.00012151,-0.2077,0.1212,-9.8514,-0.003869,-0.002759,0.006132,-22.8794,39.7201,1.7585,-33.9321,0.0280,57,0,0,0.000007,0.000002,-0.027998,-0.000488,0.000521,-0.000965,-0.5813,-0.9875,0.0025
14271,2.0,-0.000012,0.000004,-0.028014,-0.000752,0.000277,-0.001350,0.2893,0.4925,0.0078,-0.00000766,-0.00001113,0.00423559,-0.02068390,0.01224133,-0.00013679,-0.2249,0.1248,-9.8532,-0.003456,-0.004324,0.005636,-22.8794,39.7201,1.7585,-33.9321,0.0280,57,0,0,0.000009,0.000000,-0.028001,-0.000179,0.000111,-0.001081,-0.5587,-0.9702,-0.0004
14274,3.0,-0.000015,0.000005,-0.028011,-0.000848,0.000367,-0.001258,0.3151,0.5413,0.0078,-0.00001031,-0.00001614,0.00423559,-0.02135950,0.01259872,-0.00016126,-0.2281,0.1299,-9.8353,-0.001344,-0.002983,0.003493,-22.8794,39.7201,1.7585,-33.9321,0.0280,57,0,0,0.000078,-0.000124,-0.028002,-0.004931,0.008386,-0.000966,-7.9053,-5.0949,0.0491
14276,2.0,-0.000015,0.000005,-0.028013,-0.000816,0.000378,-0.001329,0.3080,0.5324,0.0077,-0.00000938,-0.00001493,0.00423558,-0.02294409,0.01352431,-0.00017985,-0.2237,0.1360,-9.8494,-0.001173,-0.003111,0.003960,-22.8794,39.7201,1.7585,-33.9321,0.0280,59,0,0,0.000021,-0.000023,-0.028006,0.001849,-0.003898,-0.000519,-1.9520,-1.7642,-0.0596
14279,3.0,-0.000018,0.000006,-0.028018,-0.000879,0.000407,-0.001433,0.3350,0.5796,0.0077,-0.00001268,-0.00002069,0.00423559,-0.02364652,0.01392685,-0.00019858,-0.2254,0.1267,-9.8447,-0.001757,-0.002511,0.005442,-22.8794,39.7201,1.7585,-33.9321,0.0280,59,0,0,0.000023,-0.000028,-0.028007,0.002626,-0.005466,-0.000578,-1.4329,-1.4773,-0.0526
14282,3.0,-0.000019,0.000007,-0.028014,-0.000929,0.000416,-0.001328,0.3362,0.5801,0.0076,-0.00001276,-0.00002059,0.00423559,-0.02551491,0.01496357,-0.00023766,-0.2263,0.1216,-9.8358,-0.001984,-0.002927,0.004718,-22.8794,39.7201,1.7585,-33.9321,0.0280,59,0,0,0.000028,-0.000034,-0.028009,0.000338,-0.000889,-0.000724,-2.7398,-2.1982,-0.0648
14284,2.0,-0.000021,0.000007,-0.028017,-0.000837,0.000342,-0.001379,0.3582,0.6169,0.0071,-0.00001592,-0.00002589,0.00423560,-0.02610720,0.01531669,-0.00025472,-0.2268,0.1271,-9.8350,-0.002722,-0.005040,0.005086,-22.8794,39.7201,1.7585,-33.9321,0.0280,59,0,0,0.000027,-0.000033,-0.028011,0.000904,-0.002081,-0.000753,-2.5118,-2.0748,-0.0637
14286,2.0,-0.000021,0.000007,-0.028019,-0.000847,0.000308,-0.001449,0.3534,0.6053,0.0062,-0.00001527,-0.00002418,0.00423562,-0.02774414,0.01627546,-0.00027682,-0.2324,0.1302,-9.8503,-0.004310,-0.003911,0.001979,-22.8794,39.7201,1.7585,-33.9321,0.0280,56,0,0,0.000029,-0.000037,-0.028013,0.001397,-0.003160,-0.000829,-2.3417,-1.9837,-0.0630
14289,3.0,-0.000023,0.000008,-0.028016,-0.000929,0.000341,-0.001413,0.3773,0.6473,0.0051,-0.00001931,-0.00003121,0.00423563,-0.02846367,0.01668913,-0.00031562,-0.2345,0.1298,-9.8516,-0.003627,-0.004122,0.001420,-22.8794,39.7201,1.7585,-33.9321,0.0280,56,0,0,0.000032,-0.000045,-0.028015,0.001842,-0.004163,-0.000912,-2.2046,-1.9112,-0.0624
14291,2.0,-0.000024,0.000008,-0.028019,-0.000878,0.000362,-0.001455,0.3701,0.6382,0.0053,-0.00001814,-0.00002986,0.00423562,-0.03018363,0.01761041,-0.00033982,-0.2346,0.1296,-9.8364,-0.000761,-0.004855,0.004454,-22.8794,39.7201,1.7585,-33.9321,0.0280,56,0,0,0.000030,-0.000037,-0.028017,0.000504,-0.001175,-0.001028,-2.6681,-2.1581,-0.0651
14294,3.0,-0.000026,0.000009,-0.028023,-0.000937,0.000389,-0.001592,0.3915,0.6786,0.0043,-0.00002223,-0.00003763,0.00423563,-0.03092054,0.01799767,-0.00036242,-0.2325,0.1168,-9.8564,-0.001596,-0.004490,0.003683,-22.8794,39.7201,1.7585,-33.9321,0.0280,56,0,0,0.000030,-0.000039,-0.028020,0.000962,-0.002222,-0.001114,-2.5519,-2.0980,-0.0646
14296,2.0,-0.000027,0.000009,-0.028018,-0.000895,0.000368,-0.001554,0.3845,0.6657,0.0040,-0.00002105,-0.00003541,0.00423563,-0.03273544,0.01894839,-0.00041121,-0.2293,0.1160,-9.8729,-0.001922,-0.001746,0.004034,-22.8794,39.7201,1.7585,-33.9321,0.0280,57,0,0,0.000032,-0.000045,-0.028023,0.001414,-0.003244,-0.001243,-2.4463,-2.0431,-0.0641
14300,4.0,-0.000031,0.000010,-0.028025,-0.001021,0.000412,-0.001839,0.4119,0.7132,0.0020,-0.00002718,-0.00004590,0.00423566,-0.03365158,0.01948277,-0.00044127,-0.2264,0.1250,-9.8821,-0.003348,-0.003931,0.001569,-22.8794,39.7201,1.7585,-33.9321,0.0290,57,0,0,0.000036,-0.000053,-0.028797,0.001855,-0.004205,-0.015629,-2.3558,-1.9960,-0.0640
14302,2.0,-0.000031,0.000010,-0.028029,-0.000919,0.000359,-0.001941,0.4064,0.7048,0.0010,-0.00002624,-0.00004447,0.00423566,-0.03546718,0.02055645,-0.00047068,-0.2279,0.1375,-9.8672,-0.003253,-0.003480,0.001261,-22.8794,39.7201,1.7585,-33.9321,0.0290,57,0,0,0.000032,-0.000042,-0.028837,0.000573,-0.001387,-0.015812,-2.6518,-2.1519,-0.0659
14304,2.0,-0.000032,0.000011,-0.028300,-0.000879,0.000411,-0.006516,0.4208,0.7335,0.0015,-0.00002968,-0.00005145,0.00423565,-0.03603189,0.02083410,0.00045165,-0.2394,0.1465,-9.8621,0.000035,-0.003304,0.003091,-22.8794,39.7201,1.7585,-33.9321,0.0290,57,0,0,0.000033,-0.000046,-0.028876,0.000974,-0.002278,-0.015923,-2.5885,-2.1196,-0.0658
14306,2.0,-0.000033,-0.000016,-0.028314,-0.000871,-0.013452,-0.006636,0.9626,0.7208,-0.1130,-0.00017021,-0.00004850,0.00423956,-0.03786068,0.03361074,0.00024642,-0.2257,0.1284,-9.8413,0.000014,-0.003886,0.004454,-22.8794,39.7201,1.7585,-33.9321,0.0290,60,0,-1,0.000035,-0.000052,-0.028916,0.001409,-0.003216,-0.015977,-2.5169,-2.0828,-0.0654
14309,3.0,-0.000035,-0.000063,-0.028335,-0.000979,-0.016985,-0.006770,1.1290,0.7541,-0.1434,-0.00021598,-0.00005745,0.00424067,-0.03856567,0.03717265,0.00012208,-0.2286,0.1193,-9.8507,-0.000645,-0.000861,0.004984,-22.8794,39.7201,1.7585,-33.9321,0.0290,60,0,-1,0.000039,-0.000060,-0.028956,0.001829,-0.004162,-0.016055,-2.4484,-2.0479,-0.0650
14312,3.0,-0.000037,-0.000119,-0.028524,-0.001052,-0.018936,-0.009541,1.1959,0.7468,-0.1681,-0.00023666,-0.00005607,0.00424142,-0.04068871,0.04074167,0.00074102,-0.2271,0.1248,-9.8581,-0.004152,-0.000985,0.003239,-22.8794,39.7201,1.7585,-33.9321,0.0290,60,0,-1,0.000032,-0.000079,-0.028996,0.000645,-0.006160,-0.016150,-2.3458,-2.0625,-0.0654
14314,2.0,-0.000038,-0.000170,-0.028543,-0.000967,-0.024762,-0.009650,1.4305,0.7734,-0.2089,-0.00030873,-0.00006392,0.00424310,-0.04128106,0.04607278,0.00048191,-0.2136,0.1278,-9.8538,-0.004216,-0.002334,0.000610,-22.8773,40.7835,1.3456,-33.9321,0.0290,60,0,-1,0.000034,-0.000095,-0.029037,0.001054,-0.006940,-0.016239,-2.2923,-2.0334,-0.0655
14316,2.0,-0.000038,-0.000199,-0.028562,-0.000917,-0.013848,-0.009667,1.0221,0.7499,-0.1513,-0.00017885,-0.00005850,0.00424026,-0.04333946,0.03887650,0.00091163,-0.2176,0.1169,-9.8545,-0.002290,-0.003509,0.002838,-22.8773,40.7835,1.3456,-33.9321,0.0290,54,0,0,0.000036,-0.000112,-0.029077,0.001446,-0.007737,-0.016330,-2.2399,-2.0059,-0.0653
14319,3.0,-0.000041,-0.000227,-0.028690,-0.000961,-0.006997,-0.011181,0.8110,0.7783,-0.1149,-0.00010698,-0.00006856,0.00423848,-0.04404016,0.03375955,0.00166919,-0.2188,0.1129,-9.8318,-0.002191,-0.003316,0.003705,-22.8773,40.7835,1.3456,-33.9321,0.0290,54,0,0,0.000040,-0.000132,-0.029118,0.001826,-0.008531,-0.016364,-2.1898,-1.9799,-0.0650
14322,3.0,-0.000042,-0.000241,-0.028723,-0.000995,-0.003288,-0.011199,0.6811,0.7669,-0.0987,-0.00006142,-0.00006629,0.00423753,-0.04626115,0.03220791,0.00173690,-0.2216,0.1159,-9.8275,-0.000852,-0.001290,0.003392,-22.8773,40.7835,1.3456,-33.9321,0.0290,54,0,0,0.000035,-0.000108,-0.029160,0.000580,-0.002622,-0.016487,-2.5225,-2.1090,-0.0666
14324,2.0,-0.000043,-0.000244,-0.028746,-0.000907,-0.001643,-0.011248,0.6407,0.7900,-0.0901,-0.00004623,-0.00007508,0.00423708,-0.04686014,0.03117222,0.00175623,-0.2284,0.1229,-9.8377,-0.001632,-0.001152,0.003920,-22.8773,40.7835,1.3456,-33.9321,0.0290,54,0,0,0.000037,-0.000115,-0.029201,0.000959,-0.003460,-0.016533,-2.4779,-2.0864,-0.0664
14326,2.0,-0.000044,-0.000246,-0.028821,-0.000889,-0.000698,-0.012061,0.6001,0.7746,-0.0869,-0.00003152,-0.00007098,0.00423684,-0.04875267,0.03162671,0.00207705,-0.2280,0.1341,-9.8455,0.000015,-0.002399,0.006077,-22.8773,40.7835,1.3456,-33.9321,0.0290,58,0,0,0.000039,-0.000124,-0.029242,0.001333,-0.004257,-0.016602,-2.4380,-2.0662,-0.0660
14329,3.0,-0.000046,-0.000248,-0.028857,-0.000967,-0.000062,-0.012152,0.5993,0.8015,-0.0836,-0.00003115,-0.00008231,0.00423669,-0.04949068,0.03160346,0.00205764,-0.2341,0.1310,-9.8404,0.000006,-0.002884,0.006916,-22.8773,40.7835,1.3456,-33.9321,0.0290,58,0,0,0.000043,-0.000135,-0.029284,0.001685,-0.005050,-0.016660,-2.4006,-2.0479,-0.0654
14333,4.0,-0.000049,-0.000248,-0.028906,-0.001110,0.000319,-0.012272,0.5896,0.8007,-0.0843,-0.00002823,-0.00008401,0.00423665,-0.05186348,0.03273506,0.00200958,-0.2375,0.1187,-9.8439,-0.001298,0.000179,0.003991,-22.8773,40.7835,1.3456,-33.9321,0.0280,58,0,0,0.000037,-0.000119,-0.029327,0.000559,-0.001668,-0.016788,-2.5668,-2.1215,-0.0661
14334,1.0,-0.000049,-0.000248,-0.028710,-0.000857,0.000248,-0.009449,0.5965,0.8169,-0.0849,-0.00003158,-0.00009153,0.00423665,-0.05235121,0.03295317,0.00041100,-0.2258,0.1139,-9.8648,-0.003106,0.000070,0.002853,-22.8773,40.7835,1.3456,-33.9321,0.0280,58,0,0,0.000039,-0.000123,-0.028358,0.000945,-0.002532,-0.003692,-2.5248,-2.1003,-0.0661
14336,2.0,-0.000049,-0.000220,-0.028728,-0.000870,0.013344,-0.009434,0.2083,0.7978,0.0019,0.00015059,-0.00008589,0.00423219,-0.05425376,0.02296875,0.00060425,-0.2329,0.1259,-9.8470,-0.003159,-0.003224,0.003711,-22.8773,40.7835,1.3456,-33.9321,0.0280,51,0,1,0.000042,-0.000130,-0.028367,0.001303,-0.003347,-0.003762,-2.4896,-2.0832,-0.0660
14339,3.0,-0.000052,-0.000172,-0.028756,-0.000967,0.017108,-0.009460,0.1145,0.8213,0.0269,0.00019716,-0.00009787,0.00423087,-0.05496543,0.02018993,0.00061113,-0.2337,0.1411,-9.8265,-0.001879,-0.003205,0.003394,-22.8773,40.7835,1.3456,-33.9321,0.0280,51,0,1,0.000045,-0.000139,-0.028377,0.001651,-0.004107,-0.003785,-2.4589,-2.0681,-0.0660
14342,3.0,-0.000053,-0.000117,-0.028612,-0.001011,0.019140,-0.007189,0.0556,0.8131,0.0434,0.00022640,-0.00009696,0.00423007,-0.05706044,0.01936256,-0.00095408,-0.2310,0.1338,-9.8330,-0.002031,-0.003197,0.003271,-22.8773,40.7835,1.3456,-33.9321,0.0280,51,0,1,0.000040,-0.000093,-0.028387,0.000566,0.002990,-0.003909,-2.7435,-2.1608,-0.0667
14344,2.0,-0.000054,-0.000066,-0.028625,-0.000923,0.024629,-0.007220,-0.0874,0.8319,0.0785,0.00030361,-0.00010751,0.00422807,-0.05765826,0.01494511,-0.00097788,-0.2316,0.1276,-9.8439,-0.003391,-0.004495,0.003873,-22.8773,40.7835,1.3456,-33.9004,0.0280,51,0,1,0.000042,-0.000086,-0.028397,0.000945,0.002116,-0.003967,-2.7086,-2.1443,-0.0667
14346,2.0,-0.000026,-0.000041,-0.028644,0.011571,0.014206,-0.007479,0.1853,1.1490,0.0882,0.00015005,-0.00028817,0.00422851,-0.07018634,0.02445755,-0.00123982,-0.2277,0.1305,-9.8596,-0.003270,-0.003049,0.003457,-22.8773,40.7835,1.3456,-33.9004,0.0280,38,1,0,0.000044,-0.000081,-0.028407,0.001332,0.001255,-0.004064,-2.6747,-2.1278,-0.0667
14349,3.0,0.000017,-0.000013,-0.028527,0.014767,0.007767,-0.005853,0.3651,1.2584,0.0866,0.00004487,-0.00035253,0.00422951,-0.07373500,0.03023777,-0.00277049,-0.2118,0.1352,-9.8651,-0.000622,-0.003137,0.003946,-22.8773,40.7835,1.3456,-33.9004,0.0280,38,1,0,0.000048,-0.000079,-0.028417,0.001758,0.000410,-0.004174,-2.6391,-2.1097,-0.0666
14352,3.0,0.000067,0.000001,-0.028546,0.016488,0.004303,-0.006022,0.4458,1.2852,0.0905,-0.00000656,-0.00037429,0.00422996,-0.07802787,0.03447925,-0.00289955,-0.2208,0.1326,-9.8672,0.000408,-0.004471,0.004136,-22.8773,40.7835,1.3456,-33.9004,0.0280,38,1,0,0.000073,-0.000076,-0.028427,0.004754,-0.000093,-0.004282,-2.5996,-2.0300,-0.0660
14354,2.0,0.000113,0.000005,-0.028559,0.021706,0.002615,-0.006142,0.4978,1.4341,0.1105,-0.00003896,-0.00046855,0.00422917,-0.08305157,0.03621600,-0.00314345,-0.2238,0.1333,-9.8515,-0.000491,-0.001739,0.004210,-22.8773,40.7835,1.3456,-33.9004,0.0280,38,1,0,0.000085,-0.000076,-0.028438,0.005094,-0.000870,-0.004362,-2.5704,-2.0162,-0.0659
14356,2.0,0.000136,0.000007,-0.028454,0.012009,0.001681,-0.004620,0.5065,1.1691,0.0793,-0.00004827,-0.00030139,0.00423140,-0.07753033,0.03822411,-0.00411214,-0.2349,0.1242,-9.8533,-0.000841,-0.003278,0.004239,-22.8773,40.7835,1.3456,-33.9004,0.0280,60,0,0,0.000098,-0.000079,-0.028448,0.005402,-0.001662,-0.004447,-2.5425,-2.0041,-0.0658
14359,3.0,0.000158,0.000011,-0.028467,0.005840,0.001141,-0.004709,0.5310,1.0459,0.0644,-0.00006543,-0.00021744,0.00423268,-0.07318032,0.03910601,-0.00391577,-0.2253,0.1222,-9.8606,-0.000978,-0.001925,0.004900,-22.8773,40.7835,1.3456,-33.9004,0.0280,60,0,0,0.000112,-0.000084,-0.028459,0.005733,-0.002457,-0.004549,-2.5133,-1.9909,-0.0656
14362,3.0,0.000169,0.000013,-0.028480,0.002501,0.000813,-0.004792,0.5291,0.9528,0.0561,-0.00006781,-0.00015679,0.00423341,-0.07292201,0.04082654,-0.00385955,-0.2221,0.1296,-9.8583,-0.003632,-0.000099,0.003857,-22.8773,40.7835,1.3456,-33.9004,0.0280,60,0,0,0.000094,-0.000074,-0.028472,0.001813,-0.000988,-0.004692,-2.5776,-2.0893,-0.0664
14365,3.0,0.000174,0.000014,-0.028394,0.000810,0.000623,-0.003574,0.5448,0.9346,0.0519,-0.00008007,-0.00014375,0.00423378,-0.07227971,0.04144475,-0.00515736,-0.2182,0.1284,-9.8445,-0.003363,-0.001339,0.000200,-22.8773,40.7835,1.3456,-33.9004,0.0280,60,0,0,0.000099,-0.000077,-0.028483,0.002178,-0.001753,-0.004752,-2.5500,-2.0754,-0.0669
14367,2.0,0.000175,0.000014,-0.028401,0.000102,0.000498,-0.003613,0.5344,0.8955,0.0501,-0.00007579,-0.00012021,0.00423394,-0.07392637,0.04281982,-0.00517868,-0.2212,0.1214,-9.8483,-0.001959,-0.003772,0.002028,-22.8773,40.7835,1.3456,-33.9004,0.0280,51,0,0,0.000104,-0.000082,-0.028167,0.002533,-0.002531,-0.001325,-2.5219,-2.0621,-0.0671
14369,2.0,0.000175,0.000014,-0.028408,-0.000280,0.000404,-0.003680,0.5433,0.8999,0.0492,-0.00008306,-0.00012405,0.00423404,-0.07411559,0.04317674,-0.00519100,-0.2208,0.1123,-9.8514,-0.002713,-0.004068,0.004040,-22.8773,40.7835,1.3456,-33.9004,0.0280,51,0,0,0.000111,-0.000089,-0.028170,0.002885,-0.003326,-0.001402,-2.4936,-2.0488,-0.0670
14372,3.0,0.000175,0.000015,-0.028337,-0.000649,0.000471,-0.002695,0.5329,0.8762,0.0481,-0.00007850,-0.00011153,0.00423410,-0.07627107,0.04451289,-0.00640179,-0.2248,0.1219,-9.8448,-0.001055,-0.001583,0.003522,-22.8773,40.7835,1.3456,-33.9004,0.0280,51,0,0,0.000101,-0.000077,-0.028174,0.000969,-0.001197,-0.001499,-2.5567,-2.0983,-0.0674
14374,2.0,0.000174,0.000015,-0.028342,-0.000706,0.000425,-0.002751,0.5411,0.8877,0.0474,-0.00008555,-0.00012162,0.00423414,-0.07675553,0.04485116,-0.00642244,-0.2344,0.1262,-9.8464,-0.001061,-0.003867,0.004621,-22.8773,40.7835,1.3456,-33.9004,0.0280,51,0,0,0.000144,-0.000150,-0.028222,-0.001391,0.002700,-0.003717,-7.6486,-5.0276,0.2077
14376,2.0,0.000174,0.000015,-0.028348,-0.000768,0.000408,-0.002820,0.5308,0.8678,0.0464,-0.00008052,-0.00011123,0.00423417,-0.07876755,0.04605848,-0.00645763,-0.2377,0.1329,-9.8609,-0.001713,-0.004755,0.004399,-22.8773,40.7835,1.3456,-33.9004,0.0280,53,0,0,0.000139,-0.000140,-0.028225,0.000941,-0.001542,-0.003234,-6.9994,-4.6617,0.1667
14379,3.0,0.000172,0.000016,-0.028288,-0.000883,0.000458,-0.002058,0.5404,0.8830,0.0462,-0.00008958,-0.00012594,0.00423420,-0.07946120,0.04648420,-0.00753817,-0.2332,0.1345,-9.8522,-0.001317,-0.004451,0.004962,-22.8773,40.7835,1.3456,-33.9004,0.0280,53,0,0,0.000141,-0.000143,-0.028227,0.003110,-0.005476,-0.002806,-6.4535,-4.3535,0.1355
14382,3.0,0.000171,0.000017,-0.028294,-0.000933,0.000495,-0.002131,0.5316,0.8680,0.0458,-0.00008572,-0.00011969,0.00423421,-0.08178916,0.04785709,-0.00758218,-0.2307,0.1333,-9.8494,-0.000512,-0.004332,0.005832,-22.8773,40.7835,1.3456,-33.9004,0.0280,53,0,0,0.000128,-0.000121,-0.028238,0.001309,-0.002343,-0.002943,-6.9389,-4.6304,0.1641
14384,2.0,0.000170,0.000017,-0.028299,-0.000856,0.000389,-0.002183,0.5402,0.8809,0.0453,-0.00009434,-0.00013263,0.00423424,-0.08237814,0.04824921,-0.00760579,-0.2335,0.1294,-9.8447,-0.003451,-0.004286,0.003569,-22.8773,40.7835,1.3456,-33.9004,0.0280,53,0,0,0.000131,-0.000126,-0.028240,0.003163,-0.005733,-0.002542,-6.5572,-4.4155,0.1421
14386,2.0,0.000170,0.000050,-0.028245,-0.000860,0.013725,-0.001450,0.2721,0.8598,0.0943,0.00016899,-0.00012090,0.00422912,-0.08451112,0.03776329,-0.00837880,-0.2319,0.1294,-9.8474,-0.003943,-0.002968,0.003339,-22.8773,40.7835,1.3456,-33.9004,0.0280,53,0,1,0.000139,-0.000140,-0.028241,0.004943,-0.008985,-0.002188,-6.2175,-4.2239,0.1236
14389,3.0,0.000168,0.000100,-0.028249,-0.000955,0.017236,-0.001535,0.2119,0.8746,0.1069,0.00023054,-0.00013673,0.00422774,-0.08520884,0.03504104,-0.00836884,-0.2353,0.1178,-9.8531,-0.004135,-0.002455,0.003900,-22.8773,40.7835,1.3456,-33.9004,0.0280,53,0,1,0.000151,-0.000163,-0.028241,0.006644,-0.012141,-0.001877,-5.9084,-4.0500,0.1079
14392,3.0,0.000166,0.000155,-0.028254,-0.001005,0.019131,-0.001604,0.1701,0.8596,0.1160,0.00027081,-0.00012938,0.00422693,-0.08752467,0.03437165,-0.00839399,-0.2298,0.1229,-9.8510,-0.005510,-0.000305,0.004768,-22.8773,40.7835,1.3456,-33.9004,0.0280,53,0,1,0.000133,-0.000097,-0.028260,0.002137,0.000230,-0.002530,-7.0296,-4.6464,0.1689
14394,2.0,0.000166,0.000208,-0.028209,-0.000932,0.024618,-0.001047,0.0729,0.8716,0.1339,0.00037713,-0.00014285,0.00422477,-0.08810699,0.02978529,-0.00925353,-0.2330,0.1183,-9.8582,-0.003444,-0.000119,0.004456,-22.8773,40.7835,1.3456,-33.9004,0.0280,53,0,1,0.000139,-0.000096,-0.028260,0.003929,-0.003089,-0.002155,-6.7467,-4.4877,0.1524
14397,3.0,0.000164,0.000252,-0.028213,-0.000971,0.013149,-0.001221,0.2732,0.8556,0.1022,0.00014555,-0.00013425,0.00422909,-0.09046573,0.04062221,-0.00928300,-0.2337,0.1084,-9.8644,-0.001340,-0.002647,0.005635,-22.8773,40.7835,1.3456,-33.9004,0.0280,56,0,0,0.000149,-0.000105,-0.028258,0.005669,-0.006344,-0.001815,-6.4800,-4.3387,0.1377
14399,2.0,0.000163,0.000263,-0.028217,-0.000865,0.007545,-0.001342,0.3773,0.8674,0.0863,0.00002394,-0.00014820,0.00423120,-0.09105939,0.04573936,-0.00930884,-0.2321,0.1176,-9.8668,-0.000521,-0.003631,0.005443,-22.8773,40.7835,1.3456,-33.9004,0.0280,56,0,0,0.000164,-0.000122,-0.027988,0.007355,-0.009473,0.001024,-6.2392,-4.2043,0.1251
14402,3.0,0.000162,0.000277,-0.028180,-0.000902,0.004195,-0.000925,0.4268,0.8487,0.0793,-0.00004141,-0.00013768,0.00423242,-0.09348349,0.04990978,-0.01015543,-0.2269,0.1207,-9.8587,-0.000203,-0.006614,0.005369,-22.8773,40.7835,1.3456,-33.9004,0.0280,56,0,0,0.000139,-0.000088,-0.027989,0.002623,-0.003578,0.000784,-6.7032,-4.4905,0.1523
14404,2.0,0.000161,0.000280,-0.028182,-0.000818,0.002523,-0.000993,0.4608,0.8595,0.0756,-0.00008349,-0.00015154,0.00423303,-0.09405824,0.05164850,-0.01018747,-0.2324,0.1287,-9.8520,-0.000079,-0.004524,0.005340,-22.8773,40.7835,1.3456,-33.9004,0.0280,56,0,0,0.000146,-0.000098,-0.027983,0.004260,-0.006578,0.001093,-6.5037,-4.3792,0.1415
14406,2.0,0.000161,0.000283,-0.028184,-0.000801,0.001643,-0.001005,0.4634,0.8387,0.0735,-0.00009330,-0.00013631,0.00423335,-0.09622939,0.05367793,-0.01022547,-0.2250,0.1332,-9.8346,-0.000031,-0.001109,0.002727,-22.8773,40.7835,1.3456,-33.9004,0.0280,55,0,0,0.000157,-0.000116,-0.027977,0.005879,-0.009501,0.001433,-6.3122,-4.2716,0.1309
14409,3.0,0.000159,0.000286,-0.028153,-0.000863,0.001102,-0.000618,0.4795,0.8509,0.0720,-0.00011444,-0.00015283,0.00423356,-0.09690672,0.05454056,-0.01094846,-0.2272,0.1178,-9.8396,-0.000012,-0.001732,0.003012,-22.8773,40.7835,1.3456,-33.9004,0.0280,55,0,0,0.000173,-0.000141,-0.027969,0.007461,-0.012409,0.001756,-6.1242,-4.1665,0.1210
14412,3.0,0.000158,0.000287,-0.028154,-0.000879,0.000799,-0.000658,0.4738,0.8307,0.0714,-0.00011382,-0.00013909,0.00423367,-0.09943812,0.05618603,-0.01098888,-0.2221,0.1187,-9.8413,-0.000005,-0.002625,0.004423,-22.8773,40.7835,1.3456,-33.9004,0.0280,55,0,0,0.000148,-0.000098,-0.027970,0.002637,-0.004440,0.001493,-6.5836,-4.4328,0.1467
14414,2.0,0.000158,0.000288,-0.028156,-0.000782,0.000606,-0.000709,0.4822,0.8404,0.0718,-0.00012549,-0.00015308,0.00423372,-0.09999980,0.05665422,-0.01101110,-0.2234,0.1402,-9.8476,-0.000652,-0.004272,0.007573,-22.1999,40.7971,1.7585,-33.9004,0.0280,55,0,0,0.000155,-0.000111,-0.027962,0.004218,-0.007264,0.001800,-6.4233,-4.3429,0.1385
14416,2.0,0.000157,0.000288,-0.028129,-0.000750,0.000539,-0.000392,0.4698,0.8194,0.0712,-0.00011596,-0.00013666,0.00423375,-0.10214882,0.05807491,-0.01163918,-0.2189,0.1428,-9.8563,0.000397,-0.004263,0.005547,-22.1999,40.7971,1.7585,-33.9004,0.0280,47,0,0,0.000166,-0.000130,-0.027952,0.005784,-0.010033,0.002075,-6.2693,-4.2564,0.1305
14419,3.0,0.000156,0.000289,-0.028130,-0.000815,0.000537,-0.000499,0.4776,0.8302,0.0722,-0.00012719,-0.00015338,0.00423373,-0.10280611,0.05851686,-0.01166381,-0.2280,0.1411,-9.8591,0.000154,-0.003609,0.003458,-22.1999,40.7971,1.7585,-33.9004,0.0280,47,0,0,0.000182,-0.000158,-0.027942,0.007292,-0.012746,0.002318,-6.1298,-4.1785,0.1233
14422,3.0,0.000155,0.000290,-0.028131,-0.000859,0.000510,-0.000560,0.4683,0.8134,0.0724,-0.00012133,-0.00014151,0.00423373,-0.10511710,0.05994457,-0.01169838,-0.2309,0.1380,-9.8491,-0.001241,-0.001404,0.003946,-22.1999,40.7971,1.7585,-33.9004,0.0280,47,0,0,0.000156,-0.000113,-0.027945,0.002583,-0.004583,0.002020,-6.5311,-4.4079,0.1455
14424,2.0,0.000154,0.000290,-0.028108,-0.000785,0.000399,-0.000289,0.4744,0.8222,0.0734,-0.00013139,-0.00015534,0.00423374,-0.10565349,0.06033475,-0.01225057,-0.2263,0.1405,-9.8456,-0.003734,-0.000546,0.006087,-22.1999,40.7971,1.7585,-33.8634,0.0280,47,0,0,0.000164,-0.000126,-0.027934,0.004103,-0.007307,0.002324,-6.3989,-4.3332,0.1386
14426,2.0,0.000121,0.000290,-0.028106,-0.013174,0.000348,-0.000232,0.4623,0.6197,0.0511,-0.00012182,0.00015187,0.00423683,-0.09648322,0.06160495,-0.01197413,-0.2321,0.1377,-9.8373,-0.002753,-0.001513,0.005619,-22.1999,40.7971,1.7585,-33.8634,0.0280,63,-1,0,0.000175,-0.000146,-0.027922,0.005580,-0.009988,0.002632,-6.2754,-4.2640,0.1323
14429,3.0,0.000074,0.000291,-0.028106,-0.016503,0.000399,-0.000282,0.4680,0.5808,0.0473,-0.00013129,0.00021432,0.00423758,-0.09411427,0.06196192,-0.01192760,-0.2248,0.1330,-9.8464,-0.000421,-0.002539,0.004136,-22.1999,40.7971,1.7585,-33.8634,0.0280,63,-1,0,0.000190,-0.000173,-0.027910,0.007059,-0.012653,0.002921,-6.1491,-4.1934,0.1258
14432,3.0,0.000020,0.000291,-0.028268,-0.018631,0.000403,-0.002437,0.4589,0.5356,0.0453,-0.00012386,0.00027676,0.00423805,-0.09424279,0.06325600,-0.00830897,-0.2207,0.1240,-9.8525,-0.000164,-0.004239,0.005511,-22.1999,40.7971,1.7585,-33.8634,0.0290,63,-1,0,0.000132,-0.000129,-0.028317,-0.001649,-0.004574,-0.001052,-6.5273,-4.4628,0.1493
14434,2.0,-0.000031,0.000291,-0.028272,-0.023982,0.000336,-0.002485,0.4637,0.4653,0.0444,-0.00013230,0.00039641,0.00423911,-0.08978514,0.06356954,-0.00823549,-0.2174,0.1263,-9.8591,-0.001364,-0.002949,0.004094,-22.1999,40.7971,1.7585,-33.8634,0.0290,63,-1,0,0.000129,-0.000142,-0.028315,-0.000118,-0.007286,-0.000790,-6.3980,-4.3901,0.1423
14436,2.0,-0.000052,0.000292,-0.028279,-0.014073,0.000395,-0.002595,0.4524,0.5893,0.0556,-0.00012092,0.00016678,0.00423676,-0.10038253,0.06476474,-0.00838324,-0.2187,0.1519,-9.8491,0.000770,-0.002448,0.004194,-22.1999,40.7971,1.7585,-33.8634,0.0290,61,0,0,0.000130,-0.000162,-0.028314,0.001375,-0.009873,-0.000540,-6.2880,-4.3278,0.1365
14439,3.0,-0.000078,0.000292,-0.028415,-0.007873,0.000413,-0.004371,0.4590,0.6843,0.0663,-0.00013230,-0.00000397,0.00423519,-0.10660093,0.06518187,-0.00559765,-0.2184,0.1430,-9.8498,-0.001651,-0.002903,0.004883,-22.1999,40.7971,1.7585,-33.8634,0.0290,61,0,0,0.000134,-0.000189,-0.028311,0.002852,-0.012451,-0.000293,-6.1780,-4.2656,0.1309
14442,3.0,-0.000091,0.000293,-0.028428,-0.004498,0.000376,-0.004490,0.4495,0.7141,0.0706,-0.00012520,-0.00007559,0.00423438,-0.11184380,0.06659167,-0.00567873,-0.2277,0.1381,-9.8544,-0.003243,-0.003080,0.005151,-22.1999,40.7971,1.7585,-33.8634,0.0290,61,0,0,0.000121,-0.000144,-0.028316,0.001256,-0.004640,-0.000464,-6.4262,-4.3714,0.1435
14444,2.0,-0.000095,0.000293,-0.028438,-0.002819,0.000337,-0.004564,0.4537,0.7433,0.0718,-0.00013342,-0.00013121,0.00423402,-0.11383934,0.06688748,-0.00572383,-0.2455,0.1311,-9.8496,-0.001262,-0.002499,0.003954,-22.1999,40.7971,1.7585,-33.8634,0.0290,61,0,0,0.000125,-0.000157,-0.028313,0.002633,-0.007207,-0.000224,-6.3330,-4.3200,0.1386
14446,2.0,-0.000062,0.000293,-0.028546,0.010917,0.000325,-0.005931,0.4432,0.9037,0.0730,-0.00012250,-0.00045919,0.00423131,-0.12860793,0.06804922,-0.00377152,-0.2365,0.1240,-9.8417,-0.001791,-0.002923,0.003489,-22.1999,40.7971,1.7585,-33.8634,0.0290,55,1,0,0.000133,-0.000178,-0.028309,0.004017,-0.009766,0.000044,-6.2352,-4.2659,0.1334
14449,3.0,-0.000019,0.000293,-0.028565,0.014834,0.000340,-0.006041,0.4480,0.9646,0.0721,-0.00013290,-0.00058071,0.00423057,-0.13290605,0.06841666,-0.00389350,-0.2336,0.1295,-9.8467,-0.002648,-0.003088,0.003958,-22.1999,40.7971,1.7585,-33.8634,0.0290,55,1,0,0.000144,-0.000204,-0.028304,0.005392,-0.012279,0.000291,-6.1413,-4.2138,0.1286
14452,3.0,0.000033,0.000294,-0.028583,0.016993,0.000405,-0.006124,0.4348,0.9674,0.0717,-0.00011830,-0.00061134,0.00423013,-0.13775750,0.06982344,-0.00398325,-0.2299,0.1263,-9.8464,0.000271,-0.002502,0.002840,-22.1999,40.7971,1.7585,-33.8634,0.0290,55,1,0,0.000157,-0.000158,-0.028308,0.006242,-0.004486,0.000195,-6.3345,-4.2611,0.1368
14454,2.0,0.000083,0.000294,-0.028667,0.022523,0.000389,-0.007145,0.4382,1.0445,0.0653,-0.00012543,-0.00077066,0.00422929,-0.14334022,0.07006643,-0.00248472,-0.2352,0.1181,-9.8493,0.000105,-0.000323,0.004356,-22.1999,40.7971,1.7585,-33.8634,0.0290,55,1,0,0.000173,-0.000171,-0.028302,0.007578,-0.006987,0.000450,-6.2421,-4.2103,0.1321
14456,2.0,0.000103,0.000257,-0.028681,0.012693,-0.013402,-0.007208,0.5955,0.8936,0.0997,-0.00047134,-0.00047718,0.00423467,-0.13687469,0.08427186,-0.00238273,-0.2392,0.1262,-9.8563,0.001341,-0.000776,0.003645,-22.1999,40.7971,1.7585,-33.8634,0.0290,55,0,-1,0.000193,-0.000191,-0.028295,0.008885,-0.009435,0.000669,-6.1573,-4.1638,0.1277
14459,3.0,0.000126,0.000207,-0.028702,0.006432,-0.017038,-0.007345,0.6461,0.8250,0.1228,-0.00057933,-0.00032926,0.00423622,-0.13174100,0.08802876,-0.00228436,-0.2277,0.1192,-9.8654,0.001822,-0.002253,0.003369,-22.1999,40.7971,1.7585,-33.8634,0.0290,55,0,-1,0.000217,-0.000217,-0.028287,0.010212,-0.011883,0.000878,-6.0665,-4.1141,0.1231
14462,3.0,0.000137,0.000150,-0.028773,0.003022,-0.019075,-0.008097,0.6555,0.7583,0.1364,-0.00061572,-0.00020835,0.00423700,-0.13133204,0.09163254,-0.00109411,-0.2245,0.1184,-9.8600,0.000059,-0.003477,0.002611,-22.1999,40.7971,1.7585,-33.8634,0.0290,55,0,-1,0.000181,-0.000208,-0.028289,0.003560,-0.008892,0.000781,-6.1723,-4.2322,0.1310
14465,3.0,0.000115,0.000137,-0.028854,0.002159,-0.021450,-0.009629,4.4935,2.8339,0.9339,-0.00622706,-0.00331010,0.00424130,0.00371087,-0.14545266,-0.00118363,-0.2216,0.1137,-9.8464,-0.003879,-0.002653,0.003617,-22.1999,40.7971,1.7585,-33.8634,0.0290,55,0,-1,0.000191,-0.000232,-0.028280,0.004878,-0.011286,0.001052,-6.0821,-4.1820,0.1264
14467,2.0,0.000159,0.000112,-0.028862,0.013074,-0.010405,-0.009276,3.6169,2.5462,0.9066,-0.00485183,-0.00301363,0.00422844,-0.03569445,-0.10448302,-0.00121764,-0.2137,0.1090,-9.8473,-0.001509,-0.001682,0.005308,-22.1999,40.7971,1.7585,-33.8634,0.0280,58,1,0,0.000204,-0.000262,-0.028030,0.006204,-0.013669,0.003454,-5.9854,-4.1280,0.1217
14469,2.0,0.000204,0.000104,-0.028710,0.019224,-0.004791,-0.007046,3.6029,2.6500,0.9156,-0.00478863,-0.00324683,0.00422555,-0.04147676,-0.11010499,-0.00544432,-0.2177,0.1095,-9.8562,-0.000587,-0.003255,0.005966,-22.1999,40.7971,1.7585,-33.8634,0.0280,58,1,0,0.000221,-0.000298,-0.028017,0.007498,-0.016012,0.003669,-5.8970,-4.0790,0.1177
14472,3.0,0.000266,0.000090,-0.028723,0.018225,-0.000833,-0.006748,3.0463,2.3547,0.8923,-0.00395923,-0.00282435,0.00422010,-0.06230849,-0.07650007,-0.00539182,-0.2252,0.1098,-9.8495,-0.000228,-0.002567,0.004922,-22.1999,40.7971,1.7585,-33.8634,0.0280,58,1,0,0.000226,-0.000242,-0.028014,0.006718,-0.005616,0.003513,-6.1145,-4.1469,0.1276
14474,2.0,0.000313,0.000094,-0.028743,0.022430,0.000463,-0.006923,3.4380,2.6337,0.9141,-0.00452898,-0.00329426,0.00422224,-0.05305246,-0.10164777,-0.00581912,-0.2262,0.1131,-9.8490,-0.000739,-0.002299,0.005166,-22.1999,40.7971,1.7585,-33.8634,0.0280,58,1,0,0.000233,-0.000226,-0.027859,0.008596,-0.010066,0.008039,-3.2519,-3.1770,0.9295
14476,2.0,0.000311,0.000073,-0.028590,-0.000401,0.001503,-0.004217,1.7870,1.4570,0.8366,-0.00213859,-0.00131806,0.00421356,-0.09421093,0.00677239,-0.00753307,-0.2310,0.1150,-9.8519,-0.004189,-0.001545,0.006561,-22.1999,40.7971,1.7585,-33.8634,0.0280,58,-1,0,0.000256,-0.000252,-0.027837,0.009251,-0.010631,0.008069,-3.2273,-3.1607,0.9313
14479,3.0,0.000289,0.000071,-0.028596,-0.009978,0.001456,-0.004062,1.4373,1.1576,0.8217,-0.00164847,-0.00077745,0.00421301,-0.09993461,0.03181186,-0.00710618,-0.2295,0.1202,-9.8461,-0.002280,-0.001901,0.003202,-22.1999,40.7971,1.7585,-33.8634,0.0280,58,-1,0,0.000279,-0.000279,-0.027815,0.009902,-0.011174,0.008112,-3.2034,-3.1448,0.9326
14482,3.0,0.000250,0.000068,-0.028601,-0.015144,0.001288,-0.003911,1.0314,0.8653,0.8093,-0.00107408,-0.00029625,0.00421099,-0.11243278,0.06062909,-0.00701440,-0.2360,0.1190,-9.8555,-0.000887,-0.002040,0.003196,-22.1999,40.7971,1.7585,-33.8634,0.0280,58,-1,0,0.000215,-0.000244,-0.027804,-0.000769,-0.003641,0.007831,-3.3313,-3.2839,0.9337
14484,2.0,0.000204,0.000066,-0.028495,-0.021643,0.000908,-0.002397,0.8320,0.6809,0.8024,-0.00079883,0.00004928,0.00421100,-0.11478359,0.07528669,-0.00943914,-0.2375,0.1383,-9.8481,0.000956,-0.005345,0.003194,-22.1999,40.7971,1.7585,-33.8634,0.0280,58,-1,0,0.000213,-0.000253,-0.027783,-0.000121,-0.004151,0.007865,-3.3099,-3.2701,0.9351
14486,2.0,0.000154,0.000062,-0.028495,-0.025181,0.000670,-0.002300,0.5495,0.4746,0.7954,-0.00039914,0.00039250,0.00420964,-0.12347074,0.09531577,-0.00938143,-0.2258,0.1554,-9.8556,-0.000279,-0.005331,0.001242,-22.1999,40.7971,1.7585,-33.8634,0.0280,66,-1,0,0.000214,-0.000264,-0.027762,0.000552,-0.004612,0.007878,-3.2894,-3.2562,0.9363
14489,3.0,0.000035,0.000155,-0.028631,-0.021448,-0.001673,-0.006185,7.8951,4.5771,1.1750,-0.01110359,-0.00567316,0.00433212,0.14844537,-0.39526927,-0.00906898,-0.2244,0.1513,-9.8513,0.000542,-0.003374,0.001784,-22.1999,40.7971,1.7585,-33.8634,0.0280,66,-1,0,0.000216,-0.000276,-0.027740,0.001223,-0.005076,0.007903,-3.2686,-3.2418,0.9375
14492,3.0,-0.000039,0.000174,-0.028525,-0.022050,0.001442,-0.004607,9.6297,5.5419,1.3334,-0.01362973,-0.00713167,0.00440004,0.21029490,-0.50830090,-0.01308971,-0.2174,0.1395,-9.8553,-0.001740,-0.002613,0.001994,-22.1999,40.7971,1.7585,-33.8634,0.0280,66,-1,0,0.000177,-0.000259,-0.027726,-0.003437,-0.001783,0.007765,-3.3131,-3.2951,0.9386
14494,2.0,-0.000099,0.000187,-0.028552,-0.026598,0.002941,-0.004719,10.7790,6.1305,1.4451,-0.01531957,-0.00797030,0.00444653,0.25421137,-0.58118498,-0.01331160,-0.2145,0.1361,-9.8628,-0.003278,-0.002317,0.002076,-22.1999,40.7971,1.7585,-33.8634,0.0280,66,-1,0,0.000169,-0.000264,-0.027704,-0.002744,-0.002275,0.007772,-3.2900,-3.2785,0.9399
14497,3.0,-0.000189,0.000271,-0.028678,-0.015473,0.003813,-0.008372,17.2706,9.6967,2.3822,-0.02458596,-0.01353016,0.00469362,0.48242104,-1.00817227,-0.01598136,-0.2181,0.1321,-9.8638,-0.003876,-0.001552,0.004059,-22.1999,40.7971,1.7585,-33.8634,0.0290,70,0,0,0.000163,-0.000270,-0.028238,-0.002067,-0.002765,0.002765,-3.2719,-3.2647,0.9415
14499,2.0,-0.000229,0.000325,-0.028508,-0.010809,0.005929,-0.006596,21.6527,11.9766,3.2289,-0.03074440,-0.01717082,0.00485767,0.63514274,-1.29085600,-0.02482261,-0.2212,0.1267,-9.8675,-0.001508,-0.001254,0.006781,-22.1999,40.7971,1.7585,-33.8634,0.0290,70,0,0,0.000158,-0.000277,-0.028230,-0.001400,-0.003268,0.002733,-3.2491,-3.2487,0.9434
14502,3.0,-0.000281,0.000397,-0.028595,-0.009647,0.010171,-0.006756,26.7615,14.4716,4.4117,-0.03782983,-0.02126313,0.00504666,0.81075907,-1.61097658,-0.03092026,-0.2166,0.1384,-9.8538,-0.002537,-0.001138,0.005889,-22.1999,40.7971,1.7585,-33.8634,0.0290,70,0,0,0.000160,-0.000265,-0.028223,-0.000228,-0.001169,0.002684,-3.2607,-3.2327,0.9473
14504,2.0,-0.000313,0.000451,-0.028666,-0.008897,0.012138,-0.006555,30.9741,16.3971,5.5387,-0.04356939,-0.02454474,0.00519992,0.95329678,-1.86909795,-0.03749024,-0.2298,0.1344,-9.8324,-0.001637,-0.004344,0.006192,-22.1999,40.7971,1.7585,-33.8422,0.0290,70,0,0,0.000160,-0.000269,-0.028215,0.000385,-0.001618,0.002731,-3.2407,-3.2192,0.9492
14506,2.0,-0.000342,0.000501,-0.028724,-0.009281,0.014619,-0.004784,34.7070,17.9990,6.6442,-0.04858310,-0.02739305,0.00533371,1.07671547,-2.09174657,-0.04621138,-0.2309,0.1280,-9.8320,-0.003238,-0.002990,0.004359,-22.1999,40.7971,1.7585,-33.8422,0.0290,70,0,0,0.000161,-0.000273,-0.028207,0.000991,-0.002077,0.002781,-3.2207,-3.2054,0.9508
14509,3.0,-0.000390,0.000585,-0.028785,-0.011335,0.019307,-0.000269,39.6820,19.9749,8.2612,-0.05514791,-0.03110052,0.00550899,1.23742437,-2.38063097,-0.06244498,-0.2347,0.1286,-9.8350,-0.002560,-0.001813,0.002346,-22.1999,40.7971,1.7585,-33.8422,0.0290,70,0,0,0.000164,-0.000279,-0.028199,0.001583,-0.002526,0.002821,-3.2014,-3.1922,0.9521
14512,3.0,-0.000438,0.000671,-0.028810,-0.012894,0.022685,0.006732,44.4906,21.7093,9.9688,-0.06137712,-0.03461042,0.00567490,1.38742805,-2.64998841,-0.08545851,-0.2347,0.1173,-9.8314,-0.002947,-0.001356,0.001563,-22.1999,40.7971,1.7585,-33.8422,0.0290,70,0,0,0.000157,-0.000269,-0.028193,0.000675,-0.000954,0.002817,-3.2104,-3.1979,0.9538
14514,2.0,-0.000292,0.000469,-0.027768,-0.014735,0.024617,0.071704,23.6028,10.9354,2.1458,-0.03539150,-0.01454996,0.00601808,0.45716375,-1.32885849,-0.13763888,-0.2326,0.1194,-9.8430,-0.001796,-0.003128,0.002559,-22.8794,41.1561,1.3095,-33.8422,0.0290,70,0,0,0.000159,-0.000272,-0.028184,0.001256,-0.001404,0.002840,-3.1904,-3.1846,0.9552
14516,2.0,-0.000301,0.000459,-0.027501,-0.010885,0.007011,0.076166,24.5448,10.9846,2.1459,-0.03716492,-0.01449343,0.00622768,0.45143309,-1.35797131,-0.16994442,-0.2367,0.1196,-9.8454,0.001252,-0.001867,0.004897,-22.8794,41.1561,1.3095,-33.8422,0.0290,62,0,-1,0.000163,-0.000276,-0.028176,0.001821,-0.001846,0.002854,-3.1708,-3.1717,0.9568
14519,3.0,-0.000320,0.000456,-0.027190,-0.009386,0.002833,0.082001,25.3204,11.0287,2.1478,-0.03860069,-0.01449033,0.00640583,0.44292146,-1.38489223,-0.19129403,-0.2242,0.1186,-9.8351,-0.000814,-0.002027,0.005806,-22.8794,41.1561,1.3095,-33.8422,0.0290,62,0,-1,0.000168,-0.000281,-0.028167,0.002414,-0.002283,0.002899,-3.1500,-3.1576,0.9586
14522,3.0,-0.000335,0.000443,-0.026871,-0.008315,0.000341,0.087889,26.0412,11.0701,2.1501,-0.03994315,-0.01449764,0.00657159,0.43436861,-1.40953493,-0.21003856,-0.2162,0.1170,-9.8314,-0.000967,-0.004040,0.005510,-22.8794,41.1561,1.3095,-33.8422,0.0290,62,0,-1,0.000159,-0.000308,-0.028155,0.001042,-0.005330,0.002989,-3.1006,-3.1586,0.9577
14524,2.0,-0.000339,0.000409,-0.026637,-0.006875,-0.007095,0.091649,26.7947,11.1112,2.1523,-0.04134406,-0.01447345,0.00674147,0.42875516,-1.43681884,-0.22733730,-0.2401,0.1161,-9.8410,0.000274,-0.005473,0.004744,-22.8794,41.1561,1.3095,-33.8422,0.0290,62,0,-1,0.000162,-0.000322,-0.028146,0.001570,-0.005731,0.003012,-3.0824,-3.1471,0.9594
14527,3.0,-0.000351,0.000404,-0.026328,-0.007458,0.006159,0.098476,26.8962,11.1226,2.1545,-0.04153230,-0.01456677,0.00677293,0.41941991,-1.43883646,-0.23292415,-0.2420,0.1272,-9.8379,0.001407,-0.004730,0.005747,-22.8794,41.1561,1.3095,-33.8422,0.0290,66,0,0,0.000166,-0.000336,-0.028137,0.002087,-0.006096,0.003039,-3.0655,-3.1362,0.9613
14529,2.0,-0.000355,0.000410,-0.026101,-0.006921,0.010674,0.102786,27.1570,11.1407,2.1566,-0.04201768,-0.01461506,0.00683652,0.41276532,-1.44792497,-0.24036424,-0.2303,0.1186,-9.8435,-0.002704,-0.001840,0.004186,-22.8794,41.1561,1.3095,-33.8422,0.0290,66,0,0,0.000172,-0.000352,-0.028128,0.002633,-0.006479,0.003058,-3.0473,-3.1235,0.9630
14532,3.0,-0.000368,0.000438,-0.025741,-0.007468,0.015607,0.109216,27.5975,11.1687,2.1596,-0.04285282,-0.01465748,0.00693901,0.40510246,-1.46233046,-0.25258276,-0.2281,0.1233,-9.8520,-0.001702,-0.002016,0.004229,-22.8794,41.1561,1.3095,-33.8422,0.0280,66,0,0,0.000162,-0.000330,-0.028029,0.000997,-0.002115,0.003822,-3.0877,-3.1390,0.9664
14534,2.0,-0.000373,0.000454,-0.025485,-0.006917,0.016200,0.113414,28.0157,11.1943,2.1623,-0.04364346,-0.01468457,0.00703532,0.39918983,-1.47703421,-0.26329482,-0.2415,0.1249,-9.8525,-0.000012,-0.001435,0.003596,-22.8794,41.1561,1.3095,-33.8422,0.0280,66,0,0,0.000165,-0.000336,-0.028019,0.001501,-0.002469,0.003808,-3.0712,-3.1279,0.9680
14536,2.0,-0.000377,0.000471,-0.025219,-0.006737,0.016947,0.117783,28.3992,11.2178,2.1650,-0.04438145,-0.01471087,0.00712298,0.39370850,-1.48935235,-0.27399421,-0.2501,0.1311,-9.8643,-0.000005,-0.000558,0.004000,-22.8794,41.1561,1.3095,-33.8422,0.0280,70,0,0,0.000169,-0.000342,-0.028008,0.001981,-0.002801,0.003762,-3.0562,-3.1177,0.9696
14539,3.0,-0.000345,-0.000064,-0.019305,-0.006682,0.029063,0.317113,-21.5921,7.9661,2.5171,0.03475463,-0.01549683,0.00360396,0.17131679,2.12596726,-0.42520124,-0.2476,0.1219,-9.8626,-0.002603,-0.002168,0.002856,-22.8794,41.1561,1.3095,-33.8422,0.0280,70,0,0,0.000175,-0.000350,-0.027998,0.002463,-0.003152,0.003722,-3.0407,-3.1074,0.9711
14541,2.0,-0.000350,-0.000037,-0.018692,-0.005375,0.009699,0.319696,-21.2467,7.9810,2.5008,0.03407670,-0.01550879,0.00370690,0.16706887,2.11279702,-0.42745453,-0.2335,0.1304,-9.8679,-0.004264,-0.000843,0.002412,-22.8794,41.1561,1.3095,-33.8422,0.0280,70,0,0,0.000165,-0.000339,-0.027990,0.000922,-0.001135,0.003622,-3.0547,-3.1188,0.9729
14544,3.0,-0.000360,-0.000027,-0.017704,-0.005043,-0.004021,0.325715,-21.3205,7.9847,2.4984,0.03421346,-0.01560398,0.00371667,0.16058266,2.11468625,-0.42931923,-0.2288,0.1342,-9.8582,-0.003609,-0.002279,0.002889,-22.8794,41.1561,1.3095,-33.8422,0.0280,70,0,0,0.000168,-0.000342,-0.027980,0.001438,-0.001437,0.003595,-3.0390,-3.1074,0.9744
14546,2.0,-0.000366,0.000036,-0.016720,-0.005642,0.018474,0.336581,-22.5696,7.9509,2.5412,0.03669124,-0.01585975,0.00342847,0.15237173,2.15694118,-0.44934583,-0.2282,0.1152,-9.8433,-0.001404,-0.002187,0.002424,-22.8794,41.1561,1.3095,-33.8422,0.0280,60,0,2,0.000172,-0.000346,-0.027970,0.001951,-0.001779,0.003609,-3.0214,-3.0953,0.9758
14549,3.0,-0.000379,0.000111,-0.015485,-0.006016,0.020027,0.346767,-23.2354,7.9376,2.5609,0.03801443,-0.01604496,0.00329328,0.14461713,2.17887807,-0.46390864,-0.2363,0.1256,-9.8487,-0.001196,0.001100,0.003544,-22.8794,41.1561,1.3095,-33.8422,0.0280,60,0,2,0.000177,-0.000351,-0.027960,0.002438,-0.002088,0.003604,-3.0057,-3.0841,0.9773
14552,3.0,-0.000391,0.000191,-0.014201,-0.006081,0.021036,0.357139,-23.8532,7.9263,2.5791,0.03926018,-0.01622777,0.00317148,0.13675904,2.19798875,-0.47979566,-0.2209,0.1283,-9.8338,-0.001116,0.001078,0.006581,-22.8794,41.1561,1.3095,-33.8422,0.0280,60,0,2,0.000166,-0.000272,-0.027960,0.000762,0.007997,0.003479,-3.1043,-3.1045,0.9844
14554,2.0,-0.000398,0.000281,-0.013167,-0.006148,0.032257,0.366656,-24.6556,7.9079,2.6058,0.04088346,-0.01641886,0.00299686,0.12988921,2.22393274,-0.50046778,-0.2270,0.1288,-9.8433,-0.002385,-0.000881,0.004511,-22.8794,41.1561,1.3095,-33.8422,0.0280,60,0,2,0.000169,-0.000252,-0.027950,0.001265,0.007694,0.003490,-3.0880,-3.0929,0.9861
14556,2.0,-0.000403,0.000310,-0.012572,-0.004962,0.011072,0.369036,-24.2833,7.9233,2.5873,0.04012609,-0.01642926,0.00311369,0.12650359,2.21024871,-0.49225393,-0.2188,0.1206,-9.8497,-0.003529,-0.001643,0.005006,-22.8794,41.1561,1.3095,-33.8422,0.0280,71,0,0,0.000172,-0.000233,-0.027940,0.001786,0.007375,0.003489,-3.0705,-3.0803,0.9878
14559,3.0,-0.000413,0.000323,-0.011424,-0.004628,-0.004160,0.376226,-24.3351,7.9282,2.5835,0.04022577,-0.01652414,0.00313284,0.12081028,2.21092033,-0.49493378,-0.2205,0.1244,-9.8449,-0.002023,-0.001940,0.003898,-22.8794,41.1561,1.3095,-33.8422,0.0280,71,0,0,0.000177,-0.000215,-0.027930,0.002297,0.007073,0.003499,-3.0535,-3.0683,0.9895
14562,3.0,-0.000421,0.000309,-0.010140,-0.004363,-0.012050,0.384936,-24.6184,7.9266,2.5882,0.04081405,-0.01666052,0.00309571,0.11414717,2.21823239,-0.50451374,-0.2236,0.1297,-9.8454,-0.001437,-0.002055,0.002167,-22.8794,41.1561,1.3095,-33.8422,0.0280,71,0,0,0.000168,-0.000236,-0.027916,0.000883,0.002132,0.003554,-2.9917,-3.0691,0.9873
14565,3.0,-0.000460,0.000613,-0.013986,-0.002064,-0.021649,0.336355,4.8381,9.8629,0.8540,-0.00678958,-0.01745780,0.01933792,0.26474139,-0.00360887,-0.47115010,-0.2180,0.1422,-9.8424,-0.000559,-0.000799,0.003444,-22.8794,41.1561,1.3095,-33.7894,0.0290,71,0,0,0.000171,-0.000231,-0.028371,0.001376,0.001918,-0.000717,-2.9793,-3.0594,0.9890
14567,2.0,-0.000461,0.000601,-0.020378,-0.003589,-0.011140,0.267228,4.9493,9.8733,0.8527,-0.00682100,-0.01752613,0.01932784,0.25343701,-0.01571095,-0.36315706,-0.2190,0.1471,-9.8303,-0.002168,-0.000311,0.004591,-22.8794,41.1561,1.3095,-33.7894,0.0290,72,0,0,0.000175,-0.000226,-0.028372,0.001862,0.001720,-0.000701,-2.9652,-3.0485,0.9908
14569,2.0,-0.000463,0.000590,-0.019816,-0.004572,-0.005184,0.268759,4.7939,9.8749,0.8516,-0.00650107,-0.01763900,0.01932609,0.24820264,-0.01000623,-0.36485356,-0.2333,0.1477,-9.8351,-0.004095,-0.001421,0.003737,-22.8794,41.1561,1.3095,-33.7894,0.0290,72,0,0,0.000180,-0.000222,-0.028373,0.002307,0.001529,-0.000699,-2.9527,-3.0391,0.9925
14572,3.0,-0.000472,0.000582,-0.018995,-0.005903,-0.001125,0.270677,4.7448,9.8809,0.8500,-0.00639774,-0.01776393,0.01931952,0.24073185,-0.00817088,-0.36627758,-0.2381,0.1333,-9.8409,-0.000943,-0.003154,0.004705,-22.8794,41.1561,1.3095,-33.7894,0.0290,72,0,0,0.000171,-0.000225,-0.028374,0.000873,0.000435,-0.000713,-2.9329,-3.0453,0.9929
14574,2.0,-0.000476,0.000584,-0.021964,-0.005808,0.000510,0.237230,4.9481,9.8928,0.8488,-0.00672209,-0.01783073,0.01930691,0.23109676,-0.01904017,-0.31353986,-0.2335,0.1294,-9.8378,-0.000367,-0.002527,0.005081,-22.8794,41.1561,1.3095,-33.7894,0.0290,72,0,0,0.000253,-0.000362,-0.029193,-0.004642,0.010419,-0.012366,-18.2076,-11.5045,1.7637
14576,2.0,-0.000480,0.000585,-0.021485,-0.005851,0.001532,0.238374,4.9350,9.8964,0.8476,-0.00671591,-0.01791395,0.01930331,0.22495089,-0.01666605,-0.31477001,-0.2298,0.1252,-9.8361,-0.002744,-0.002284,0.004578,-22.8794,41.1561,1.3095,-33.7894,0.0290,59,0,0,0.000232,-0.000318,-0.028997,0.002947,-0.002420,-0.006423,-14.0738,-9.3559,1.1719
14579,3.0,-0.000492,0.000589,-0.020768,-0.006554,0.002469,0.240054,5.0179,9.9061,0.8460,-0.00688427,-0.01802273,0.01929314,0.21712656,-0.02000140,-0.31658193,-0.2235,0.1333,-9.8194,-0.003018,-0.002839,0.005032,-22.8794,41.1561,1.3095,-33.7894,0.0290,59,0,0,0.000237,-0.000319,-0.028863,0.008841,-0.012151,-0.002509,-11.4772,-7.9727,0.8802
14582,3.0,-0.000504,0.000596,-0.022493,-0.006785,0.002923,0.217547,5.1861,9.9176,0.8442,-0.00719257,-0.01812530,0.01928152,0.20582210,-0.02633091,-0.28156984,-0.2274,0.1295,-9.8332,-0.002474,-0.003705,0.005209,-22.8794,41.1561,1.3095,-33.7894,0.0290,59,0,0,0.000201,-0.000272,-0.028918,0.003612,-0.005435,-0.002659,-12.6589,-8.6136,1.0076
14584,2.0,-0.000507,0.000599,-0.022058,-0.006254,0.002928,0.218570,5.2713,9.9260,0.8434,-0.00736801,-0.01821845,0.01927253,0.19924152,-0.02973216,-0.28321975,-0.2422,0.1452,-9.8367,-0.002913,-0.002742,0.005277,-22.8794,41.1561,1.3095,-33.7894,0.0290,59,0,0,0.000208,-0.000282,-0.028845,0.007838,-0.012235,-0.000200,-11.4326,-7.9561,0.8785
14586,2.0,-0.000511,0.000602,-0.021618,-0.006084,0.003045,0.219637,5.2948,9.9309,0.8423,-0.00744099,-0.01830049,0.01926801,0.19298518,-0.02854889,-0.28472883,-0.2400,0.1361,-9.8376,-0.001783,-0.001717,0.005304,-22.8794,41.1561,1.3095,-33.7894,0.0290,67,0,0,0.000228,-0.000312,-0.028775,0.011733,-0.018448,0.001916,-10.3885,-7.3923,0.7797
14589,3.0,-0.000516,0.000466,-0.022289,-0.006857,0.006709,0.210412,-7.9476,9.4175,0.5578,0.01429913,-0.01904508,0.02487409,0.14430635,0.99193931,-0.24859366,-0.2313,0.1205,-9.8381,-0.003295,-0.000668,0.005965,-22.8794,41.1561,1.3095,-33.7894,0.0290,67,0,0,0.000258,-0.000359,-0.028702,0.015378,-0.024212,0.003833,-9.4369,-6.8749,0.6987
14592,3.0,-0.000528,0.000476,-0.021654,-0.006680,-0.000227,0.212215,-7.9186,9.4266,0.5532,0.01423809,-0.01918235,0.02486466,0.13601433,0.99004441,-0.25016329,-0.2286,0.1202,-9.8531,-0.002582,-0.002211,0.004921,-22.8794,41.1561,1.3095,-33.7894,0.0290,67,0,0,0.000207,-0.000284,-0.028770,0.005319,-0.008558,0.002524,-11.1729,-7.8193,0.8560
14594,2.0,-0.000532,0.000476,-0.021224,-0.006003,-0.002804,0.213464,-7.9617,9.4322,0.5492,0.01433785,-0.01930812,0.02487805,0.12955169,0.99064356,-0.25153223,-0.2355,0.1389,-9.8573,-0.001004,-0.003461,0.005816,-22.8794,41.1561,1.3095,-33.7894,0.0290,67,0,0,0.000221,-0.000306,-0.028706,0.008856,-0.014102,0.004301,-10.4646,-7.4357,0.7899
14598,4.0,-0.000551,0.000442,-0.021984,-0.006706,-0.013964,0.199222,-7.8332,9.4470,0.5441,0.01407995,-0.01947735,0.02484022,0.11771213,0.98582906,-0.22819422,-0.2341,0.1284,-9.8523,0.000910,-0.003297,0.005514,-22.8794,41.1561,1.3095,-33.7894,0.0280,65,0,-1,0.000244,-0.000342,-0.028063,0.012226,-0.019369,0.011288,-9.7828,-7.0648,0.7306
14599,1.0,-0.000549,0.000376,-0.021820,-0.005027,-0.034958,0.199314,-7.3469,9.4626,0.5482,0.01290772,-0.01946177,0.02469700,0.11389264,0.97645766,-0.22566056,-0.2165,0.1288,-9.8495,-0.001597,-0.001282,0.003445,-22.8794,41.1561,1.3095,-33.7894,0.0280,65,0,-1,0.000277,-0.000393,-0.028004,0.015466,-0.024320,0.012652,-9.1573,-6.7224,0.6798
14602,3.0,-0.000559,0.000285,-0.021200,-0.005790,-0.032174,0.201184,-7.5535,9.4662,0.5402,0.01341978,-0.01963492,0.02475966,0.10654420,0.97892052,-0.22867066,-0.2171,0.1290,-9.8532,-0.001271,-0.001799,0.001990,-22.8794,41.1561,1.3095,-33.7894,0.0280,65,0,-1,0.000222,-0.000346,-0.027992,0.005544,-0.013131,0.012250,-10.0634,-7.2390,0.7577
14604,2.0,-0.000563,0.000222,-0.022159,-0.005403,-0.034490,0.187993,-7.5659,9.4744,0.5360,0.01348319,-0.01977581,0.02476441,0.09845451,0.97828573,-0.20893452,-0.2249,0.1260,-9.8458,0.000806,-0.001350,0.004026,-22.8794,41.1561,1.3095,-33.7894,0.0280,65,0,-1,0.000237,-0.000380,-0.027932,0.008626,-0.017846,0.013584,-9.5558,-6.9613,0.7150
14606,2.0,-0.000601,0.000190,-0.021756,-0.017662,-0.022718,0.189425,-7.9658,9.4560,0.5305,0.01447200,-0.01961557,0.02487559,0.10952687,0.98501682,-0.20993148,-0.2197,0.1285,-9.8322,-0.001637,-0.000525,0.002866,-22.8794,41.1561,1.3095,-33.7894,0.0280,59,-1,0,0.000260,-0.000426,-0.027869,0.011587,-0.022317,0.014851,-9.0897,-6.7048,0.6777
14609,3.0,-0.000658,0.000145,-0.021162,-0.021650,-0.016012,0.191381,-8.2976,9.4537,0.5217,0.01528933,-0.01973684,0.02497301,0.10644252,0.99098301,-0.21305722,-0.2337,0.1226,-9.8361,-0.001937,-0.001505,0.003066,-22.8794,41.1561,1.3095,-33.7894,0.0280,59,-1,0,0.000291,-0.000485,-0.027805,0.014371,-0.026549,0.015961,-8.6935,-6.4867,0.6478
14612,3.0,-0.000721,0.000115,-0.021903,-0.023685,-0.012223,0.178797,-8.5116,9.4578,0.5135,0.01586728,-0.01991007,0.02503601,0.09848369,0.99307483,-0.19505255,-0.2299,0.1245,-9.8278,0.000547,-0.000585,0.003143,-22.8794,41.1561,1.3095,-33.7894,0.0280,59,-1,0,0.000208,-0.000398,-0.027803,0.001022,-0.009307,0.015100,-9.7946,-7.1096,0.7383
14614,2.0,-0.000768,-0.000002,-0.021324,-0.028646,-0.007497,0.176391,-19.0622,8.9856,0.5976,0.03404707,-0.01960466,0.02631822,0.06426381,1.82166934,-0.18109700,-0.2299,0.1266,-9.8347,0.000213,-0.002829,0.003824,-22.5397,40.0791,0.8605,-33.7894,0.0280,59,-1,0,0.000212,-0.000423,-0.027737,0.003903,-0.013691,0.016324,-9.4210,-6.9045,0.7077
14616,2.0,-0.000790,-0.000011,-0.020950,-0.018567,-0.010339,0.179118,-19.4267,8.9906,0.6002,0.03478444,-0.01999344,0.02623311,0.04441215,1.84157312,-0.18616576,-0.2373,0.1236,-9.8544,-0.000568,-0.003051,0.004088,-22.5397,40.0791,0.8605,-33.7894,0.0280,55,0,0,0.000224,-0.000460,-0.027669,0.006670,-0.017910,0.017400,-9.0873,-6.7209,0.6816
14619,3.0,-0.000822,-0.000040,-0.020372,-0.012661,-0.013790,0.183235,-20.1659,8.9786,0.6151,0.03624471,-0.02029798,0.02607244,0.02694475,1.88543510,-0.19259270,-0.2341,0.1219,-9.8570,0.001080,-0.003788,0.005492,-22.5397,40.0791,0.8605,-33.7894,0.0280,55,0,0,0.000243,-0.000508,-0.027598,0.009363,-0.021986,0.018419,-8.7693,-6.5456,0.6580
14622,3.0,-0.000843,-0.000074,-0.019774,-0.009238,-0.015567,0.187533,-21.0078,8.9594,0.6347,0.03792140,-0.02052209,0.02589237,0.01270916,1.93484128,-0.19985291,-0.2301,0.1315,-9.8479,-0.000230,-0.003424,0.003437,-22.5397,40.0791,0.8605,-33.7894,0.0280,55,0,0,0.000206,-0.000431,-0.027574,0.003594,-0.008079,0.018058,-9.3821,-6.8631,0.7058
14624,2.0,-0.000849,-0.000091,-0.019361,-0.007073,-0.015132,0.190467,-21.7202,8.9411,0.6533,0.03933549,-0.02066527,0.02574097,0.00291227,1.97742605,-0.20568150,-0.2258,0.1326,-9.8534,-0.000740,-0.003933,0.003938,-22.5397,40.0791,0.8605,-33.7894,0.0280,55,0,0,0.000217,-0.000454,-0.027500,0.006280,-0.012089,0.019118,-9.0874,-6.7003,0.6828
14626,2.0,-0.000853,-0.000078,-0.018898,-0.006135,-0.001960,0.193182,-23.3036,8.8894,0.7043,0.04249668,-0.02074551,0.02540487,-0.00848593,2.07255650,-0.21747644,-0.2318,0.1133,-9.8511,-0.000288,-0.004781,0.004133,-22.5397,40.0791,0.8605,-33.7894,0.0280,58,0,1,0.000234,-0.000487,-0.027423,0.008879,-0.016021,0.020152,-8.8019,-6.5427,0.6614
14630,4.0,-0.000872,-0.000088,-0.018044,-0.006181,-0.004504,0.199936,-24.5475,8.8551,0.7391,0.04498601,-0.02089642,0.02514335,-0.02097229,2.14611483,-0.22874337,-0.2310,0.1224,-9.8510,0.001189,-0.003811,0.002908,-22.5397,40.0791,0.8605,-33.7894,0.0290,58,0,1,0.000259,-0.000530,-0.027871,0.011394,-0.019777,0.016250,-8.5589,-6.4084,0.6438
14632,2.0,-0.000876,-0.000058,-0.017570,-0.005362,0.004907,0.203156,-25.8122,8.8173,0.7805,0.04754524,-0.02098197,0.02487646,-0.03082257,2.22037148,-0.24069969,-0.2316,0.1371,-9.8614,-0.000188,-0.002783,0.005033,-22.5397,40.0791,0.8605,-33.7894,0.0290,58,0,1,0.000216,-0.000425,-0.027849,0.004140,-0.002840,0.015759,-9.2078,-6.7443,0.6936
14634,2.0,-0.000879,-0.000022,-0.017104,-0.004984,0.009043,0.206833,-26.7719,8.7902,0.8113,0.04948893,-0.02106061,0.02467494,-0.03874180,2.27663016,-0.25040868,-0.2287,0.1505,-9.8504,-0.000723,-0.003033,0.003908,-22.5397,40.0791,0.8605,-33.7894,0.0290,58,0,1,0.000228,-0.000434,-0.027794,0.006685,-0.006581,0.016590,-8.9832,-6.6195,0.6764
14636,2.0,-0.000847,-0.000012,-0.016685,0.008134,-0.002769,0.211823,-26.5450,8.8223,0.7859,0.04907813,-0.02159211,0.02473412,-0.05918729,2.25823069,-0.25449285,-0.2272,0.1454,-9.8516,-0.004183,-0.001830,0.004121,-22.5397,40.0791,0.8605,-33.7894,0.0290,59,1,0,0.000247,-0.000454,-0.027736,0.009180,-0.010240,0.017395,-8.7640,-6.4970,0.6601
14639,3.0,-0.000831,0.000323,-0.015595,0.013346,-0.017941,0.291498,8.5406,10.1928,0.3020,-0.01067161,-0.02014392,0.02600186,0.06571498,-0.62012315,-0.34818608,-0.2252,0.1426,-9.8554,-0.004878,-0.000712,0.004204,-22.5397,40.0791,0.8605,-33.7894,0.0290,59,1,0,0.000272,-0.000482,-0.027676,0.011627,-0.013811,0.018167,-8.5513,-6.3776,0.6448
14642,3.0,-0.000782,0.000288,-0.018495,0.013494,-0.005590,0.250052,7.7795,10.1849,0.3029,-0.00919479,-0.02054127,0.02595796,0.04667850,-0.56595576,-0.29068419,-0.2178,0.1378,-9.8639,-0.002548,-0.002878,0.003586,-22.5397,40.0791,0.8605,-33.7894,0.0290,59,1,0,0.000261,-0.000429,-0.027634,0.008498,-0.005622,0.018242,-8.7695,-6.4853,0.6612
14644,2.0,-0.000733,0.000283,-0.017994,0.018575,-0.000589,0.251145,7.7167,10.1980,0.3050,-0.00906523,-0.02083069,0.02591426,0.03424705,-0.56198132,-0.29272923,-0.2210,0.1446,-9.8539,-0.001641,-0.001770,0.003996,-22.5397,40.0791,0.8605,-33.7313,0.0290,59,1,0,0.000284,-0.000446,-0.027570,0.010870,-0.009047,0.019013,-8.5707,-6.3738,0.6469
14646,2.0,-0.000718,0.000256,-0.017458,0.008550,-0.011895,0.255246,9.0752,10.2324,0.2989,-0.01170505,-0.02040610,0.02595219,0.04751500,-0.65187711,-0.29544824,-0.2313,0.1263,-9.8356,-0.001289,-0.001989,0.004155,-22.5397,40.0791,0.8605,-33.7313,0.0290,53,0,-1,0.000313,-0.000471,-0.027504,0.013161,-0.012423,0.019806,-8.3789,-6.2665,0.6334
14649,3.0,-0.000706,0.000215,-0.019500,0.001472,-0.012661,0.227008,9.6393,10.2556,0.2963,-0.01278196,-0.02035799,0.02594469,0.04509287,-0.68813127,-0.25444549,-0.2275,0.1224,-9.8402,-0.002452,-0.001424,0.003567,-22.5397,40.0791,0.8605,-33.7313,0.0290,53,0,-1,0.000348,-0.000505,-0.027436,0.015417,-0.015729,0.020575,-8.1890,-6.1599,0.6204
14652,3.0,-0.000704,0.000172,-0.018793,-0.002299,-0.013063,0.230314,10.2602,10.2808,0.2938,-0.01399904,-0.02031701,0.02593765,0.04450569,-0.72851276,-0.25808704,-0.2349,0.1296,-9.8437,-0.003555,-0.001204,0.000737,-22.5397,40.0791,0.8605,-33.7313,0.0290,53,0,-1,0.000292,-0.000484,-0.027392,0.005486,-0.010687,0.020608,-8.3801,-6.3130,0.6371
