timestamp_ms,dt_ms,pos_x,pos_y,pos_z,vel_x,vel_y,vel_z,roll_deg,pitch_deg,yaw_deg,gyro_bias_x,gyro_bias_y,gyro_bias_z,accel_bias_x,accel_bias_y,accel_bias_z,raw_accel_x,raw_accel_y,raw_accel_z,raw_gyro_x,raw_gyro_y,raw_gyro_z,raw_baro_alt,raw_tof,raw_flow_squal,raw_flow_dx,raw_flow_dy,dev_pos_x,dev_pos_y,dev_pos_z,dev_vel_x,dev_vel_y,dev_vel_z,dev_roll_deg,dev_pitch_deg,dev_yaw_deg
11023,10.0,0.000009,-0.000018,-0.032968,0.000159,-0.001007,0.000741,-0.0017,-0.0012,-0.0002,0.00000000,0.00000000,-0.00184470,-0.00001398,-0.00008635,0.00000000,-0.1566,0.1526,-9.7277,-0.002055,-0.001463,-0.002257,36.4687,0.0330,88,1,0,0.000158,0.000221,-0.032411,-0.000184,0.002859,-0.008445,-0.9492,-0.8688,0.2740
11035,12.0,-0.000014,-0.000079,-0.032953,-0.001117,-0.003143,0.001652,-0.5001,-0.4300,-0.0001,0.00000190,0.00000165,-0.00184470,-0.00001257,-0.00008001,0.00000000,-0.1499,0.1733,-9.7293,-0.002773,-0.000891,-0.004440,36.4687,0.0330,95,3,1,0.000166,0.000205,-0.032492,-0.000255,0.002560,-0.007706,-0.9498,-0.8688,0.2739
11046,11.0,-0.000004,-0.000080,-0.031848,-0.001263,-0.001387,0.048183,-0.4993,-0.4321,-0.0008,0.00000190,0.00000165,-0.00184470,-0.00001686,-0.00008447,-0.00002875,-0.1636,0.1642,-9.7313,-0.000983,-0.001629,-0.002837,36.4687,0.0310,93,0,0,0.000106,0.000120,-0.032585,-0.000696,0.002076,-0.005735,-0.9524,-0.8682,0.2740
11057,11.0,-0.000005,-0.000069,-0.031001,-0.001007,-0.000707,0.058001,-0.6580,-0.6046,-0.0002,0.00000369,0.00000360,-0.00184470,-0.00002030,-0.00008954,-0.00003655,-0.1633,0.1679,-9.7409,-0.002868,-0.000320,-0.003564,36.4687,0.0310,93,0,0,0.000113,0.000127,-0.031521,-0.000669,0.002049,0.006889,-0.9544,-0.8739,0.2740
11068,11.0,0.000005,-0.000041,-0.030302,-0.001166,0.000602,0.060083,-0.6571,-0.6074,-0.0002,0.00000368,0.00000361,-0.00184470,-0.00002670,-0.00009779,-0.00005724,-0.1579,0.1768,-9.7532,-0.001261,-0.002716,-0.001708,36.4687,0.0310,81,-1,0,0.000126,0.000167,-0.031368,-0.000691,0.002075,0.008419,-0.9612,-0.8782,0.2735
11079,11.0,0.000034,-0.000001,-0.029637,-0.000560,0.001183,0.060921,-0.7614,-0.6922,0.0017,0.00000602,0.00000546,-0.00184470,-0.00003943,-0.00010894,-0.00005723,-0.1606,0.1843,-9.7302,-0.004032,-0.002243,-0.000136,36.4687,0.0320,89,-1,-1,0.000133,0.000197,-0.031239,-0.000738,0.002293,0.009565,-0.9601,-0.8776,0.2733
11090,11.0,0.000070,0.000004,-0.031443,-0.000436,0.001665,0.016918,-0.7659,-0.6977,0.0024,0.00000602,0.00000548,-0.00184470,-0.00004521,-0.00011703,0.00142429,-0.1637,0.1887,-9.7114,-0.003170,-0.001770,-0.000552,36.4687,0.0320,91,0,-1,0.000164,0.000230,-0.031667,-0.000542,0.002396,0.004564,-0.9669,-0.8839,0.1861
11101,11.0,0.000099,0.000044,-0.031253,-0.000068,0.001967,0.017755,-0.8233,-0.7643,0.0018,0.00000810,0.00000792,-0.00184469,-0.00005754,-0.00012784,0.00142421,-0.1752,0.1796,-9.7288,-0.004902,-0.001027,-0.003950,36.4687,0.0320,94,-1,-1,0.000227,0.000245,-0.031531,-0.000436,0.002450,0.006528,-0.9706,-0.8898,0.1873
11112,11.0,0.000108,0.000050,-0.031039,-0.000248,0.002209,0.018785,-0.8269,-0.7651,0.0019,0.00000811,0.00000793,-0.00184469,-0.00006339,-0.00011907,0.00140023,-0.1580,0.1795,-9.7321,-0.004225,-0.000266,-0.001807,36.5268,0.0310,87,0,0,0.000260,0.000277,-0.031461,-0.000480,0.002568,0.007309,-0.9711,-0.8903,0.1863
11123,11.0,0.000113,0.000061,-0.030945,-0.000207,0.002109,0.018030,-0.8604,-0.7976,0.0009,0.00000985,0.00000963,-0.00184469,-0.00006234,-0.00011715,0.00162660,-0.1626,0.1737,-9.7267,-0.003448,-0.003318,-0.004178,36.5268,0.0310,80,0,0,0.000274,0.000292,-0.031028,-0.000489,0.002292,0.011679,-0.9733,-0.8938,0.1866
11134,11.0,0.000121,0.000066,-0.030734,-0.000174,0.002316,0.018966,-0.8630,-0.8011,0.0004,0.00000987,0.00000965,-0.00184469,-0.00006873,-0.00010533,0.00160384,-0.1416,0.1817,-9.7300,-0.002497,-0.004544,-0.002733,36.5268,0.0310,90,0,0,0.000280,0.000299,-0.030900,-0.000475,0.002254,0.012557,-0.9773,-0.8999,0.1864
11145,11.0,0.000073,0.000077,-0.030520,-0.000610,0.002221,0.019872,-0.8843,-0.8206,0.0018,0.00001137,0.00001128,-0.00184470,-0.00003557,-0.00009930,0.00160339,-0.1630,0.1708,-9.7230,-0.003050,-0.001391,-0.000811,36.5268,0.0320,84,0,2,0.000287,0.000306,-0.030770,-0.000373,0.002322,0.013334,-0.9774,-0.9012,0.1864
11156,11.0,0.000081,0.000085,-0.031355,-0.000702,0.002159,0.007801,-0.8891,-0.8245,0.0006,0.00001139,0.00001129,-0.00184470,0.00000251,-0.00014187,0.00583521,-0.1626,0.1596,-9.7401,-0.003113,-0.001969,-0.003773,36.5268,0.0320,91,0,0,0.000251,0.000320,-0.031401,-0.000467,0.002319,0.005507,-0.9799,-0.9038,0.1877
11167,11.0,0.000087,0.000096,-0.031265,-0.000626,0.002085,0.008619,-0.9031,-0.8400,0.0005,0.00001263,0.00001297,-0.00184470,-0.00000230,-0.00013574,0.00583510,-0.1627,0.1685,-9.7269,-0.002984,0.000796,-0.002456,36.5268,0.0320,89,0,0,0.000258,0.000327,-0.031342,-0.000448,0.002260,0.006158,-0.9794,-0.9072,0.1873
11178,11.0,0.000096,0.000102,-0.031156,-0.000728,0.002242,0.009645,-0.9063,-0.8420,0.0011,0.00001267,0.00001300,-0.00184470,-0.00001618,-0.00012130,0.00578219,-0.1635,0.1795,-9.7177,-0.003476,-0.001675,-0.000948,36.5268,0.0320,89,0,0,0.000266,0.000335,-0.031267,-0.000519,0.002204,0.006991,-0.9806,-0.9066,0.1870
11189,11.0,0.000103,0.000086,-0.031597,-0.000614,0.001956,0.003982,-0.9191,-0.8439,0.0011,0.00001389,0.00001294,-0.00184470,0.00001556,-0.00013994,0.00929783,-0.1433,0.1685,-9.7321,-0.002290,-0.001165,-0.002104,36.5268,0.0320,85,1,0,0.000281,0.000351,-0.031652,-0.000570,0.002106,0.003066,-0.9868,-0.9070,0.3870
11201,12.0,0.000083,0.000095,-0.031538,-0.000690,0.002039,0.004793,-0.9225,-0.8437,-0.0003,0.00001393,0.00001290,-0.00184471,0.00002582,-0.00012608,0.00924784,-0.1426,0.1719,-9.7372,-0.003704,-0.000712,-0.004264,36.5268,0.0320,93,0,1,0.000288,0.000334,-0.031610,-0.000515,0.001985,0.003799,-0.9889,-0.9049,0.3863
11212,11.0,0.000090,0.000106,-0.031481,-0.000616,0.002015,0.005687,-0.9419,-0.8507,-0.0005,0.00001718,0.00001385,-0.00184471,0.00001627,-0.00012983,0.00924747,-0.1538,0.1905,-9.7163,-0.001137,-0.001745,-0.002131,36.5268,0.0330,89,0,0,0.000270,0.000341,-0.031569,-0.000471,0.002054,0.004401,-0.9901,-0.9035,0.3850
11223,11.0,0.000099,0.000113,-0.032305,-0.000700,0.002306,-0.003866,-0.9451,-0.8548,-0.0001,0.00001724,0.00001389,-0.00184471,0.00010199,-0.00022247,0.01673210,-0.1640,0.1996,-9.7186,-0.001308,-0.003288,-0.001210,36.5268,0.0330,95,0,0,0.000286,0.000357,-0.032452,-0.000481,0.001998,-0.004315,-0.9952,-0.9026,0.3845
11234,11.0,0.000163,0.000149,-0.032344,-0.000258,0.002396,-0.003249,-0.9484,-0.8607,0.0010,0.00001736,0.00001434,-0.00184469,0.00003193,-0.00023405,0.01673276,-0.1483,0.1638,-9.7346,-0.004831,-0.002037,0.000968,36.5268,0.0330,83,-1,-2,0.000293,0.000365,-0.032492,-0.000477,0.001999,-0.003589,-0.9986,-0.9056,0.3852
11245,11.0,0.000225,0.000157,-0.032367,0.000036,0.002442,-0.002413,-0.9519,-0.8647,0.0017,0.00001745,0.00001463,-0.00184467,-0.00003711,-0.00021276,0.01665194,-0.1573,0.1763,-9.7238,-0.003944,-0.000632,0.000001,36.5268,0.0320,90,0,-2,0.000407,0.000406,-0.032208,-0.000076,0.001993,0.001461,-0.9968,-0.9105,0.3841
11256,11.0,0.000233,0.000165,-0.032168,0.000055,0.002351,0.000919,-0.9557,-0.8695,0.0019,0.00001758,0.00001539,-0.00184468,-0.00007129,-0.00015972,0.01451280,-0.1543,0.1639,-9.7267,-0.004655,-0.003028,-0.001871,36.4343,0.0320,93,0,0,0.000415,0.000413,-0.032155,-0.000056,0.002010,0.002587,-0.9978,-0.9102,0.3849
11267,11.0,0.000215,0.000146,-0.032121,-0.000240,0.002150,0.002044,-0.9581,-0.8698,0.0018,0.00001782,0.00001530,-0.00184469,-0.00005676,-0.00010473,0.01416964,-0.1649,0.1690,-9.7276,-0.000073,-0.002130,-0.003092,36.4343,0.0320,85,1,1,0.000405,0.000426,-0.032089,-0.000212,0.002228,0.003961,-0.9978,-0.9100,0.3840
11278,11.0,0.000194,0.000154,-0.032094,-0.000377,0.002075,0.002884,-0.9596,-0.8738,0.0015,0.00001767,0.00001635,-0.00184471,-0.00002908,-0.00008600,0.01416944,-0.1579,0.1625,-9.7168,-0.002148,-0.001939,-0.003100,36.4343,0.0340,94,0,1,0.000387,0.000408,-0.033193,-0.000287,0.002113,-0.008228,-0.9994,-0.9097,0.3839
11290,12.0,0.000173,0.000164,-0.033114,-0.000484,0.002121,-0.008820,-0.9626,-0.8759,0.0033,0.00001780,0.00001627,-0.00184472,0.00014661,-0.00023908,0.02491963,-0.1508,0.1764,-9.7171,-0.001774,-0.003268,0.000224,36.4343,0.0340,94,0,1,0.000368,0.000415,-0.033272,-0.000359,0.002034,-0.007592,-0.9990,-0.9098,0.3479
11301,11.0,0.000210,0.000203,-0.033208,-0.000256,0.002251,-0.008243,-0.9688,-0.8792,0.0014,0.00001979,0.00001690,-0.00184469,0.00009836,-0.00027124,0.02491944,-0.1525,0.1795,-9.7297,-0.002285,-0.000412,-0.003847,36.4343,0.0340,88,-1,-1,0.000331,0.000430,-0.033361,-0.000475,0.002138,-0.005806,-0.9989,-0.9072,0.3499
11312,11.0,0.000219,0.000211,-0.033250,-0.000354,0.002350,-0.007017,-0.9709,-0.8811,0.0014,0.00001992,0.00001699,-0.00184470,0.00007587,-0.00024116,0.02445448,-0.1651,0.1830,-9.7200,-0.002014,-0.001937,-0.001915,36.4343,0.0330,88,0,0,0.000364,0.000464,-0.033160,-0.000346,0.002210,-0.002407,-0.9998,-0.9064,0.3484
11323,11.0,0.000227,0.000222,-0.033139,-0.000303,0.002344,-0.004088,-0.9828,-0.8815,0.0011,0.00002422,0.00001736,-0.00184469,0.00003479,-0.00022139,0.02257701,-0.1526,0.1937,-9.7165,-0.002817,0.001172,-0.001932,36.4343,0.0330,93,0,0,0.000379,0.000479,-0.033156,-0.000366,0.002314,-0.000704,-1.0037,-0.9074,0.3481
11334,11.0,0.000235,0.000230,-0.033164,-0.000171,0.002489,-0.003222,-0.9856,-0.8821,0.0008,0.00002438,0.00001745,-0.00184469,0.00001854,-0.00019377,0.02240417,-0.1435,0.1902,-9.7245,-0.002876,-0.000095,-0.002425,36.4924,0.0330,90,0,0,0.000387,0.000486,-0.033133,-0.000344,0.002471,0.000219,-1.0040,-0.9065,0.3483
11345,11.0,0.000242,0.000182,-0.033195,-0.000176,0.002108,-0.002510,-0.9931,-0.8901,0.0023,0.00002666,0.00002039,-0.00184473,0.00002788,-0.00010777,0.02240472,-0.1687,0.1788,-9.7198,-0.001163,-0.003135,-0.001076,36.4924,0.0340,93,2,0,0.000395,0.000494,-0.033128,-0.000284,0.002464,0.000802,-1.0071,-0.9045,0.3478
11356,11.0,0.000250,0.000190,-0.033635,-0.000090,0.001997,-0.006976,-0.9952,-0.8931,0.0012,0.00002686,0.00002051,-0.00184473,0.00007736,-0.00015764,0.02651218,-0.1492,0.1669,-9.7417,-0.001880,-0.003896,-0.003771,36.4924,0.0340,89,0,0,0.000411,0.000456,-0.033714,-0.000340,0.002293,-0.003965,-1.0102,-0.9065,0.3482
11367,11.0,0.000257,0.000228,-0.033710,-0.000073,0.002117,-0.006658,-0.9992,-0.8968,0.0011,0.00002853,0.00002225,-0.00184472,0.00007870,-0.00019212,0.02651128,-0.1624,0.1810,-9.7516,-0.002519,-0.000661,-0.001680,36.4924,0.0330,86,-1,0,0.000392,0.000464,-0.033752,-0.000373,0.002104,-0.003647,-1.0092,-0.9074,0.3478
11379,12.0,0.000266,0.000237,-0.033763,-0.000134,0.002188,-0.005743,-0.9999,-0.8997,0.0024,0.00002872,0.00002236,-0.00184472,0.00006160,-0.00016537,0.02628954,-0.1622,0.1835,-9.7270,0.000164,-0.003527,-0.000176,36.4924,0.0330,82,0,0,0.000406,0.000530,-0.033308,-0.000272,0.002315,0.002181,-1.0091,-0.9074,0.3477
11391,12.0,0.000274,0.000249,-0.033355,-0.000091,0.002208,0.000508,-1.0085,-0.9012,0.0025,0.00003277,0.00002221,-0.00184471,-0.00002322,-0.00009956,0.02182150,-0.1531,0.1925,-9.7246,-0.003293,-0.002177,-0.001236,36.5849,0.0330,86,0,0,0.000414,0.000538,-0.033283,-0.000308,0.002234,0.002710,-1.0099,-0.9081,0.4148
11402,11.0,0.000283,0.000285,-0.033357,-0.000113,0.002323,0.000859,-1.0119,-0.9029,0.0027,0.00003263,0.00002234,-0.00184470,-0.00003603,-0.00011711,0.02192194,-0.1608,0.1765,-9.7418,-0.006164,-0.001976,-0.001210,36.5849,0.0330,91,-1,0,0.000421,0.000545,-0.033269,-0.000258,0.002362,0.003085,-1.0107,-0.9082,0.4150
11413,11.0,0.000291,0.000323,-0.033345,-0.000105,0.002470,0.001459,-1.0188,-0.9056,0.0020,0.00003669,0.00002453,-0.00184468,-0.00003137,-0.00016999,0.02192050,-0.1650,0.1947,-9.7302,-0.003144,0.000678,-0.002243,36.5849,0.0330,94,-1,0,0.000437,0.000610,-0.033074,-0.000400,0.002744,0.005526,-1.0147,-0.9107,0.4134
11424,11.0,0.000300,0.000304,-0.033147,-0.000192,0.002307,0.004236,-1.0230,-0.9057,0.0013,0.00003731,0.00002467,-0.00184470,-0.00007244,-0.00007520,0.02030325,-0.1674,0.1810,-9.7234,-0.003462,0.000610,-0.003711,36.5849,0.0330,90,1,0,0.000444,0.000644,-0.033016,-0.000421,0.002844,0.006127,-1.0175,-0.9119,0.4129
11435,11.0,0.000308,0.000283,-0.033097,-0.000136,0.002019,0.004872,-1.0235,-0.9062,0.0013,0.00003392,0.00002415,-0.00184473,-0.00009369,0.00002510,0.02030545,-0.1521,0.1566,-9.7294,-0.005090,-0.001248,-0.002866,36.5849,0.0330,88,1,0,0.000452,0.000626,-0.032951,-0.000567,0.002781,0.006767,-1.0183,-0.9119,0.4129
11446,11.0,0.000317,0.000290,-0.033053,-0.000104,0.002157,0.005361,-1.0258,-0.9084,0.0020,0.00003418,0.00002430,-0.00184474,-0.00010602,0.00004652,0.02042973,-0.1562,0.1947,-9.7272,-0.002521,-0.002732,-0.000922,36.5849,0.0330,87,0,0,0.000443,0.000565,-0.032880,-0.000748,0.002549,0.007348,-1.0182,-0.9102,0.4105
11457,11.0,0.000325,0.000299,-0.032990,-0.000104,0.002106,0.006154,-1.0299,-0.9123,0.0012,0.00003507,0.00002658,-0.00184474,-0.00010059,0.00006320,0.02043292,-0.1654,0.1790,-9.7140,-0.004315,-0.002123,-0.003656,36.5849,0.0330,87,0,0,0.000450,0.000572,-0.032816,-0.000718,0.002582,0.007809,-1.0214,-0.9110,0.4107
11468,11.0,0.000388,0.000361,-0.032929,0.000283,0.002672,0.006751,-1.0298,-0.9171,-0.0013,0.00003446,0.00002766,-0.00184466,-0.00019295,0.00000825,0.02052626,-0.1509,0.2091,-9.7205,-0.002269,-0.003320,-0.003604,36.5849,0.0330,89,-2,-2,0.000465,0.000587,-0.032648,-0.000698,0.002533,0.009061,-1.0213,-0.9134,0.4112
11479,11.0,0.000452,0.000398,-0.032851,0.000619,0.002751,0.007481,-1.0326,-0.9186,0.0002,0.00003574,0.00002707,-0.00184458,-0.00029757,-0.00001520,0.02052733,-0.1502,0.1827,-9.7202,-0.002818,-0.000953,0.002530,36.6087,0.0330,87,-1,-2,0.000523,0.000644,-0.032849,-0.000441,0.002961,0.006493,-1.0208,-0.9153,0.4103
11490,11.0,0.000461,0.000405,-0.032903,0.000532,0.002865,0.006381,-1.0348,-0.9202,0.0023,0.00003621,0.00002714,-0.00184460,-0.00028292,-0.00000090,0.02169528,-0.1660,0.1977,-9.7385,-0.001760,-0.002493,0.001033,36.6087,0.0330,88,0,0,0.000583,0.000679,-0.032781,-0.000322,0.002956,0.007163,-1.0247,-0.9130,0.5643
11501,11.0,0.000470,0.000414,-0.032830,0.000549,0.002769,0.006870,-1.0367,-0.9212,0.0014,0.00003729,0.00002658,-0.00184461,-0.00029251,0.00002669,0.02169580,-0.1553,0.1800,-9.7410,-0.000887,-0.002110,-0.003433,36.6087,0.0330,99,0,0,0.000597,0.000694,-0.032653,-0.000260,0.003056,0.007987,-1.0263,-0.9131,0.5670
11511,10.0,0.000450,0.000421,-0.032782,0.000481,0.002606,0.006871,-1.0388,-0.9214,0.0022,0.00003771,0.00002607,-0.00184466,-0.00025115,0.00005430,0.02188494,-0.1509,0.1716,-9.7587,-0.002179,-0.002052,-0.001721,36.6087,0.0330,91,0,1,0.000605,0.000702,-0.032827,-0.000331,0.002975,0.005701,-1.0262,-0.9132,0.5670
11522,11.0,0.000459,0.000429,-0.032859,0.000552,0.002525,0.005778,-1.0409,-0.9202,0.0023,0.00003859,0.00002243,-0.00184466,-0.00027008,0.00005621,0.02319168,-0.1432,0.1797,-9.7150,-0.001577,-0.002421,-0.001421,36.6087,0.0330,90,0,0,0.000595,0.000717,-0.032727,-0.000380,0.002816,0.006236,-1.0265,-0.9135,0.5680
11533,11.0,0.000467,0.000411,-0.032792,0.000652,0.002171,0.006440,-1.0432,-0.9223,0.0026,0.00003957,0.00002246,-0.00184470,-0.00027210,0.00012412,0.02319653,-0.1484,0.1663,-9.7236,-0.000895,-0.003148,-0.002282,36.5506,0.0330,94,1,0,0.000602,0.000699,-0.032663,-0.000333,0.002661,0.006784,-1.0257,-0.9136,0.5679
11544,11.0,0.000450,0.000419,-0.032720,0.000715,0.002140,0.006755,-1.0457,-0.9173,0.0020,0.00004250,0.00001051,-0.00184469,-0.00034048,0.00012417,0.02319784,-0.1151,0.1885,-9.7558,-0.000276,-0.005901,-0.001609,36.5506,0.0330,89,0,1,0.000610,0.000681,-0.032832,-0.000290,0.002489,0.004694,-1.0251,-0.9145,0.5678
11555,11.0,0.000432,0.000429,-0.032832,0.000466,0.001902,0.005561,-1.0468,-0.9167,-0.0006,0.00004284,0.00000991,-0.00184473,-0.00027688,0.00011421,0.02475508,-0.1665,0.1616,-9.6847,-0.000982,-0.000414,-0.006806,36.5506,0.0330,92,0,1,0.000574,0.000696,-0.032732,-0.000413,0.002431,0.005440,-1.0282,-0.9122,0.5666
11566,11.0,0.000386,0.000437,-0.032767,0.000289,0.001835,0.006234,-1.0476,-0.9143,0.0005,0.00004247,0.00000323,-0.00184478,-0.00025085,0.00014044,0.02475538,-0.1373,0.1769,-9.7214,-0.001261,-0.004415,-0.000900,36.5506,0.0330,89,0,2,0.000582,0.000704,-0.032673,-0.000474,0.002356,0.006190,-1.0277,-0.9139,0.5648
11577,11.0,0.000337,0.000445,-0.032694,0.000143,0.001975,0.007182,-1.0498,-0.9118,0.0008,0.00004280,0.00000191,-0.00184486,-0.00017193,0.00015953,0.02475962,-0.1444,0.1966,-9.6953,-0.002756,0.001088,-0.002874,36.5506,0.0340,89,0,2,0.000537,0.000710,-0.032610,-0.000497,0.002354,0.006726,-1.0273,-0.9147,0.5654
11588,11.0,0.000346,0.000455,-0.033368,0.000203,0.001970,-0.000861,-1.0525,-0.9112,-0.0021,0.00004556,-0.00000032,-0.00184485,-0.00010913,0.00004599,0.03072542,-0.1479,0.1881,-9.6983,-0.001365,-0.000839,-0.005939,36.5506,0.0340,89,0,0,0.000553,0.000725,-0.033509,-0.000645,0.002537,-0.002228,-1.0295,-0.9162,0.4459
11599,11.0,0.000380,0.000464,-0.033375,0.000918,0.001961,-0.000316,-1.0543,-0.9120,-0.0015,0.00004591,0.00000046,-0.00184482,-0.00015214,0.00006547,0.03072861,-0.1034,0.1844,-9.7273,-0.002090,0.000116,-0.000334,36.5506,0.0340,94,0,-1,0.000561,0.000734,-0.033528,-0.000620,0.002552,-0.001653,-1.0302,-0.9163,0.4436
11610,11.0,0.000390,0.000472,-0.033376,0.000990,0.001784,0.000078,-1.0527,-0.9101,-0.0008,0.00003954,-0.00000422,-0.00184485,-0.00019419,0.00014865,0.03073104,-0.1404,0.1578,-9.7411,-0.002487,-0.000980,-0.001286,36.4924,0.0330,92,0,0,0.000593,0.000742,-0.033543,-0.000151,0.002622,-0.001202,-1.0301,-0.9157,0.4438
11621,11.0,0.000397,0.000480,-0.033151,0.001263,0.001672,0.002966,-1.0550,-0.9113,-0.0010,0.00003982,-0.00000433,-0.00184486,-0.00021351,0.00019659,0.02901414,-0.1286,0.1747,-9.7543,-0.003078,-0.001989,-0.002440,36.4924,0.0330,94,0,0,0.000608,0.000757,-0.033162,-0.000177,0.002457,0.003465,-1.0288,-0.9158,0.4427
11632,11.0,0.000406,0.000489,-0.033114,0.001282,0.001640,0.003773,-1.0557,-0.9107,0.0001,0.00004036,-0.00000757,-0.00184486,-0.00023513,0.00020948,0.02901474,-0.1460,0.1815,-9.7048,-0.000317,-0.001868,0.000094,36.4924,0.0330,92,0,0,0.000616,0.000765,-0.033125,-0.000065,0.002404,0.003770,-1.0293,-0.9144,0.4423
11643,11.0,0.000443,0.000470,-0.033047,0.001392,0.001418,0.004643,-1.0586,-0.9110,0.0003,0.00004148,-0.00000687,-0.00184487,-0.00027120,0.00026658,0.02884995,-0.1553,0.1761,-9.7226,-0.002866,0.000731,-0.001701,36.4924,0.0330,86,1,-1,0.000623,0.000772,-0.033058,-0.000069,0.002494,0.004567,-1.0284,-0.9146,0.4440
11654,11.0,0.000452,0.000478,-0.032992,0.001392,0.001361,0.005219,-1.0602,-0.9114,0.0013,0.00004008,-0.00000928,-0.00184489,-0.00028290,0.00029373,0.02883798,-0.1492,0.1764,-9.7279,-0.003322,-0.002669,-0.000381,36.4924,0.0330,87,0,0,0.000665,0.000763,-0.032927,0.000012,0.002106,0.005781,-1.0301,-0.9148,0.4437
11665,11.0,0.000461,0.000486,-0.032914,0.001268,0.001300,0.006053,-1.0613,-0.9133,0.0010,0.00004031,-0.00000945,-0.00184490,-0.00027681,0.00030614,0.02871243,-0.1643,0.1782,-9.7204,-0.001303,-0.003203,-0.002779,36.4924,0.0330,90,0,0,0.000672,0.000770,-0.032866,0.000017,0.002059,0.006283,-1.0305,-0.9151,0.4434
11676,11.0,0.000497,0.000521,-0.032845,0.001366,0.001454,0.006533,-1.0644,-0.9159,-0.0003,0.00004221,-0.00000873,-0.00184483,-0.00030883,0.00025272,0.02871193,-0.1567,0.1900,-9.7346,-0.004131,-0.003155,-0.002657,36.4924,0.0320,89,-1,-1,0.000680,0.000777,-0.032801,0.000035,0.002089,0.006829,-1.0310,-0.9160,0.4427
11687,11.0,0.000478,0.000529,-0.032330,0.001295,0.001412,0.012270,-1.0648,-0.9164,0.0034,0.00004248,-0.00000981,-0.00184489,-0.00030855,0.00032479,0.02546845,-0.1478,0.1815,-9.7290,-0.000041,-0.002236,0.003117,36.4924,0.0320,84,0,1,0.000694,0.000840,-0.032146,0.000132,0.002294,0.012818,-1.0300,-0.9179,0.3326
11698,11.0,0.000487,0.000511,-0.032192,0.001243,0.001337,0.012839,-1.0700,-0.9172,0.0040,0.00004819,-0.00000894,-0.00184493,-0.00029074,0.00033376,0.02546815,-0.1602,0.1961,-9.7295,-0.003965,-0.000961,-0.001280,36.4924,0.0320,84,1,0,0.000659,0.000854,-0.031857,0.000043,0.002404,0.014084,-1.0303,-0.9172,0.3345
11709,11.0,0.000496,0.000520,-0.032026,0.001153,0.000989,0.013717,-1.0723,-0.9189,0.0032,0.00004831,-0.00000908,-0.00184494,-0.00028731,0.00034157,0.02531186,-0.1628,0.1523,-9.7253,-0.003411,-0.002754,-0.003419,36.4924,0.0330,90,0,0,0.000666,0.000836,-0.032480,0.000049,0.002323,0.006010,-1.0321,-0.9170,0.3349
11720,11.0,0.000505,0.000500,-0.032486,0.001103,0.000799,0.006859,-1.0742,-0.9205,0.0027,0.00004666,-0.00000803,-0.00184501,-0.00020127,0.00032982,0.02973351,-0.1613,0.1758,-9.7489,-0.003380,-0.002042,-0.004033,36.4924,0.0330,90,1,0,0.000674,0.000844,-0.032401,0.000000,0.002074,0.006641,-1.0323,-0.9177,0.3343
11731,11.0,0.000514,0.000508,-0.032392,0.001035,0.000818,0.007629,-1.0767,-0.9211,0.0022,0.00004670,-0.00000814,-0.00184502,-0.00019928,0.00033355,0.02961416,-0.1620,0.1854,-9.7250,-0.003943,-0.001125,-0.002712,36.4924,0.0330,86,0,0,0.000690,0.000833,-0.032261,-0.000080,0.001982,0.007479,-1.0323,-0.9189,0.3331
11742,11.0,0.000523,0.000543,-0.032303,0.001090,0.000868,0.008401,-1.0758,-0.9195,0.0036,0.00004073,-0.00001269,-0.00184498,-0.00023556,0.00034114,0.02961503,-0.1452,0.1707,-9.7077,-0.002197,-0.000051,0.000869,36.4924,0.0320,89,-1,0,0.000698,0.000841,-0.032054,-0.000086,0.001958,0.009432,-1.0336,-0.9187,0.3327
11753,11.0,0.000531,0.000550,-0.032069,0.001105,0.000789,0.010448,-1.0763,-0.9219,0.0021,0.00004079,-0.00001285,-0.00184499,-0.00024550,0.00036187,0.02862748,-0.1541,0.1773,-9.7409,-0.000714,-0.003940,-0.004366,36.4581,0.0320,89,0,0,0.000704,0.000873,-0.031957,0.000003,0.001964,0.010054,-1.0334,-0.9175,0.3336
11764,11.0,0.000540,0.000585,-0.031951,0.001000,0.000757,0.010988,-1.0741,-0.9245,0.0035,0.00003011,-0.00000842,-0.00184503,-0.00019994,0.00040923,0.02862780,-0.1705,0.1584,-9.7296,-0.002599,-0.001900,-0.001083,36.4581,0.0330,89,-1,0,0.000719,0.000913,-0.031710,0.000047,0.001857,0.011219,-1.0326,-0.9178,0.3337
11775,11.0,0.000578,0.000621,-0.031792,0.000773,0.000742,0.012190,-1.0750,-0.9259,0.0022,0.00002885,-0.00000715,-0.00184494,-0.00024541,0.00037243,0.02838615,-0.1907,0.1689,-9.7060,-0.002461,-0.001110,-0.002761,36.4581,0.0330,88,-1,-1,0.000752,0.000946,-0.032411,0.000087,0.001860,0.002652,-1.0315,-0.9189,0.3340
11786,11.0,0.000587,0.000629,-0.032387,0.000781,0.000658,0.004227,-1.0743,-0.9269,0.0014,0.00002334,-0.00000818,-0.00184495,-0.00017391,0.00032694,0.03346200,-0.1559,0.1697,-9.7193,-0.001735,-0.002059,-0.003513,36.4581,0.0330,85,0,0,0.000786,0.000980,-0.032381,-0.000101,0.001875,0.003267,-1.0311,-0.9189,0.3335
11797,11.0,0.000596,0.000637,-0.032312,0.000741,0.000644,0.004969,-1.0771,-0.9276,0.0017,0.00002331,-0.00000815,-0.00184495,-0.00017776,0.00032917,0.03327757,-0.1621,0.1818,-9.7348,-0.004369,-0.001201,-0.001488,36.4581,0.0330,93,0,0,0.000802,0.001021,-0.032263,-0.000165,0.001916,0.004667,-1.0330,-0.9179,0.5045
11808,11.0,0.000604,0.000644,-0.032256,0.000776,0.000699,0.005380,-1.0789,-0.9283,0.0019,0.00002607,-0.00001058,-0.00184492,-0.00019934,0.00030425,0.03327743,-0.1528,0.1917,-9.7363,-0.001533,-0.002252,-0.000807,36.4343,0.0320,91,0,0,0.000810,0.001028,-0.032080,-0.000162,0.001911,0.006606,-1.0349,-0.9181,0.5045
11819,11.0,0.000612,0.000626,-0.032057,0.000930,0.000322,0.007527,-1.0830,-0.9291,0.0021,0.00002726,-0.00001068,-0.00184497,-0.00021232,0.00035542,0.03235092,-0.1437,0.1602,-9.7251,-0.005601,-0.001343,-0.002002,36.4343,0.0320,93,1,0,0.000824,0.001043,-0.031902,-0.000023,0.001958,0.007827,-1.0360,-0.9165,0.5053
11831,12.0,0.000621,0.000608,-0.031965,0.000794,0.000286,0.007716,-1.0869,-0.9317,0.0017,0.00003187,-0.00000433,-0.00184503,-0.00015449,0.00035730,0.03234996,-0.1754,0.1946,-9.7585,-0.003497,-0.001149,-0.003382,36.4343,0.0320,85,1,0,0.000831,0.001025,-0.031822,0.000105,0.001794,0.008182,-1.0370,-0.9165,0.5054
11842,11.0,0.000629,0.000588,-0.031834,0.000905,0.000155,0.008787,-1.0884,-0.9334,0.0025,0.00003306,-0.00000441,-0.00184507,-0.00015757,0.00039521,0.03205097,-0.1482,0.1835,-9.7252,-0.001475,-0.002770,-0.001130,36.4343,0.0330,91,1,0,0.000839,0.001007,-0.031671,0.000055,0.001779,0.009125,-1.0391,-0.9178,0.5046
11853,11.0,0.000638,0.000596,-0.032431,0.001105,0.000239,0.000842,-1.0920,-0.9299,0.0008,0.00003530,-0.00001651,-0.00184497,-0.00018434,0.00027787,0.03665590,-0.1299,0.1934,-9.7588,-0.004853,0.000520,-0.002380,36.4343,0.0330,89,0,0,0.000854,0.000996,-0.032459,0.000173,0.001714,0.000552,-1.0397,-0.9185,0.5036
11864,11.0,0.000592,0.000575,-0.032386,0.000795,0.000195,0.001670,-1.0932,-0.9310,0.0005,0.00003658,-0.00001962,-0.00184513,-0.00010759,0.00031479,0.03643016,-0.1621,0.1927,-9.7313,-0.001072,-0.003871,-0.004060,36.4343,0.0330,93,1,2,0.000861,0.001003,-0.032453,0.000370,0.001821,0.000686,-1.0411,-0.9177,0.5033
11875,11.0,0.000628,0.000582,-0.032364,0.000891,0.000191,0.002243,-1.0934,-0.9338,0.0007,0.00003410,-0.00001685,-0.00184508,-0.00013472,0.00032667,0.03643082,-0.1628,0.1820,-9.7184,-0.001432,-0.002979,-0.001369,36.4343,0.0330,92,0,-1,0.000851,0.000992,-0.032740,0.000374,0.001816,-0.001746,-1.0430,-0.9186,0.5029
11886,11.0,0.000636,0.000589,-0.032670,0.001052,0.000136,-0.000907,-1.0963,-0.9358,0.0011,0.00003374,-0.00001699,-0.00184508,-0.00009506,0.00027748,0.03860843,-0.1430,0.1786,-9.7014,-0.004662,-0.003304,-0.001158,36.4343,0.0330,89,0,0,0.000858,0.001024,-0.032755,0.000386,0.001903,-0.001318,-1.0422,-0.9201,0.4707
11897,11.0,0.000645,0.000596,-0.032679,0.001016,0.000128,-0.000733,-1.0973,-0.9384,0.0014,0.00003123,-0.00001608,-0.00184509,-0.00008244,0.00028848,0.03860845,-0.1631,0.1828,-9.7525,-0.002627,-0.003836,-0.001807,36.5162,0.0330,89,0,0,0.000865,0.001031,-0.032750,0.000485,0.001899,-0.000519,-1.0427,-0.9210,0.4714
11908,11.0,0.000654,0.000604,-0.032672,0.000966,0.000196,-0.000008,-1.0990,-0.9393,0.0010,0.00003090,-0.00001619,-0.00184508,-0.00008105,0.00028224,0.03852722,-0.1636,0.1909,-9.7157,-0.002874,-0.001504,-0.002499,36.5162,0.0330,89,0,0,0.000932,0.001071,-0.032908,0.000619,0.001916,-0.001476,-1.0411,-0.9235,0.4709
11919,11.0,0.000663,0.000610,-0.032845,0.001023,0.000007,-0.001558,-1.0975,-0.9410,0.0008,0.00001729,-0.00002104,-0.00184512,-0.00009996,0.00036516,0.03965509,-0.1504,0.1579,-9.7227,-0.002593,-0.004424,-0.003012,36.5162,0.0330,94,0,0,0.000939,0.001079,-0.032908,0.000598,0.001944,-0.000857,-1.0424,-0.9236,0.4711
11931,12.0,0.000643,0.000563,-0.032853,0.001168,-0.000342,-0.001222,-1.0997,-0.9412,0.0034,0.00002011,-0.00002307,-0.00184528,-0.00005655,0.00042845,0.03959215,-0.1359,0.1767,-9.7496,-0.001712,-0.001445,0.000477,36.5162,0.0330,90,2,1,0.000947,0.001087,-0.032914,0.000678,0.001790,-0.000421,-1.0425,-0.9247,0.4708
11942,11.0,0.000597,0.000543,-0.032864,0.000938,-0.000493,-0.000818,-1.1000,-0.9409,0.0050,0.00001627,-0.00002981,-0.00184546,-0.00000293,0.00049056,0.03959246,-0.1544,0.1775,-9.7309,-0.001714,-0.002488,-0.001002,36.5162,0.0330,83,1,2,0.000911,0.000998,-0.032957,0.000697,0.001347,-0.000113,-1.0420,-0.9248,0.4713
11953,11.0,0.000605,0.000551,-0.032924,0.000969,-0.000661,-0.001129,-1.1015,-0.9422,0.0043,0.00001532,-0.00002995,-0.00184543,0.00000526,0.00046431,0.03992403,-0.1569,0.1667,-9.7397,-0.002851,-0.002236,-0.002893,36.4924,0.0330,90,0,0,0.000868,0.000980,-0.032956,0.000571,0.001222,0.000271,-1.0412,-0.9243,0.4720
11964,11.0,0.000587,0.000558,-0.032934,0.000859,-0.000794,-0.000678,-1.0995,-0.9430,0.0047,0.00000199,-0.00003388,-0.00184553,0.00002631,0.00054637,0.03992525,-0.1570,0.1614,-9.7266,-0.001304,-0.002895,-0.002584,36.4924,0.0320,87,0,1,0.000857,0.000995,-0.032913,0.000615,0.000966,0.001363,-1.0412,-0.9237,0.4740
11975,11.0,0.000595,0.000565,-0.032917,0.000928,-0.000791,0.000194,-1.1007,-0.9449,0.0046,0.00000095,-0.00003400,-0.00184550,0.00002662,0.00052800,0.03978884,-0.1535,0.1813,-9.7112,-0.002449,-0.003054,-0.001849,36.4924,0.0320,88,0,0,0.000864,0.001002,-0.032293,0.000646,0.000888,0.008204,-1.0408,-0.9237,0.4734
11985,10.0,0.000682,0.000625,-0.032411,0.001370,-0.000606,0.006435,-1.0983,-0.9471,0.0025,-0.00001242,-0.00003551,-0.00184518,-0.00018051,0.00057045,0.03668400,-0.1476,0.1691,-9.7329,-0.001224,-0.003655,-0.002508,36.4924,0.0320,85,-2,-3,0.000872,0.001009,-0.032209,0.000680,0.000909,0.008703,-1.0408,-0.9236,0.4734
11996,11.0,0.000745,0.000659,-0.032322,0.001580,-0.000516,0.007010,-1.0996,-0.9495,0.0027,-0.00001519,-0.00003232,-0.00184499,-0.00024301,0.00051936,0.03658259,-0.1621,0.1792,-9.7357,-0.003388,-0.002437,0.000064,36.4924,0.0320,90,-1,-2,0.001010,0.001098,-0.031997,0.001156,0.001069,0.009930,-1.0396,-0.9255,0.4478
12007,11.0,0.000754,0.000666,-0.032242,0.001647,-0.000502,0.007632,-1.1007,-0.9487,0.0009,-0.00001950,-0.00003993,-0.00184495,-0.00028807,0.00053007,0.03658352,-0.1478,0.1813,-9.7140,-0.003216,-0.001127,-0.004053,36.4924,0.0330,91,0,0,0.001018,0.001106,-0.032564,0.001212,0.000973,0.003197,-1.0399,-0.9256,0.4475
12018,11.0,0.000735,0.000673,-0.032599,0.001496,-0.000506,0.002665,-1.1033,-0.9501,-0.0762,-0.00002060,-0.00004257,-0.00183109,-0.00015263,0.00050040,0.03927604,-0.1638,0.1801,-9.7494,-0.005745,-0.001937,0.001828,36.4924,0.0330,94,0,1,0.001033,0.001120,-0.032473,0.001293,0.000970,0.004074,-1.0402,-0.9253,0.4465
12029,11.0,0.000717,0.000680,-0.032567,0.001283,-0.000420,0.003242,-1.1048,-0.9517,-0.0752,-0.00002010,-0.00004218,-0.00183116,-0.00008567,0.00047349,0.03927447,-0.1689,0.1920,-9.7149,-0.002327,-0.002743,-0.000887,36.4924,0.0330,93,0,1,0.001016,0.001127,-0.032431,0.001189,0.001005,0.004301,-1.0419,-0.9260,0.4486
12040,11.0,0.000726,0.000688,-0.032509,0.001229,-0.000539,0.003718,-1.1078,-0.9528,-0.0742,-0.00002106,-0.00004254,-0.00183114,-0.00008145,0.00045898,0.03914442,-0.1656,0.1729,-9.7475,-0.005249,-0.001851,-0.000132,36.4924,0.0320,93,0,0,0.000999,0.001133,-0.032135,0.001013,0.001186,0.007492,-1.0418,-0.9259,0.4495
12051,11.0,0.000707,0.000695,-0.032205,0.001112,-0.000457,0.007260,-1.1089,-0.9520,-0.0736,-0.00002080,-0.00004677,-0.00183117,-0.00008196,0.00046295,0.03758893,-0.1591,0.1921,-9.7231,-0.001635,-0.000339,-0.000924,36.4924,0.0320,93,0,1,0.000990,0.001146,-0.031959,0.000823,0.001271,0.008367,-1.0426,-0.9260,0.4508
12062,11.0,0.000715,0.000676,-0.032105,0.001248,-0.000635,0.008140,-1.1115,-0.9537,-0.0735,-0.00001976,-0.00004716,-0.00183121,-0.00007705,0.00048218,0.03749114,-0.1475,0.1786,-9.7073,-0.003844,-0.002883,-0.002103,36.4924,0.0320,85,1,0,0.000972,0.001153,-0.031873,0.000716,0.001307,0.008733,-1.0431,-0.9261,0.4513
12074,12.0,0.000725,0.000683,-0.032004,0.001326,-0.000715,0.008693,-1.1127,-0.9519,-0.0736,-0.00002978,-0.00005376,-0.00183120,-0.00011813,0.00053191,0.03749271,-0.1508,0.1730,-9.7238,-0.004497,0.000819,-0.001924,36.4924,0.0320,90,0,0,0.000980,0.001135,-0.031907,0.000784,0.001250,0.007916,-1.0438,-0.9267,0.4515
12085,11.0,0.000681,0.000664,-0.031940,0.000993,-0.001027,0.008892,-1.1153,-0.9513,-0.0741,-0.00002910,-0.00005831,-0.00183136,-0.00004205,0.00053888,0.03769102,-0.1686,0.1652,-9.7154,-0.003846,-0.000568,-0.003855,36.4924,0.0320,93,1,2,0.000946,0.001125,-0.031721,0.000585,0.000977,0.009044,-1.0459,-0.9245,0.5646
12095,10.0,0.000715,0.000672,-0.031849,0.001190,-0.001030,0.009285,-1.1151,-0.9505,-0.0751,-0.00003709,-0.00006346,-0.00183126,-0.00012540,0.00056617,0.03769285,-0.1490,0.1782,-9.7303,-0.002211,-0.000028,-0.002572,36.5506,0.0320,92,0,-1,0.000979,0.001132,-0.031630,0.000654,0.000928,0.009445,-1.0458,-0.9240,0.5638
12106,11.0,0.000723,0.000679,-0.031744,0.001214,-0.001004,0.009866,-1.1147,-0.9520,-0.0745,-0.00003855,-0.00006387,-0.00183123,-0.00011886,0.00054344,0.03769803,-0.1577,0.1853,-9.7155,0.000065,-0.002685,-0.000655,36.5506,0.0320,90,0,0,0.001011,0.001140,-0.031534,0.000820,0.000934,0.009785,-1.0460,-0.9233,0.5633
12117,11.0,0.000732,0.000712,-0.031826,0.001372,-0.000892,0.008296,-1.1147,-0.9513,-0.0741,-0.00004838,-0.00007686,-0.00183110,-0.00018796,0.00051450,0.03882068,-0.1388,0.1791,-9.7055,-0.002886,-0.002446,0.000175,36.5506,0.0320,95,-1,0,0.001050,0.001154,-0.031730,0.000921,0.000861,0.006799,-1.0458,-0.9239,0.5642
12128,11.0,0.000741,0.000722,-0.031733,0.001485,-0.001118,0.008783,-1.1184,-0.9490,0.1312,-0.00005000,-0.00007753,-0.00187116,-0.00030850,0.00037768,0.03882447,-0.1419,0.1679,-9.7237,-0.003072,-0.000610,-0.001448,36.5506,0.0320,91,0,0,0.001058,0.001186,-0.031659,0.000994,0.000909,0.007273,-1.0455,-0.9235,0.5647
12139,11.0,0.000749,0.000728,-0.031633,0.001420,-0.001100,0.009412,-1.1169,-0.9509,0.1314,-0.00005626,-0.00007683,-0.00187117,-0.00028938,0.00038961,0.03882437,-0.1653,0.1824,-9.7109,0.000704,-0.003005,-0.001989,36.5506,0.0320,91,0,0,0.001065,0.001194,-0.031586,0.001063,0.000774,0.007597,-1.0452,-0.9230,0.5657
12150,11.0,0.000757,0.000735,-0.031780,0.001477,-0.001073,0.006766,-1.1174,-0.9529,0.1327,-0.00005797,-0.00007756,-0.00187115,-0.00025600,0.00033942,0.04025975,-0.1542,0.1858,-9.7395,-0.001458,-0.003579,0.000227,36.5506,0.0320,92,0,0,0.001081,0.001208,-0.031749,0.000883,0.000884,0.005812,-1.0442,-0.9219,0.5656
12161,11.0,0.000766,0.000769,-0.031705,0.001494,-0.000899,0.006954,-1.1164,-0.9526,0.1334,-0.00006356,-0.00008169,-0.00187106,-0.00027163,0.00029726,0.04025919,-0.1567,0.1881,-9.7496,-0.000058,-0.000580,-0.000028,36.5506,0.0320,93,-1,0,0.001088,0.001215,-0.031690,0.000848,0.000923,0.006231,-1.0447,-0.9223,0.5666
12172,11.0,0.000801,0.000776,-0.031627,0.001491,-0.000845,0.007308,-1.1185,-0.9529,0.1329,-0.00006504,-0.00008004,-0.00187097,-0.00029393,0.00027700,0.04026503,-0.1707,0.1889,-9.7332,-0.003833,-0.000124,-0.002179,36.5506,0.0310,90,0,-1,0.001096,0.001246,-0.031626,0.000811,0.000993,0.006490,-1.0433,-0.9226,0.5675
12183,11.0,0.000809,0.000783,-0.031241,0.001556,-0.001012,0.011383,-1.1175,-0.9522,0.1322,-0.00008296,-0.00008773,-0.00187100,-0.00036380,0.00041024,0.03857501,-0.1501,0.1609,-9.7192,-0.003011,-0.000865,-0.003475,36.5506,0.0310,88,0,0,0.001158,0.001260,-0.031112,0.001068,0.001062,0.011149,-1.0427,-0.9233,0.5672
12194,11.0,0.000792,0.000790,-0.031116,0.001406,-0.001164,0.011551,-1.1207,-0.9518,0.1321,-0.00008477,-0.00009079,-0.00187104,-0.00032336,0.00038613,0.03857919,-0.1632,0.1696,-9.7523,-0.005546,-0.000390,-0.002330,36.5506,0.0310,89,0,1,0.001165,0.001268,-0.030997,0.001121,0.000949,0.011673,-1.0422,-0.9213,0.6031
12205,11.0,0.000774,0.000797,-0.030987,0.001345,-0.001229,0.011870,-1.1196,-0.9511,0.1327,-0.00009704,-0.00009980,-0.00187109,-0.00032672,0.00043786,0.03858014,-0.1521,0.1727,-9.7398,-0.001414,-0.001181,-0.001363,36.5506,0.0320,93,0,1,0.001131,0.001281,-0.031496,0.001036,0.000891,0.004139,-1.0445,-0.9196,0.6021
12216,11.0,0.000809,0.000804,-0.031476,0.001555,-0.001232,0.004956,-1.1212,-0.9529,0.1337,-0.00009926,-0.00009818,-0.00187099,-0.00029258,0.00034807,0.04199440,-0.1511,0.1827,-9.7365,-0.003148,-0.002518,0.000238,36.5506,0.0320,91,0,-1,0.001163,0.001289,-0.031454,0.001188,0.000842,0.004382,-1.0444,-0.9201,0.6026
12227,11.0,0.000817,0.000784,-0.031419,0.001556,-0.001387,0.005298,-1.1219,-0.9545,0.1345,-0.00010783,-0.00010202,-0.00187106,-0.00030464,0.00042012,0.04199591,-0.1580,0.1757,-9.7341,-0.003353,-0.003622,-0.001375,36.5506,0.0310,91,1,0,0.001228,0.001304,-0.031362,0.001343,0.000761,0.004797,-1.0466,-0.9199,0.6038
12238,11.0,0.000799,0.000767,-0.031348,0.001554,-0.001737,0.005703,-1.1238,-0.9527,0.1789,-0.00010781,-0.00010541,-0.00188079,-0.00029542,0.00039452,0.04192998,-0.1480,0.1614,-9.7415,-0.002299,0.000901,-0.002045,36.5162,0.0310,91,1,1,0.001236,0.001286,-0.031113,0.001321,0.000663,0.007273,-1.0473,-0.9204,0.6045
12249,11.0,0.000808,0.000774,-0.031123,0.001573,-0.001892,0.007851,-1.1221,-0.9521,0.1801,-0.00012877,-0.00011010,-0.00188081,-0.00032760,0.00051116,0.04106326,-0.1561,0.1594,-9.7411,-0.002321,-0.000265,-0.000735,36.5162,0.0310,95,0,0,0.001220,0.001270,-0.031039,0.001305,0.000433,0.007504,-1.0476,-0.9188,0.6046
12260,11.0,0.000816,0.000782,-0.031026,0.001562,-0.002124,0.008326,-1.1224,-0.9531,0.1786,-0.00013171,-0.00011097,-0.00188077,-0.00031788,0.00047721,0.04101320,-0.1604,0.1588,-9.7329,-0.001456,-0.001902,-0.003969,36.5162,0.0310,91,0,0,0.001234,0.001285,-0.030868,0.001339,0.000152,0.008387,-1.0464,-0.9178,0.6052
12271,11.0,0.000825,0.000788,-0.030933,0.001589,-0.002124,0.008575,-1.1233,-0.9528,0.1788,-0.00014375,-0.00011638,-0.00188074,-0.00033974,0.00050708,0.04101405,-0.1552,0.1764,-9.7436,-0.004262,-0.000774,-0.001604,36.5162,0.0310,88,0,0,0.001242,0.001291,-0.030907,0.001322,0.000088,0.007322,-1.0455,-0.9177,0.6049
12282,11.0,0.000833,0.000794,-0.030913,0.001620,-0.001942,0.008094,-1.1233,-0.9534,0.1784,-0.00014665,-0.00011736,-0.00188069,-0.00032178,0.00046685,0.04142411,-0.1561,0.1972,-9.7275,-0.000897,-0.001329,-0.002318,36.5162,0.0310,93,0,0,0.001249,0.001298,-0.030823,0.001317,0.000029,0.007716,-1.0464,-0.9171,0.6051
12293,11.0,0.000841,0.000800,-0.030819,0.001613,-0.002067,0.009056,-1.1227,-0.9551,0.1803,-0.00016746,-0.00012157,-0.00188071,-0.00033466,0.00056035,0.04142596,-0.1578,0.1611,-9.6786,-0.003931,-0.003775,0.000287,36.5162,0.0310,93,0,0,0.001263,0.001312,-0.030649,0.001474,0.000072,0.008251,-1.0456,-0.9176,0.5122
12304,11.0,0.000901,0.000858,-0.030706,0.001874,-0.001776,0.009505,-1.1228,-0.9561,0.1801,-0.00017565,-0.00011737,-0.00188041,-0.00038164,0.00047089,0.04136307,-0.1560,0.1867,-9.7372,-0.002123,-0.000730,-0.000733,36.5162,0.0310,93,-2,-2,0.001271,0.001318,-0.030819,0.001457,0.000034,0.005965,-1.0451,-0.9186,0.5127
12315,11.0,0.000910,0.000864,-0.030812,0.001840,-0.001657,0.007589,-1.1233,-0.9579,0.1814,-0.00017817,-0.00012062,-0.00188037,-0.00036315,0.00042059,0.04248336,-0.1607,0.1927,-9.7127,-0.001598,-0.003779,0.000352,36.5162,0.0310,93,0,0,0.001325,0.001373,-0.030760,0.001720,0.000209,0.005901,-1.0452,-0.9186,0.5123
12326,11.0,0.000893,0.000845,-0.030718,0.001663,-0.001887,0.008043,-1.1258,-0.9581,0.1800,-0.00017825,-0.00012443,-0.00188047,-0.00032304,0.00042034,0.04243542,-0.1656,0.1709,-9.7330,-0.004147,-0.001372,-0.004435,36.5162,0.0310,92,1,1,0.001341,0.001362,-0.030621,0.001600,0.000144,0.006948,-1.0454,-0.9200,0.5117
12337,11.0,0.000875,0.000825,-0.030627,0.001589,-0.001991,0.008496,-1.1273,-0.9573,0.1803,-0.00018677,-0.00013394,-0.00188057,-0.00032326,0.00047546,0.04243638,-0.1542,0.1788,-9.7236,-0.004517,-0.000829,-0.002020,36.5162,0.0310,92,1,1,0.001325,0.001344,-0.030813,0.001479,0.000037,0.004299,-1.0453,-0.9202,0.5104
12348,11.0,0.000883,0.000832,-0.030775,0.001571,-0.002155,0.006161,-1.1256,-0.9594,-0.0060,-0.00019024,-0.00013493,-0.00183504,-0.00014846,0.00054152,0.04369580,-0.1671,0.1603,-9.7182,-0.001296,-0.000121,-0.000285,36.5162,0.0310,89,0,0,0.001292,0.001333,-0.030708,0.001253,-0.000062,0.005214,-1.0463,-0.9191,0.5103
12359,11.0,0.000891,0.000839,-0.030705,0.001665,-0.002142,0.006545,-1.1265,-0.9581,-0.0059,-0.00020207,-0.00014565,-0.00183498,-0.00020388,0.00056663,0.04369706,-0.1477,0.1785,-9.7286,-0.004101,-0.000430,-0.001164,36.5162,0.0310,90,0,0,0.001300,0.001340,-0.030639,0.001194,-0.000167,0.005818,-1.0457,-0.9185,0.5103
12371,12.0,0.000902,0.000844,-0.030626,0.001611,-0.002340,0.006878,-1.1274,-0.9596,-0.0055,-0.00020561,-0.00014667,-0.00183493,-0.00019323,0.00053088,0.04370361,-0.1648,0.1647,-9.7345,-0.002285,-0.002409,-0.001187,36.5506,0.0310,89,0,0,0.001307,0.001347,-0.030580,0.001222,-0.000198,0.006145,-1.0456,-0.9172,0.5110
12382,11.0,0.000910,0.000850,-0.030791,0.001678,-0.002411,0.004568,-1.1253,-0.9601,-0.0058,-0.00022454,-0.00015623,-0.00183489,-0.00021843,0.00057406,0.04494301,-0.1504,0.1675,-9.7156,-0.000776,-0.003032,-0.002273,36.5506,0.0310,89,0,0,0.001322,0.001360,-0.030793,0.001141,-0.000281,0.003379,-1.0429,-0.9198,0.5099
12393,11.0,0.000944,0.000883,-0.030740,0.001761,-0.002263,0.004981,-1.1256,-0.9611,-0.0078,-0.00023104,-0.00015448,-0.00183470,-0.00023513,0.00051037,0.04494745,-0.1625,0.1828,-9.7233,-0.002116,-0.001370,-0.004283,36.5506,0.0310,86,-1,-1,0.001329,0.001367,-0.030756,0.001226,-0.000332,0.003962,-1.0416,-0.9206,0.4516
12404,11.0,0.000952,0.000889,-0.030684,0.001946,-0.002108,0.005222,-1.1279,-0.9584,-0.0083,-0.00023306,-0.00017260,-0.00183458,-0.00033303,0.00046846,0.04494816,-0.1365,0.1954,-9.7403,-0.004247,0.000376,-0.001037,36.5506,0.0310,84,0,0,0.001367,0.001404,-0.030866,0.001290,-0.000335,0.002597,-1.0406,-0.9208,0.4518
12415,11.0,0.000935,0.000896,-0.030826,0.001740,-0.002159,0.003047,-1.1300,-0.9583,-0.0084,-0.00023671,-0.00017689,-0.00183460,-0.00027587,0.00041624,0.04594850,-0.1682,0.1765,-9.7479,-0.004381,-0.000822,-0.002111,36.5506,0.0310,88,0,1,0.001351,0.001411,-0.030840,0.001279,-0.000258,0.002763,-1.0411,-0.9188,0.4523
12426,11.0,0.000944,0.000876,-0.030790,0.001732,-0.002139,0.003432,-1.1318,-0.9570,-0.0089,-0.00023757,-0.00018090,-0.00183461,-0.00028299,0.00041426,0.04594855,-0.1593,0.1931,-9.7259,-0.003287,0.001028,-0.002412,36.5506,0.0310,95,1,0,0.001334,0.001417,-0.030812,0.001120,-0.000219,0.002903,-1.0417,-0.9182,0.4519
12437,11.0,0.000979,0.000908,-0.030753,0.001761,-0.002020,0.003582,-1.1340,-0.9596,-0.0100,-0.00024392,-0.00017906,-0.00183442,-0.00029953,0.00035548,0.04595450,-0.1675,0.1831,-9.7458,-0.005038,-0.003945,-0.002893,36.5506,0.0310,92,-1,-1,0.001350,0.001406,-0.030875,0.001061,-0.000181,0.002375,-1.0434,-0.9169,0.4521
12448,11.0,0.000988,0.000915,-0.030863,0.001665,-0.002132,0.002337,-1.1314,-0.9614,-0.0098,-0.00026494,-0.00017723,-0.00183446,-0.00025641,0.00042415,0.04670862,-0.1696,0.1653,-9.7129,-0.000381,-0.002546,-0.002779,36.5506,0.0310,86,0,0,0.001381,0.001436,-0.030850,0.001083,-0.000131,0.002613,-1.0439,-0.9186,0.4519
12459,11.0,0.000995,0.000923,-0.030836,0.001857,-0.002412,0.002794,-1.1322,-0.9631,-0.1249,-0.00026883,-0.00017860,-0.00180362,-0.00014922,0.00047063,0.04671279,-0.1452,0.1518,-9.7184,-0.004168,-0.000961,-0.003142,36.5506,0.0310,86,0,0,0.001396,0.001451,-0.030791,0.001027,-0.000300,0.003391,-1.0431,-0.9169,0.4510
12469,10.0,0.000949,0.000906,-0.030807,0.001657,-0.002589,0.003007,-1.1306,-0.9624,-0.1247,-0.00028682,-0.00019205,-0.00180382,-0.00012253,0.00057322,0.04671412,-0.1552,0.1660,-9.7394,-0.001583,-0.001869,-0.002797,36.5506,0.0310,92,1,2,0.001404,0.001458,-0.030905,0.000989,-0.000355,0.002116,-1.0432,-0.9163,0.4515
12480,11.0,0.000957,0.000886,-0.030890,0.001704,-0.002661,0.002000,-1.1324,-0.9635,-0.1252,-0.00028799,-0.00019331,-0.00180382,-0.00010187,0.00055263,0.04729425,-0.1559,0.1833,-9.7257,-0.003303,-0.002053,-0.002659,36.5506,0.0310,94,1,0,0.001363,0.001440,-0.030884,0.000832,-0.000446,0.002277,-1.0423,-0.9167,0.4513
12491,11.0,0.000966,0.000892,-0.030867,0.001668,-0.002815,0.002193,-1.1318,-0.9644,-0.1246,-0.00031478,-0.00019530,-0.00180384,-0.00009745,0.00065942,0.04729600,-0.1638,0.1579,-9.7426,-0.004728,-0.002106,-0.001860,36.5506,0.0310,91,0,0,0.001371,0.001422,-0.030860,0.000883,-0.000501,0.002430,-1.0428,-0.9170,0.4306
12503,12.0,0.001002,0.000921,-0.030840,0.001855,-0.002605,0.002441,-1.1314,-0.9661,-0.1255,-0.00032227,-0.00019353,-0.00180363,-0.00011219,0.00059525,0.04730154,-0.1545,0.1894,-9.7377,-0.000893,-0.002245,-0.002366,36.5506,0.0310,87,-1,-1,0.001386,0.001435,-0.030920,0.000730,-0.000571,0.001639,-1.0424,-0.9167,0.4310
12514,11.0,0.001062,0.000980,-0.030909,0.002143,-0.002578,0.001636,-1.1278,-0.9660,-0.1254,-0.00035829,-0.00019821,-0.00180333,-0.00020435,0.00065797,0.04777382,-0.1505,0.1531,-9.7301,-0.001728,-0.001073,-0.001265,36.5506,0.0310,92,-2,-2,0.001417,0.001466,-0.030902,0.000808,-0.000459,0.001847,-1.0418,-0.9159,0.4307
12525,11.0,0.001071,0.000985,-0.030891,0.002156,-0.002485,0.001949,-1.1309,-0.9677,-0.1249,-0.00036240,-0.00020006,-0.00180329,-0.00018869,0.00062344,0.04777776,-0.1581,0.1886,-9.7297,-0.006016,-0.003203,-0.000927,36.5506,0.0310,90,0,0,0.001480,0.001529,-0.030862,0.001005,-0.000554,0.002251,-1.0402,-0.9160,0.4310
12536,11.0,0.001080,0.000992,-0.030867,0.002092,-0.002450,0.002302,-1.1297,-0.9670,-0.1246,-0.00037461,-0.00020204,-0.00180327,-0.00017476,0.00063957,0.04777773,-0.1653,0.1808,-9.7270,-0.000740,0.000541,-0.001615,36.5506,0.0310,96,0,0,0.001487,0.001535,-0.030930,0.000983,-0.000471,0.001522,-1.0412,-0.9159,0.4310
12547,11.0,0.001087,0.000998,-0.030923,0.002218,-0.002468,0.001654,-1.1300,-0.9696,-0.1259,-0.00037881,-0.00020406,-0.00180323,-0.00015178,0.00059847,0.04816683,-0.1476,0.1789,-9.7312,-0.001566,-0.004654,-0.003718,36.5506,0.0310,91,0,0,0.001502,0.001548,-0.030895,0.000878,-0.000447,0.002189,-1.0420,-0.9172,0.4297
12558,11.0,0.001070,0.001004,-0.030903,0.002061,-0.002378,0.001904,-1.1313,-0.9706,-0.1233,-0.00038648,-0.00021084,-0.00180327,-0.00012090,0.00058841,0.04816603,-0.1636,0.1880,-9.7360,-0.003799,-0.003099,0.002132,36.5506,0.0310,94,0,1,0.001510,0.001554,-0.030873,0.000888,-0.000425,0.002482,-1.0416,-0.9177,0.4286
12569,11.0,0.001027,0.001011,-0.030882,0.001929,-0.002552,0.002144,-1.1307,-0.9718,-0.1667,-0.00039080,-0.00021902,-0.00179032,-0.00001674,0.00058699,0.04817043,-0.1538,0.1635,-9.7360,-0.001061,-0.002841,-0.001549,36.5506,0.0300,89,0,2,0.001494,0.001559,-0.030337,0.000784,-0.000316,0.008272,-1.0417,-0.9184,0.4304
12580,11.0,0.001036,0.001017,-0.030384,0.001831,-0.002755,0.007597,-1.1273,-0.9744,-0.1665,-0.00042007,-0.00021727,-0.00179037,-0.00002253,0.00075177,0.04595541,-0.1717,0.1536,-9.7657,-0.000540,-0.003860,-0.003007,36.5506,0.0300,90,0,0,0.001414,0.001571,-0.030169,0.000528,-0.000309,0.008509,-1.0384,-0.9177,0.4301
12591,11.0,0.001070,0.000999,-0.030272,0.001761,-0.002907,0.008508,-1.1276,-0.9741,-0.1656,-0.00042169,-0.00021542,-0.00179029,-0.00003885,0.00074121,0.04583440,-0.1778,0.1738,-9.7056,-0.001157,0.000516,0.000020,36.4581,0.0300,91,1,-1,0.001421,0.001577,-0.030082,0.000478,-0.000428,0.008835,-1.0350,-0.9196,0.3809
12602,11.0,0.001079,0.001005,-0.030176,0.001766,-0.002910,0.008961,-1.1273,-0.9744,-0.1665,-0.00043903,-0.00022131,-0.00179024,-0.00005615,0.00078102,0.04583527,-0.1599,0.1737,-9.7202,-0.003248,-0.001830,-0.003380,36.4581,0.0310,92,0,0,0.001452,0.001561,-0.029940,0.000390,-0.000569,0.009811,-1.0347,-0.9187,0.3819
12613,11.0,0.001087,0.000985,-0.030554,0.001719,-0.003058,0.004244,-1.1276,-0.9758,-0.1656,-0.00044125,-0.00022283,-0.00179023,-0.00000782,0.00072607,0.04805250,-0.1656,0.1734,-9.6810,-0.001267,-0.002676,-0.000442,36.4581,0.0310,88,1,0,0.001467,0.001551,-0.030531,0.000226,-0.000658,0.003113,-1.0333,-0.9189,0.3817
12624,11.0,0.001095,0.000990,-0.030505,0.001735,-0.002945,0.004518,-1.1283,-0.9767,-0.1667,-0.00044995,-0.00022931,-0.00179014,-0.00002891,0.00071120,0.04805246,-0.1593,0.1875,-9.7340,-0.003077,-0.002882,-0.003227,36.4581,0.0310,96,0,0,0.001475,0.001533,-0.030497,0.000134,-0.000695,0.003710,-1.0329,-0.9200,0.3828
12635,11.0,0.001079,0.001021,-0.030422,0.001576,-0.002781,0.005157,-1.1280,-0.9779,-0.1665,-0.00045809,-0.00023391,-0.00179007,0.00000318,0.00065268,0.04789622,-0.1677,0.1842,-9.7364,-0.001384,-0.002912,-0.001132,36.4581,0.0300,89,-1,1,0.001483,0.001538,-0.030458,0.000065,-0.000528,0.003999,-1.0328,-0.9204,0.3838
12647,12.0,0.001063,0.001026,-0.030155,0.001472,-0.003059,0.007766,-1.1250,-0.9768,-0.1663,-0.00049276,-0.00024138,-0.00179018,0.00000137,0.00081389,0.04697835,-0.1626,0.1470,-9.7386,-0.002063,0.000226,-0.002750,36.5162,0.0300,89,0,1,0.001473,0.001574,-0.030064,-0.000032,-0.000386,0.007199,-1.0339,-0.9205,0.3835
12658,11.0,0.001046,0.001033,-0.030060,0.001413,-0.003236,0.008055,-1.1257,-0.9766,-0.1659,-0.00049834,-0.00024582,-0.00179016,0.00003337,0.00077353,0.04693671,-0.1593,0.1607,-9.7436,-0.002620,-0.000708,-0.001057,36.5162,0.0300,89,0,1,0.001441,0.001588,-0.029903,-0.000214,-0.000611,0.007844,-1.0342,-0.9186,0.3838
12669,11.0,0.001080,0.001039,-0.029969,0.001593,-0.003157,0.008433,-1.1250,-0.9778,-0.1675,-0.00051067,-0.00025209,-0.00178997,-0.00003650,0.00077693,0.04693779,-0.1542,0.1820,-9.7258,-0.001574,-0.003365,-0.003697,36.5162,0.0310,89,0,-1,0.001472,0.001619,-0.030522,-0.000101,-0.000632,0.000337,-1.0323,-0.9181,0.3845
12680,11.0,0.001114,0.001071,-0.030478,0.001793,-0.003061,0.001826,-1.1255,-0.9788,-0.1626,-0.00052034,-0.00025014,-0.00179175,-0.00000986,0.00065692,0.04963920,-0.1544,0.1754,-9.7241,-0.002772,-0.001519,-0.003214,36.5162,0.0310,95,-1,-1,0.001503,0.001625,-0.030508,0.000027,-0.000575,0.000681,-1.0318,-0.9192,0.3836
12691,11.0,0.001122,0.001077,-0.030456,0.001814,-0.003102,0.002214,-1.1242,-0.9793,-0.1619,-0.00054155,-0.00025767,-0.00179170,-0.00003557,0.00071523,0.04964051,-0.1585,0.1683,-9.7225,-0.002444,-0.002470,-0.000843,36.5162,0.0310,88,0,0,0.001541,0.001662,-0.030490,0.000194,-0.000350,0.001120,-1.0338,-0.9184,0.3917
12702,11.0,0.001131,0.001083,-0.030419,0.001645,-0.002975,0.002521,-1.1241,-0.9804,-0.1622,-0.00054684,-0.00025901,-0.00179162,-0.00002682,0.00067874,0.04958793,-0.1791,0.1892,-9.7412,-0.001216,-0.002203,-0.002057,36.5162,0.0310,85,0,0,0.001548,0.001668,-0.030776,0.000195,-0.000347,-0.001848,-1.0330,-0.9193,0.3921
12713,11.0,0.001139,0.001063,-0.030717,0.001722,-0.002963,-0.000927,-1.1247,-0.9801,-0.1627,-0.00055208,-0.00027026,-0.00179158,-0.00005092,0.00065968,0.05103941,-0.1529,0.1877,-9.7248,-0.002391,-0.001968,-0.002163,36.5162,0.0310,95,1,0,0.001556,0.001674,-0.030794,0.000034,-0.000220,-0.001685,-1.0322,-0.9197,0.3922
12724,11.0,0.001147,0.001043,-0.030718,0.001773,-0.003123,-0.000777,-1.1253,-0.9813,-0.1628,-0.00055397,-0.00027180,-0.00179157,-0.00004086,0.00064714,0.05099909,-0.1588,0.1732,-9.7521,-0.001856,-0.002322,-0.001973,36.5162,0.0310,90,1,0,0.001571,0.001638,-0.030810,0.000046,-0.000147,-0.001145,-1.0312,-0.9199,0.3926
12735,11.0,0.001155,0.001050,-0.030725,0.001911,-0.003058,-0.000494,-1.1241,-0.9796,-0.1628,-0.00056731,-0.00028812,-0.00179145,-0.00011747,0.00065691,0.05100035,-0.1455,0.1806,-9.7306,-0.001000,-0.000664,-0.001111,36.5744,0.0310,96,0,0,0.001578,0.001645,-0.030929,0.000057,-0.000104,-0.002154,-1.0311,-0.9201,0.3926
12746,11.0,0.001164,0.001056,-0.030877,0.001931,-0.003000,-0.002022,-1.1260,-0.9807,-0.1643,-0.00057287,-0.00028992,-0.00179137,-0.00009410,0.00060779,0.05164625,-0.1608,0.1829,-9.7386,-0.004477,-0.002223,-0.004003,36.5744,0.0310,90,0,0,0.001584,0.001651,-0.030949,0.000163,-0.000029,-0.001864,-1.0303,-0.9196,0.3929
12757,11.0,0.001172,0.001061,-0.030896,0.002094,-0.002990,-0.001377,-1.1255,-0.9807,-0.1650,-0.00059029,-0.00030970,-0.00179127,-0.00018827,0.00064517,0.05164828,-0.1409,0.1743,-9.6972,-0.002978,-0.004011,-0.002197,36.5744,0.0310,89,0,0,0.001598,0.001689,-0.030993,0.000230,0.000111,-0.001316,-1.0298,-0.9188,0.3915
12768,11.0,0.001154,0.001067,-0.030919,0.001919,-0.002902,-0.001144,-1.1256,-0.9806,-0.1651,-0.00059566,-0.00031519,-0.00179128,-0.00015055,0.00060816,0.05169192,-0.1682,0.1858,-9.7229,-0.001605,-0.001014,-0.002033,36.5744,0.0310,90,0,1,0.001605,0.001695,-0.030996,0.000310,0.000130,-0.000802,-1.0297,-0.9190,0.3907
12779,11.0,0.001162,0.001074,-0.030962,0.001925,-0.003099,-0.001042,-1.1216,-0.9813,-0.1656,-0.00062878,-0.00032228,-0.00179131,-0.00016845,0.00073427,0.05183692,-0.1600,0.1502,-9.7118,-0.000380,-0.002634,-0.003421,36.5744,0.0310,87,0,0,0.001571,0.001708,-0.031016,0.000201,0.000100,-0.000310,-1.0277,-0.9189,0.3903
12790,11.0,0.001171,0.001079,-0.030980,0.001897,-0.002877,-0.000870,-1.1243,-0.9826,-0.0763,-0.00063409,-0.00032409,-0.00182356,-0.00024384,0.00062218,0.05187037,-0.1632,0.2003,-9.7307,-0.004207,-0.004464,-0.002170,36.5744,0.0300,88,0,0,0.001579,0.001716,-0.031018,0.000178,-0.000105,-0.000023,-1.0277,-0.9185,0.4505
12801,11.0,0.001179,0.001110,-0.030987,0.001901,-0.002675,-0.000403,-1.1240,-0.9827,-0.0769,-0.00064725,-0.00033077,-0.00182341,-0.00026122,0.00059291,0.05186995,-0.1609,0.1856,-9.7126,-0.002314,-0.001751,-0.002351,36.5744,0.0300,94,-1,0,0.001586,0.001721,-0.030412,0.000155,0.000018,0.006835,-1.0296,-0.9203,0.4502
12812,11.0,0.001187,0.001116,-0.030450,0.001947,-0.002659,0.006369,-1.1236,-0.9843,-0.0779,-0.00065179,-0.00033241,-0.00182335,-0.00028807,0.00060452,0.04956937,-0.1585,0.1801,-9.7091,-0.000745,-0.003089,-0.003393,36.5744,0.0300,90,0,0,0.001600,0.001757,-0.030277,0.000043,0.000251,0.007476,-1.0295,-0.9211,0.4506
12823,11.0,0.001221,0.001122,-0.030378,0.002043,-0.002667,0.006787,-1.1227,-0.9839,-0.0772,-0.00066904,-0.00033463,-0.00182323,-0.00032169,0.00064492,0.04957054,-0.1626,0.1738,-9.7195,-0.002280,-0.000132,-0.000650,36.5744,0.0300,94,0,-1,0.001607,0.001763,-0.030200,0.000007,0.000345,0.007946,-1.0284,-0.9220,0.4493
12834,11.0,0.001253,0.001128,-0.030315,0.002389,-0.002572,0.006328,-1.1238,-0.9862,-0.0765,-0.00067389,-0.00033353,-0.00182310,-0.00032783,0.00061311,0.04961489,-0.1409,0.1890,-9.7882,-0.003165,-0.003795,-0.000440,36.5744,0.0300,94,0,-1,0.001637,0.001769,-0.030043,0.000079,0.000374,0.009161,-1.0288,-0.9218,0.4494
12845,11.0,0.001261,0.001132,-0.030112,0.002389,-0.002466,0.005699,-1.1274,-0.9897,-0.0774,-0.00067712,-0.00033891,-0.00182304,-0.00033962,0.00058861,0.04899627,-0.1650,0.1949,-9.9692,-0.006893,-0.006752,-0.003043,36.5744,0.0300,90,0,0,0.001674,0.001780,-0.029842,0.000204,0.000707,0.009245,-1.0291,-0.9241,0.4492
12856,11.0,0.001270,0.001140,-0.030052,0.002396,-0.002796,0.006608,-1.1284,-0.9901,-0.0778,-0.00068245,-0.00034147,-0.00182298,-0.00032279,0.00055430,0.04902994,-0.1607,0.1475,-9.6674,-0.003087,-0.001456,-0.002321,36.5744,0.0310,90,0,0,0.001682,0.001786,-0.029767,0.000143,0.000785,0.008246,-1.0305,-0.9251,0.4489
12867,11.0,0.001279,0.001146,-0.029978,0.002394,-0.002828,0.006817,-1.1270,-0.9916,-0.0766,-0.00070174,-0.00034987,-0.00182296,-0.00034179,0.00060489,0.04903101,-0.1609,0.1717,-9.7392,-0.001762,-0.004189,-0.000283,36.5744,0.0310,91,0,0,0.001696,0.001775,-0.030452,0.000258,0.000611,0.001407,-1.0305,-0.9259,0.4479
12878,11.0,0.001287,0.001126,-0.030474,0.002362,-0.002868,0.000901,-1.1273,-0.9918,-0.0766,-0.00070380,-0.00035274,-0.00182299,-0.00028522,0.00054815,0.05142782,-0.1650,0.1840,-9.6877,-0.001513,-0.001137,-0.001776,36.4581,0.0310,91,1,0,0.001703,0.001782,-0.030404,0.000309,0.000625,0.001962,-1.0304,-0.9262,0.4481
12889,11.0,0.001270,0.001106,-0.030463,0.002241,-0.002954,0.001043,-1.1274,-0.9919,-0.0749,-0.00071569,-0.00036344,-0.00182313,-0.00027438,0.00059795,0.05142843,-0.1630,0.1776,-9.7427,-0.003110,-0.002377,0.000368,36.4581,0.0310,90,1,1,0.001710,0.001764,-0.030382,0.000345,0.000703,0.002329,-1.0294,-0.9270,0.3763
12900,11.0,0.001278,0.001113,-0.030415,0.002185,-0.003146,0.002084,-1.1281,-0.9950,-0.1977,-0.00072130,-0.00036568,-0.00177415,-0.00013545,0.00067663,0.05128812,-0.1711,0.1566,-9.6969,-0.004823,-0.003110,0.000259,36.4581,0.0300,91,0,0,0.001677,0.001729,-0.030092,0.000357,0.000553,0.004987,-1.0302,-0.9267,0.3777
12911,11.0,0.001261,0.001119,-0.030173,0.002073,-0.003125,0.004692,-1.1273,-0.9948,-0.2003,-0.00073779,-0.00037582,-0.00177419,-0.00014154,0.00072239,0.05038534,-0.1637,0.1766,-9.7504,-0.002451,-0.001679,-0.006041,36.4581,0.0300,93,0,1,0.001684,0.001735,-0.030040,0.000306,0.000524,0.005372,-1.0303,-0.9280,0.3791
12922,11.0,0.001244,0.001150,-0.030095,0.002009,-0.003007,0.005159,-1.1262,-0.9948,-0.2008,-0.00074724,-0.00038160,-0.00177412,-0.00010804,0.00066684,0.05027731,-0.1608,0.1792,-9.7415,-0.000355,-0.001231,-0.002498,36.4581,0.0300,90,-1,1,0.001668,0.001742,-0.029951,0.000224,0.000534,0.005889,-1.0301,-0.9277,0.3779
12933,11.0,0.001280,0.001183,-0.030039,0.002072,-0.003016,0.005169,-1.1247,-0.9982,-0.2031,-0.00077800,-0.00038058,-0.00177396,-0.00012575,0.00073453,0.05027863,-0.1695,0.1605,-9.7562,-0.003911,-0.005657,-0.005724,36.5162,0.0320,90,-1,-1,0.001684,0.001804,-0.031136,0.000107,0.000672,-0.007615,-1.0287,-0.9269,0.3767
12944,11.0,0.001316,0.001189,-0.031068,0.002210,-0.002882,-0.007314,-1.1267,-0.9995,-0.2029,-0.00078456,-0.00037933,-0.00177377,-0.00005920,0.00061707,0.05470401,-0.1627,0.1903,-9.7422,-0.005007,-0.002124,-0.001098,36.5162,0.0320,91,0,-1,0.001716,0.001836,-0.031212,0.000085,0.000712,-0.007646,-1.0288,-0.9297,0.3751
12955,11.0,0.001299,0.001194,-0.031147,0.002178,-0.002776,-0.007058,-1.1252,-0.9988,-0.2020,-0.00079316,-0.00039628,-0.00177376,-0.00008820,0.00060490,0.05470410,-0.1544,0.1877,-9.7290,0.000322,-0.002335,-0.000099,36.5162,0.0290,96,0,1,0.001748,0.001842,-0.031289,0.000246,0.000704,-0.007693,-1.0296,-0.9306,0.3758
12966,11.0,0.001281,0.001175,-0.031211,0.002356,-0.002810,-0.006611,-1.1268,-0.9988,-0.2018,-0.00079491,-0.00040254,-0.00177387,-0.00005187,0.00059520,0.05465528,-0.1379,0.1850,-9.7246,-0.003653,-0.001280,-0.001635,36.5162,0.0290,85,1,1,0.001740,0.001853,-0.029999,-0.000002,0.001119,0.007186,-1.0304,-0.9308,0.3765
12977,11.0,0.001265,0.001157,-0.030033,0.002252,-0.002789,0.008402,-1.1283,-0.9968,-0.2027,-0.00079805,-0.00041363,-0.00177398,-0.00013660,0.00069496,0.04963358,-0.1622,0.1894,-9.7061,-0.003695,0.000840,-0.003184,36.5162,0.0290,85,1,1,0.001724,0.001837,-0.029915,0.000031,0.001143,0.007605,-1.0328,-0.9296,0.3759
12988,11.0,0.001273,0.001164,-0.029931,0.002317,-0.002863,0.008848,-1.1283,-0.9982,-0.2017,-0.00080356,-0.00041613,-0.00177392,-0.00012236,0.00066321,0.04959745,-0.1578,0.1721,-9.7263,-0.001689,-0.003003,-0.000171,36.5162,0.0310,88,0,0,0.001709,0.001820,-0.029836,-0.000081,0.001097,0.008142,-1.0330,-0.9289,0.3739
13000,12.0,0.001283,0.001168,-0.029823,0.002422,-0.002880,0.009103,-1.1277,-0.9964,-0.2026,-0.00082115,-0.00043116,-0.00177385,-0.00017993,0.00070095,0.04959890,-0.1518,0.1749,-9.7365,-0.002810,-0.000288,-0.002870,36.4581,0.0310,91,0,0,0.001724,0.001834,-0.030467,-0.000246,0.001066,0.000541,-1.0338,-0.9298,0.3587
13011,11.0,0.001343,0.001173,-0.030399,0.002854,-0.002867,0.001744,-1.1293,-0.9988,-0.2347,-0.00082717,-0.00042705,-0.00175986,-0.00012517,0.00064745,0.05228692,-0.1431,0.1789,-9.7124,-0.004807,-0.002953,-0.001462,36.4581,0.0310,84,0,-2,0.001786,0.001848,-0.030375,-0.000079,0.001036,0.001777,-1.0343,-0.9299,0.3600
13022,11.0,0.001376,0.001178,-0.030378,0.002916,-0.002732,0.002043,-1.1297,-0.9997,-0.2353,-0.00083362,-0.00043174,-0.00175971,-0.00015436,0.00062403,0.05228687,-0.1638,0.1916,-9.7273,-0.002557,-0.002786,-0.002351,36.4581,0.0290,87,0,-1,0.001838,0.001855,-0.029545,0.000173,0.001028,0.011098,-1.0351,-0.9294,0.3600
13033,11.0,0.001359,0.001160,-0.030322,0.002794,-0.002783,0.002626,-1.1304,-0.9983,-0.2354,-0.00083541,-0.00043877,-0.00175985,-0.00011612,0.00061599,0.05215267,-0.1638,0.1843,-9.7373,-0.002216,0.000821,-0.002123,36.4581,0.0290,90,1,1,0.001867,0.001860,-0.029433,0.000232,0.001145,0.011366,-1.0351,-0.9300,0.3597
13044,11.0,0.001343,0.001142,-0.029581,0.002626,-0.002762,0.011057,-1.1320,-0.9983,-0.2342,-0.00083850,-0.00044690,-0.00175998,-0.00013648,0.00067162,0.04936543,-0.1681,0.1908,-9.7369,-0.003840,-0.001803,-0.000106,36.4581,0.0290,94,1,1,0.001836,0.001828,-0.029166,0.000029,0.000960,0.012187,-1.0360,-0.9319,0.3586
13055,11.0,0.001352,0.001149,-0.029433,0.002676,-0.002957,0.011460,-1.1326,-0.9992,-0.2330,-0.00084422,-0.00044999,-0.00175993,-0.00012044,0.00064086,0.04926385,-0.1582,0.1618,-9.7486,-0.002649,-0.002439,0.000185,36.4581,0.0310,90,0,0,0.001843,0.001834,-0.029043,0.000018,0.000964,0.012328,-1.0360,-0.9326,0.3595
13066,11.0,0.001334,0.001156,-0.029305,0.002591,-0.002901,0.011866,-1.1331,-0.9973,-0.2350,-0.00085819,-0.00046541,-0.00175997,-0.00013176,0.00065706,0.04926414,-0.1577,0.1814,-9.7209,-0.004076,0.000050,-0.004808,36.4581,0.0310,91,0,1,0.001850,0.001841,-0.030237,0.000061,0.000865,-0.001421,-1.0357,-0.9328,0.3602
13077,11.0,0.001343,0.001164,-0.030156,0.002583,-0.003027,0.000915,-1.1343,-0.9958,-0.2358,-0.00086484,-0.00046909,-0.00175991,-0.00004931,0.00054870,0.05308141,-0.1629,0.1666,-9.7160,-0.003843,0.001373,-0.002823,36.5162,0.0310,91,0,0,0.001815,0.001879,-0.030249,0.000113,0.000870,-0.000770,-1.0361,-0.9320,0.3590
13089,12.0,0.001378,0.001167,-0.030143,0.002758,-0.003120,0.001236,-1.1332,-0.9939,-0.2352,-0.00088852,-0.00047989,-0.00175979,-0.00011791,0.00061923,0.05308364,-0.1529,0.1669,-9.7276,-0.003168,0.000335,-0.000852,36.5162,0.0290,93,0,-1,0.001822,0.001886,-0.030255,0.000178,0.000878,-0.000509,-1.0341,-0.9331,0.2166
13100,11.0,0.001410,0.001198,-0.030117,0.002955,-0.003033,0.001576,-1.1334,-0.9950,-0.2363,-0.00089806,-0.00047981,-0.00175957,-0.00011887,0.00056677,0.05303748,-0.1523,0.1776,-9.7356,-0.002526,-0.002158,-0.003145,36.5162,0.0290,92,-1,-1,0.001880,0.001899,-0.029401,0.000333,0.000603,0.008136,-1.0338,-0.9337,0.2169
13111,11.0,0.001467,0.001204,-0.029489,0.003194,-0.003039,0.008788,-1.1315,-0.9952,-0.2374,-0.00091556,-0.00048665,-0.00175934,-0.00024124,0.00065170,0.05070589,-0.1539,0.1750,-9.7399,-0.001133,-0.002295,-0.003056,36.5162,0.0290,89,0,-2,0.001909,0.001928,-0.029319,0.000440,0.000770,0.008370,-1.0334,-0.9344,0.2167
