timestamp_ms,dt_ms,pos_x,pos_y,pos_z,vel_x,vel_y,vel_z,roll_deg,pitch_deg,yaw_deg,gyro_bias_x,gyro_bias_y,gyro_bias_z,accel_bias_x,accel_bias_y,accel_bias_z,raw_accel_x,raw_accel_y,raw_accel_z,raw_gyro_x,raw_gyro_y,raw_gyro_z,raw_mag_x,raw_mag_y,raw_mag_z,raw_baro_alt,raw_tof,raw_flow_squal,raw_flow_dx,raw_flow_dy,dev_pos_x,dev_pos_y,dev_pos_z,dev_vel_x,dev_vel_y,dev_vel_z,dev_roll_deg,dev_pitch_deg,dev_yaw_deg
14214,10.0,0.000011,-0.000007,-0.028000,-0.000006,-0.000085,-0.000532,-0.0007,0.0002,-0.0003,0.00000000,0.00000000,0.00423561,-0.00000087,0.00000056,0.00000000,-0.2173,0.1314,-9.8562,-0.001852,-0.000539,0.003704,-22.8794,39.7201,1.7585,-33.9004,0.0280,73,0,0,-0.000001,0.000000,-0.000000,-0.000722,0.000437,-0.000110,-0.2519,-0.4162,0.0008
14216,2.0,0.000019,-0.000013,-0.028001,-0.000240,0.000059,-0.000579,-0.2083,-0.3568,0.0002,0.00000045,0.00000078,0.00423561,-0.00018029,0.00009925,0.00000000,-0.2133,0.1231,-9.8443,-0.001371,-0.001510,0.002741,-22.8794,39.7201,1.7585,-33.9004,0.0280,64,0,0,-0.000003,0.000002,-0.000001,-0.001260,0.000740,-0.000196,-0.3718,-0.6293,0.0018
14219,3.0,0.000017,-0.000012,-0.028003,-0.000283,0.000129,-0.000668,-0.1374,-0.1970,0.0001,0.00000031,0.00000046,0.00423561,-0.00061292,0.00028990,0.00000273,-0.2175,0.1216,-9.8345,0.000767,-0.003839,0.002367,-22.8794,39.7201,1.7585,-33.9004,0.0280,64,0,0,-0.000007,0.000004,-0.000001,-0.001700,0.000972,-0.000259,-0.4397,-0.7583,0.0024
14221,2.0,0.000020,-0.000013,-0.028000,-0.000396,0.000147,-0.000372,-0.1685,-0.2833,-0.0003,0.00000056,0.00000100,0.00423561,-0.00125910,0.00067669,0.00000621,-0.2261,0.1240,-9.8469,-0.001652,-0.003444,0.001571,-22.8794,39.7201,1.7585,-33.9004,0.0280,64,0,0,0.000009,-0.000005,-0.000002,0.000004,0.000010,-0.000356,-0.4849,-0.8478,0.0028
14224,3.0,0.000016,-0.000011,-0.028002,-0.000403,0.000091,-0.000515,-0.0574,-0.1143,-0.0021,0.00000020,0.00000045,0.00423562,-0.00185967,0.00107191,0.00001023,-0.2257,0.1253,-9.8528,-0.003244,-0.003941,0.000611,-22.8794,39.7201,1.7585,-33.9004,0.0280,64,0,0,0.000009,-0.000005,-0.000003,-0.000224,0.000130,-0.000468,-0.5189,-0.9125,0.0028
14226,2.0,0.000016,-0.000012,-0.028003,-0.000451,0.000176,-0.000587,-0.0877,-0.1403,-0.0017,0.00000059,0.00000101,0.00423561,-0.00275879,0.00152891,0.00001438,-0.2223,0.1281,-9.8466,0.000039,-0.004784,0.002188,-22.8794,39.7201,1.7585,-33.9004,0.0280,58,0,0,0.000009,-0.000005,-0.000004,-0.000428,0.000251,-0.000565,-0.5466,-0.9597,0.0030
14229,3.0,0.000013,-0.000010,-0.028001,-0.000461,0.000255,-0.000466,-0.0259,0.0026,-0.0006,0.00000024,0.00000020,0.00423561,-0.00339025,0.00179939,0.00001590,-0.2225,0.1255,-9.8558,0.001966,-0.003812,0.004753,-22.8794,39.7201,1.7585,-33.9004,0.0280,58,0,0,0.000008,-0.000004,-0.000006,-0.000619,0.000356,-0.000686,-0.5665,-0.9969,0.0034
14232,3.0,0.000012,-0.000009,-0.028003,-0.000544,0.000299,-0.000633,-0.0202,0.0120,-0.0001,0.00000054,0.00000075,0.00423561,-0.00461522,0.00245994,0.00001824,-0.2100,0.1177,-9.8651,0.000765,-0.004084,0.005100,-22.8794,39.7201,1.7585,-33.9004,0.0280,58,0,0,0.000011,-0.000005,-0.000008,-0.000164,0.000183,-0.000833,-0.5472,-0.9446,0.0043
14235,3.0,0.000008,-0.000007,-0.028005,-0.000534,0.000286,-0.000795,0.0540,0.1316,-0.0000,-0.00000022,-0.00000047,0.00423561,-0.00526000,0.00285780,0.00001682,-0.2145,0.1344,-9.8609,-0.000353,-0.004190,0.003935,-22.8794,39.7201,1.7585,-33.9004,0.0280,58,0,0,0.000011,-0.000005,-0.027994,-0.000314,0.000299,-0.001124,-0.5651,-0.9681,0.0044
14237,2.0,0.000008,-0.000007,-0.028002,-0.000565,0.000251,-0.000644,0.0548,0.1176,-0.0002,0.00000013,0.00000035,0.00423561,-0.00642812,0.00356001,0.00001594,-0.2171,0.1237,-9.8554,-0.002088,-0.003580,0.004782,-22.8794,39.7201,1.7585,-33.9004,0.0280,69,0,0,0.000010,-0.000004,-0.027997,-0.000467,0.000380,-0.001244,-0.5765,-0.9898,0.0047
14239,2.0,0.000006,-0.000006,-0.028004,-0.000558,0.000195,-0.000748,0.1005,0.1918,-0.0008,-0.00000058,-0.00000080,0.00423561,-0.00689559,0.00384811,0.00001271,-0.2217,0.1136,-9.8596,-0.002763,-0.003344,0.001860,-22.8794,39.7201,1.7585,-33.9004,0.0280,69,0,0,0.000009,-0.000003,-0.028001,-0.000630,0.000426,-0.001374,-0.5824,-1.0104,0.0047
14241,2.0,0.000006,-0.000006,-0.028005,-0.000608,0.000251,-0.000859,0.0869,0.1747,-0.0009,0.00000001,0.00000011,0.00423561,-0.00809160,0.00450411,0.00001021,-0.2137,0.1237,-9.8673,-0.001075,-0.001951,0.002024,-22.8794,39.7201,1.7585,-33.9004,0.0280,69,0,0,0.000011,-0.000004,-0.028004,-0.000197,0.000166,-0.001528,-0.5535,-0.9623,0.0036
14244,3.0,0.000003,-0.000005,-0.028003,-0.000644,0.000359,-0.000803,0.1303,0.2591,0.0005,-0.00000096,-0.00000180,0.00423560,-0.00870110,0.00481551,0.00000307,-0.2061,0.1356,-9.8568,0.000882,-0.001409,0.004689,-22.8794,39.7201,1.7585,-33.9004,0.0280,69,0,0,0.000010,-0.000004,-0.028008,-0.000307,0.000278,-0.001652,-0.5650,-0.9741,0.0035
14246,2.0,0.000003,-0.000005,-0.028005,-0.000644,0.000359,-0.000873,0.1260,0.2516,0.0007,-0.00000049,-0.00000102,0.00423560,-0.00997074,0.00559085,-0.00000241,-0.2134,0.1350,-9.8468,-0.000307,-0.003149,0.005075,-22.8794,39.7201,1.7585,-33.9004,0.0280,67,0,0,0.000009,-0.000003,-0.028013,-0.000437,0.000386,-0.001750,-0.5750,-0.9865,0.0035
14249,3.0,-0.000000,-0.000003,-0.028008,-0.000671,0.000385,-0.000994,0.1751,0.3287,0.0020,-0.00000202,-0.00000346,0.00423560,-0.01060393,0.00598986,-0.00001137,-0.2080,0.1388,-9.8485,-0.000119,-0.005127,0.005225,-22.8794,39.7201,1.7585,-33.9004,0.0280,67,0,0,0.000008,-0.000002,-0.028017,-0.000548,0.000504,-0.001853,-0.5852,-0.9969,0.0035
14251,2.0,-0.000001,-0.000003,-0.028005,-0.000648,0.000376,-0.000890,0.1678,0.3175,0.0024,-0.00000138,-0.00000247,0.00423559,-0.01195396,0.00684609,-0.00002097,-0.1987,0.1325,-9.8537,-0.000046,-0.004595,0.005284,-22.8794,39.7201,1.7585,-33.9004,0.0280,67,0,0,0.000010,-0.000003,-0.028022,-0.000152,0.000208,-0.001972,-0.5596,-0.9634,0.0017
14254,3.0,-0.000003,-0.000001,-0.028008,-0.000699,0.000401,-0.001011,0.2147,0.3848,0.0036,-0.00000334,-0.00000530,0.00423559,-0.01257354,0.00727549,-0.00003201,-0.2061,0.1469,-9.8492,-0.001319,-0.003738,0.003356,-22.8794,39.7201,1.7585,-33.9004,0.0280,67,0,0,0.000010,-0.000003,-0.028027,-0.000256,0.000343,-0.002077,-0.5697,-0.9717,0.0011
14256,2.0,-0.000004,-0.000001,-0.028010,-0.000686,0.000399,-0.001096,0.2088,0.3762,0.0042,-0.00000270,-0.00000435,0.00423558,-0.01393601,0.00815638,-0.00004242,-0.2050,0.1392,-9.8551,-0.000513,-0.002755,0.004557,-22.8794,39.7201,1.7585,-33.9004,0.0280,62,0,0,0.000009,-0.000002,-0.028032,-0.000356,0.000454,-0.002197,-0.5779,-0.9793,0.0008
14259,3.0,-0.000006,0.000000,-0.028007,-0.000722,0.000474,-0.001023,0.2444,0.4377,0.0062,-0.00000460,-0.00000768,0.00423557,-0.01455867,0.00851099,-0.00005820,-0.1991,0.1327,-9.8511,0.001751,-0.002372,0.005024,-22.8794,39.7201,1.7585,-33.9004,0.0280,62,0,0,0.000008,-0.000001,-0.028038,-0.000439,0.000547,-0.002306,-0.5843,-0.9857,0.0007
14261,2.0,-0.000006,0.000001,-0.028009,-0.000700,0.000495,-0.001092,0.2362,0.4273,0.0077,-0.00000377,-0.00000655,0.00423556,-0.01602064,0.00933671,-0.00007072,-0.2084,0.1239,-9.8478,0.003282,-0.003524,0.007156,-22.8794,39.7201,1.7585,-33.9004,0.0280,62,0,0,0.000010,-0.000001,-0.028044,-0.000129,0.000328,-0.002409,-0.5689,-0.9650,0.0009
14264,3.0,-0.000009,0.000002,-0.028012,-0.000775,0.000467,-0.001240,0.2744,0.4860,0.0081,-0.00000636,-0.00001058,0.00423556,-0.01667732,0.00975830,-0.00008582,-0.2221,0.1231,-9.8585,-0.000024,-0.004622,0.007335,-22.8794,39.7201,1.7585,-33.9004,0.0280,62,0,0,0.000009,-0.000000,-0.028050,-0.000271,0.000390,-0.002537,-0.5726,-0.9739,0.0017
14268,4.0,-0.000012,0.000004,-0.028010,-0.000902,0.000445,-0.001226,0.2933,0.5064,0.0082,-0.00000752,-0.00001162,0.00423558,-0.01850904,0.01092449,-0.00011756,-0.2129,0.1280,-9.8614,-0.003261,-0.003749,0.007405,-22.8794,39.7201,1.7585,-33.9321,0.0280,57,0,0,0.000009,0.000001,-0.027996,-0.000387,0.000465,-0.000854,-0.5774,-0.9812,0.0022
14269,1.0,-0.000012,0.000004,-0.028011,-0.000695,0.000277,-0.001271,0.3163,0.5405,0.0080,-0.00000942,-0.00001442,0.00423559,-0.01891837,0.01120233,-0.00012833,-0.2077,0.1212,-9.8514,-0.003869,-0.002759,0.006132,-22.8794,39.7201,1.7585,-33.9321,0.0280,57,0,0,0.000007,0.000002,-0.027998,-0.000488,0.000521,-0.000965,-0.5813,-0.9875,0.0025
14271,2.0,-0.000013,0.000004,-0.028014,-0.000762,0.000284,-0.001348,0.3113,0.5281,0.0081,-0.00000879,-0.00001299,0.00423559,-0.02036124,0.01204147,-0.00014452,-0.2249,0.1248,-9.8532,-0.003456,-0.004324,0.005636,-22.8794,39.7201,1.7585,-33.9321,0.0280,57,0,0,0.000009,0.000000,-0.028001,-0.000179,0.000111,-0.001081,-0.5587,-0.9702,-0.0004
14274,3.0,-0.000015,0.000005,-0.028011,-0.000864,0.000376,-0.001256,0.3383,0.5790,0.0081,-0.00001153,-0.00001815,0.00423559,-0.02102452,0.01239347,-0.00017040,-0.2281,0.1299,-9.8353,-0.001344,-0.002983,0.003493,-22.8794,39.7201,1.7585,-33.9321,0.0280,57,0,0,0.000078,-0.000124,-0.028002,-0.004931,0.008386,-0.000966,-7.9053,-5.0949,0.0491
14276,2.0,-0.000016,0.000005,-0.028013,-0.000831,0.000387,-0.001326,0.3338,0.5744,0.0080,-0.00001091,-0.00001745,0.00423558,-0.02254357,0.01328047,-0.00019026,-0.2237,0.1360,-9.8494,-0.001173,-0.003111,0.003960,-22.8794,39.7201,1.7585,-33.9321,0.0280,59,0,0,0.000021,-0.000023,-0.028006,0.001849,-0.003898,-0.000519,-1.9520,-1.7642,-0.0596
14279,3.0,-0.000019,0.000007,-0.028017,-0.000898,0.000419,-0.001430,0.3622,0.6240,0.0081,-0.00001433,-0.00002340,0.00423559,-0.02323266,0.01367601,-0.00021073,-0.2254,0.1267,-9.8447,-0.001757,-0.002511,0.005442,-22.8794,39.7201,1.7585,-33.9321,0.0280,59,0,0,0.000023,-0.000028,-0.028007,0.002626,-0.005466,-0.000578,-1.4329,-1.4773,-0.0526
14282,3.0,-0.000021,0.000007,-0.028014,-0.000949,0.000429,-0.001324,0.3664,0.6301,0.0078,-0.00001480,-0.00002405,0.00423559,-0.02501537,0.01467103,-0.00025196,-0.2263,0.1216,-9.8358,-0.001984,-0.002927,0.004718,-22.8794,39.7201,1.7585,-33.9321,0.0280,59,0,0,0.000028,-0.000034,-0.028009,0.000338,-0.000889,-0.000724,-2.7398,-2.1982,-0.0648
14284,2.0,-0.000022,0.000008,-0.028016,-0.000858,0.000355,-0.001375,0.3895,0.6690,0.0073,-0.00001809,-0.00002955,0.00423561,-0.02559508,0.01501689,-0.00027075,-0.2268,0.1271,-9.8350,-0.002722,-0.005040,0.005086,-22.8794,39.7201,1.7585,-33.9321,0.0280,59,0,0,0.000027,-0.000033,-0.028011,0.000904,-0.002081,-0.000753,-2.5118,-2.0748,-0.0637
14286,2.0,-0.000022,0.000008,-0.028019,-0.000868,0.000321,-0.001445,0.3875,0.6623,0.0064,-0.00001786,-0.00002861,0.00423562,-0.02714684,0.01592916,-0.00029459,-0.2324,0.1302,-9.8503,-0.004310,-0.003911,0.001979,-22.8794,39.7201,1.7585,-33.9321,0.0280,56,0,0,0.000029,-0.000037,-0.028013,0.001397,-0.003160,-0.000829,-2.3417,-1.9837,-0.0630
14289,3.0,-0.000025,0.000009,-0.028016,-0.000955,0.000358,-0.001407,0.4130,0.7069,0.0053,-0.00002208,-0.00003594,0.00423563,-0.02785098,0.01633454,-0.00033604,-0.2345,0.1298,-9.8516,-0.003627,-0.004122,0.001420,-22.8794,39.7201,1.7585,-33.9321,0.0280,56,0,0,0.000032,-0.000045,-0.028015,0.001842,-0.004163,-0.000912,-2.2046,-1.9112,-0.0624
14291,2.0,-0.000026,0.000009,-0.028018,-0.000903,0.000377,-0.001449,0.4086,0.7032,0.0054,-0.00002142,-0.00003553,0.00423562,-0.02947467,0.01720809,-0.00036236,-0.2346,0.1296,-9.8364,-0.000761,-0.004855,0.004454,-22.8794,39.7201,1.7585,-33.9321,0.0280,56,0,0,0.000030,-0.000037,-0.028017,0.000504,-0.001175,-0.001028,-2.6681,-2.1581,-0.0651
14294,3.0,-0.000028,0.000010,-0.028023,-0.000968,0.000408,-0.001586,0.4316,0.7465,0.0043,-0.00002572,-0.00004368,0.00423563,-0.03019531,0.01758845,-0.00038789,-0.2325,0.1168,-9.8564,-0.001596,-0.004490,0.003683,-22.8794,39.7201,1.7585,-33.9321,0.0280,56,0,0,0.000030,-0.000039,-0.028020,0.000962,-0.002222,-0.001114,-2.5519,-2.0980,-0.0646
14296,2.0,-0.000029,0.000010,-0.028018,-0.000924,0.000386,-0.001547,0.4276,0.7397,0.0038,-0.00002514,-0.00004267,0.00423564,-0.03189201,0.01848656,-0.00043929,-0.2293,0.1160,-9.8729,-0.001922,-0.001746,0.004034,-22.8794,39.7201,1.7585,-33.9321,0.0280,57,0,0,0.000032,-0.000045,-0.028023,0.001414,-0.003244,-0.001243,-2.4463,-2.0431,-0.0641
14300,4.0,-0.000033,0.000012,-0.028025,-0.001061,0.000435,-0.001831,0.4573,0.7910,0.0019,-0.00003161,-0.00005375,0.00423566,-0.03278784,0.01900926,-0.00047373,-0.2264,0.1250,-9.8821,-0.003348,-0.003931,0.001569,-22.8794,39.7201,1.7585,-33.9321,0.0290,57,0,0,0.000036,-0.000053,-0.028797,0.001855,-0.004205,-0.015629,-2.3558,-1.9960,-0.0640
14302,2.0,-0.000033,0.000012,-0.028029,-0.000954,0.000380,-0.001934,0.4554,0.7887,0.0009,-0.00003150,-0.00005368,0.00423567,-0.03448541,0.02001070,-0.00050618,-0.2279,0.1375,-9.8672,-0.003253,-0.003480,0.001261,-22.8794,39.7201,1.7585,-33.9321,0.0290,57,0,0,0.000032,-0.000042,-0.028837,0.000573,-0.001387,-0.015812,-2.6518,-2.1519,-0.0659
14304,2.0,-0.000035,0.000012,-0.028300,-0.000916,0.000433,-0.006506,0.4712,0.8199,0.0014,-0.00003517,-0.00006108,0.00423565,-0.03503545,0.02028306,0.00041284,-0.2394,0.1465,-9.8621,0.000035,-0.003304,0.003091,-22.8794,39.7201,1.7585,-33.9321,0.0290,57,0,0,0.000033,-0.000046,-0.028876,0.000974,-0.002278,-0.015923,-2.5885,-2.1196,-0.0658
14306,2.0,-0.000035,-0.000014,-0.028314,-0.000909,-0.013440,-0.006632,1.0422,0.8135,-0.1054,-0.00017950,-0.00005971,0.00423951,-0.03672690,0.03219058,0.00018526,-0.2257,0.1284,-9.8413,0.000014,-0.003886,0.004454,-22.8794,39.7201,1.7585,-33.9321,0.0290,60,0,-1,0.000035,-0.000052,-0.028916,0.001409,-0.003216,-0.015977,-2.5169,-2.0828,-0.0654
14309,3.0,-0.000038,-0.000061,-0.028334,-0.001024,-0.016958,-0.006766,1.2174,0.8501,-0.1337,-0.00022640,-0.00006929,0.00424060,-0.03741703,0.03553073,0.00004812,-0.2286,0.1193,-9.8507,-0.000645,-0.000861,0.004984,-22.8794,39.7201,1.7585,-33.9321,0.0290,60,0,-1,0.000039,-0.000060,-0.028956,0.001829,-0.004162,-0.016055,-2.4484,-2.0479,-0.0650
14312,3.0,-0.000040,-0.000117,-0.028523,-0.001097,-0.018901,-0.009532,1.2963,0.8527,-0.1564,-0.00024978,-0.00007060,0.00424134,-0.03931812,0.03878486,0.00065433,-0.2271,0.1248,-9.8581,-0.004152,-0.000985,0.003239,-22.8794,39.7201,1.7585,-33.9321,0.0290,60,0,-1,0.000032,-0.000079,-0.028996,0.000645,-0.006160,-0.016150,-2.3458,-2.0625,-0.0654
14314,2.0,-0.000041,-0.000168,-0.028543,-0.001011,-0.024725,-0.009643,1.5442,0.8822,-0.1937,-0.00032371,-0.00007906,0.00424300,-0.03989645,0.04374215,0.00037260,-0.2136,0.1278,-9.8538,-0.004216,-0.002334,0.000610,-22.8773,40.7835,1.3456,-33.9321,0.0290,60,0,-1,0.000034,-0.000095,-0.029037,0.001054,-0.006940,-0.016239,-2.2923,-2.0334,-0.0655
14316,2.0,-0.000042,-0.000196,-0.028561,-0.000961,-0.013796,-0.009656,1.1235,0.8695,-0.1417,-0.00019369,-0.00007689,0.00424020,-0.04166838,0.03703038,0.00083269,-0.2176,0.1169,-9.8545,-0.002290,-0.003509,0.002838,-22.8773,40.7835,1.3456,-33.9321,0.0290,54,0,0,0.000036,-0.000112,-0.029077,0.001446,-0.007737,-0.016330,-2.2399,-2.0059,-0.0653
14319,3.0,-0.000044,-0.000224,-0.028689,-0.001018,-0.006934,-0.011161,0.9021,0.9017,-0.1094,-0.00012069,-0.00008783,0.00423846,-0.04235130,0.03237521,0.00160230,-0.2188,0.1129,-9.8318,-0.002191,-0.003316,0.003705,-22.8773,40.7835,1.3456,-33.9321,0.0290,54,0,0,0.000040,-0.000132,-0.029118,0.001826,-0.008531,-0.016364,-2.1898,-1.9799,-0.0650
14322,3.0,-0.000046,-0.000238,-0.028722,-0.001057,-0.003228,-0.011177,0.7716,0.9002,-0.0955,-0.00007627,-0.00008884,0.00423754,-0.04434446,0.03095695,0.00167300,-0.2216,0.1159,-9.8275,-0.000852,-0.001290,0.003392,-22.8773,40.7835,1.3456,-33.9321,0.0290,54,0,0,0.000035,-0.000108,-0.029160,0.000580,-0.002622,-0.016487,-2.5225,-2.1090,-0.0666
14324,2.0,-0.000047,-0.000242,-0.028744,-0.000969,-0.001588,-0.011224,0.7300,0.9266,-0.0880,-0.00006121,-0.00009848,0.00423710,-0.04492806,0.03004488,0.00169060,-0.2284,0.1229,-9.8377,-0.001632,-0.001152,0.003920,-22.8773,40.7835,1.3456,-33.9321,0.0290,54,0,0,0.000037,-0.000115,-0.029201,0.000959,-0.003460,-0.016533,-2.4779,-2.0864,-0.0664
14326,2.0,-0.000048,-0.000244,-0.028820,-0.000951,-0.000648,-0.012036,0.6928,0.9189,-0.0852,-0.00004810,-0.00009720,0.00423687,-0.04663561,0.03045279,0.00200762,-0.2280,0.1341,-9.8455,0.000015,-0.002399,0.006077,-22.8773,40.7835,1.3456,-33.9321,0.0290,58,0,0,0.000039,-0.000124,-0.029242,0.001333,-0.004257,-0.016602,-2.4380,-2.0662,-0.0660
14329,3.0,-0.000050,-0.000245,-0.028856,-0.001042,-0.000008,-0.012123,0.6935,0.9499,-0.0822,-0.00004834,-0.00010973,0.00423672,-0.04735534,0.03046739,0.00198174,-0.2341,0.1310,-9.8404,0.000006,-0.002884,0.006916,-22.8773,40.7835,1.3456,-33.9321,0.0290,58,0,0,0.000043,-0.000135,-0.029284,0.001685,-0.005050,-0.016660,-2.4006,-2.0479,-0.0654
14333,4.0,-0.000054,-0.000245,-0.028905,-0.001195,0.000377,-0.012243,0.6891,0.9596,-0.0833,-0.00004763,-0.00011544,0.00423669,-0.04952213,0.03152129,0.00192396,-0.2375,0.1187,-9.8439,-0.001298,0.000179,0.003991,-22.8773,40.7835,1.3456,-33.9321,0.0280,58,0,0,0.000037,-0.000119,-0.029327,0.000559,-0.001668,-0.016788,-2.5668,-2.1215,-0.0661
14334,1.0,-0.000054,-0.000245,-0.028709,-0.000926,0.000294,-0.009419,0.6975,0.9784,-0.0840,-0.00005148,-0.00012379,0.00423669,-0.04999911,0.03174200,0.00031951,-0.2258,0.1139,-9.8648,-0.003106,0.000070,0.002853,-22.8773,40.7835,1.3456,-33.9321,0.0280,58,0,0,0.000039,-0.000123,-0.028358,0.000945,-0.002532,-0.003692,-2.5248,-2.1003,-0.0661
14336,2.0,-0.000054,-0.000217,-0.028726,-0.000943,0.013403,-0.009394,0.2847,0.9673,-0.0069,0.00013430,-0.00012159,0.00423232,-0.05169855,0.02279507,0.00054285,-0.2329,0.1259,-9.8470,-0.003159,-0.003224,0.003711,-22.8773,40.7835,1.3456,-33.9321,0.0280,51,0,1,0.000042,-0.000130,-0.028367,0.001303,-0.003347,-0.003762,-2.4896,-2.0832,-0.0660
14339,3.0,-0.000057,-0.000169,-0.028754,-0.001055,0.017164,-0.009417,0.1850,0.9951,0.0154,0.00018158,-0.00013507,0.00423101,-0.05239643,0.02033919,0.00055017,-0.2337,0.1411,-9.8265,-0.001879,-0.003205,0.003394,-22.8773,40.7835,1.3456,-33.9321,0.0280,51,0,1,0.000045,-0.000139,-0.028377,0.001651,-0.004107,-0.003785,-2.4589,-2.0681,-0.0660
14342,3.0,-0.000059,-0.000114,-0.028610,-0.001103,0.019190,-0.007144,0.1252,0.9945,0.0304,0.00021007,-0.00013768,0.00423022,-0.05436067,0.01963447,-0.00101915,-0.2310,0.1338,-9.8330,-0.002031,-0.003197,0.003271,-22.8773,40.7835,1.3456,-33.9321,0.0280,51,0,1,0.000040,-0.000093,-0.028387,0.000566,0.002990,-0.003909,-2.7435,-2.1608,-0.0667
14344,2.0,-0.000060,-0.000063,-0.028624,-0.001009,0.024675,-0.007170,-0.0284,1.0170,0.0614,0.00028910,-0.00014963,0.00422825,-0.05494888,0.01571663,-0.00103999,-0.2316,0.1276,-9.8439,-0.003391,-0.004495,0.003873,-22.8773,40.7835,1.3456,-33.9004,0.0280,51,0,1,0.000042,-0.000086,-0.028397,0.000945,0.002116,-0.003967,-2.7086,-2.1443,-0.0667
14346,2.0,-0.000032,-0.000038,-0.028642,0.011494,0.014231,-0.007450,0.2702,1.3681,0.0708,0.00012936,-0.00033929,0.00422874,-0.06618470,0.02419686,-0.00138943,-0.2277,0.1305,-9.8596,-0.003270,-0.003049,0.003457,-22.8773,40.7835,1.3456,-33.9004,0.0280,38,1,0,0.000044,-0.000081,-0.028407,0.001332,0.001255,-0.004064,-2.6747,-2.1278,-0.0667
14349,3.0,0.000010,-0.000010,-0.028526,0.014663,0.007796,-0.005826,0.4662,1.4894,0.0715,0.00002050,-0.00040708,0.00422974,-0.06941022,0.02935673,-0.00296388,-0.2118,0.1352,-9.8651,-0.000622,-0.003137,0.003946,-22.8773,40.7835,1.3456,-33.9004,0.0280,38,1,0,0.000048,-0.000079,-0.028417,0.001758,0.000410,-0.004174,-2.6391,-2.1097,-0.0666
14352,3.0,0.000060,0.000005,-0.028544,0.016372,0.004339,-0.005999,0.5619,1.5352,0.0765,-0.00003632,-0.00043756,0.00423019,-0.07310993,0.03303563,-0.00312431,-0.2208,0.1326,-9.8672,0.000408,-0.004471,0.004136,-22.8773,40.7835,1.3456,-33.9004,0.0280,38,1,0,0.000073,-0.000076,-0.028427,0.004754,-0.000093,-0.004282,-2.5996,-2.0300,-0.0660
14354,2.0,0.000106,0.000009,-0.028558,0.021593,0.002656,-0.006123,0.6196,1.7003,0.0952,-0.00007036,-0.00053644,0.00422942,-0.07760454,0.03459133,-0.00342124,-0.2238,0.1333,-9.8515,-0.000491,-0.001739,0.004210,-22.8773,40.7835,1.3456,-33.9004,0.0280,38,1,0,0.000085,-0.000076,-0.028438,0.005094,-0.000870,-0.004362,-2.5704,-2.0162,-0.0659
14356,2.0,0.000128,0.000011,-0.028452,0.011881,0.001728,-0.004585,0.6378,1.4285,0.0683,-0.00008433,-0.00037281,0.00423160,-0.07256872,0.03625495,-0.00433348,-0.2349,0.1242,-9.8533,-0.000841,-0.003278,0.004239,-22.8773,40.7835,1.3456,-33.9004,0.0280,60,0,0,0.000098,-0.000079,-0.028448,0.005402,-0.001662,-0.004447,-2.5425,-2.0041,-0.0658
14359,3.0,0.000151,0.000015,-0.028465,0.005688,0.001205,-0.004662,0.6664,1.2964,0.0563,-0.00010308,-0.00028800,0.00423286,-0.06886724,0.03706742,-0.00410675,-0.2253,0.1222,-9.8606,-0.000978,-0.001925,0.004900,-22.8773,40.7835,1.3456,-33.9004,0.0280,60,0,0,0.000112,-0.000084,-0.028459,0.005733,-0.002457,-0.004549,-2.5133,-1.9909,-0.0656
14362,3.0,0.000162,0.000017,-0.028478,0.002349,0.000885,-0.004741,0.6730,1.2091,0.0497,-0.00011025,-0.00023358,0.00423357,-0.06862598,0.03853505,-0.00404167,-0.2221,0.1296,-9.8583,-0.003632,-0.000099,0.003857,-22.8773,40.7835,1.3456,-33.9004,0.0280,60,0,0,0.000094,-0.000074,-0.028472,0.001813,-0.000988,-0.004692,-2.5776,-2.0893,-0.0664
14365,3.0,0.000166,0.000019,-0.028392,0.000656,0.000702,-0.003515,0.6922,1.1926,0.0465,-0.00012424,-0.00022254,0.00423392,-0.06817783,0.03912580,-0.00534540,-0.2182,0.1284,-9.8445,-0.003363,-0.001339,0.000200,-22.8773,40.7835,1.3456,-33.9004,0.0280,60,0,0,0.000099,-0.000077,-0.028483,0.002178,-0.001753,-0.004752,-2.5500,-2.0754,-0.0669
14367,2.0,0.000167,0.000019,-0.028398,-0.000037,0.000572,-0.003554,0.6885,1.1633,0.0450,-0.00012428,-0.00020622,0.00423409,-0.06958338,0.04030433,-0.00537276,-0.2212,0.1214,-9.8483,-0.001959,-0.003772,0.002028,-22.8773,40.7835,1.3456,-33.9004,0.0280,51,0,0,0.000104,-0.000082,-0.028167,0.002533,-0.002531,-0.001325,-2.5219,-2.0621,-0.0671
14369,2.0,0.000167,0.000019,-0.028406,-0.000418,0.000482,-0.003619,0.6998,1.1708,0.0443,-0.00013285,-0.00021207,0.00423418,-0.06982116,0.04065218,-0.00539338,-0.2208,0.1123,-9.8514,-0.002713,-0.004068,0.004040,-22.8773,40.7835,1.3456,-33.9004,0.0280,51,0,0,0.000111,-0.000089,-0.028170,0.002885,-0.003326,-0.001402,-2.4936,-2.0488,-0.0670
14372,3.0,0.000166,0.000020,-0.028334,-0.000800,0.000558,-0.002630,0.6960,1.1584,0.0431,-0.00013294,-0.00020777,0.00423425,-0.07169294,0.04181700,-0.00661795,-0.2248,0.1219,-9.8448,-0.001055,-0.001583,0.003522,-22.8773,40.7835,1.3456,-33.9004,0.0280,51,0,0,0.000101,-0.000077,-0.028174,0.000969,-0.001197,-0.001499,-2.5567,-2.0983,-0.0674
14374,2.0,0.000165,0.000020,-0.028339,-0.000851,0.000511,-0.002684,0.7067,1.1740,0.0425,-0.00014149,-0.00022038,0.00423429,-0.07218932,0.04215275,-0.00665018,-0.2344,0.1262,-9.8464,-0.001061,-0.003867,0.004621,-22.8773,40.7835,1.3456,-33.9004,0.0280,51,0,0,0.000144,-0.000150,-0.028222,-0.001391,0.002700,-0.003717,-7.6486,-5.0276,0.2077
14376,2.0,0.000165,0.000021,-0.028345,-0.000912,0.000494,-0.002751,0.7021,1.1637,0.0416,-0.00014066,-0.00021726,0.00423433,-0.07393847,0.04320261,-0.00669694,-0.2377,0.1329,-9.8609,-0.001713,-0.004755,0.004399,-22.8773,40.7835,1.3456,-33.9004,0.0280,53,0,0,0.000139,-0.000140,-0.028225,0.000941,-0.001542,-0.003234,-6.9994,-4.6617,0.1667
14379,3.0,0.000163,0.000022,-0.028285,-0.001048,0.000556,-0.001983,0.7148,1.1843,0.0415,-0.00015172,-0.00023540,0.00423435,-0.07463637,0.04362669,-0.00779466,-0.2332,0.1345,-9.8522,-0.001317,-0.004451,0.004962,-22.8773,40.7835,1.3456,-33.9004,0.0280,53,0,0,0.000141,-0.000143,-0.028227,0.003110,-0.005476,-0.002806,-6.4535,-4.3535,0.1355
14382,3.0,0.000161,0.000023,-0.028291,-0.001104,0.000597,-0.002054,0.7131,1.1812,0.0413,-0.00015338,-0.00023847,0.00423436,-0.07667365,0.04482247,-0.00785650,-0.2307,0.1333,-9.8494,-0.000512,-0.004332,0.005832,-22.8773,40.7835,1.3456,-33.9004,0.0280,53,0,0,0.000128,-0.000121,-0.028238,0.001309,-0.002343,-0.002943,-6.9389,-4.6304,0.1641
14384,2.0,0.000160,0.000023,-0.028296,-0.001018,0.000486,-0.002103,0.7245,1.1988,0.0409,-0.00016386,-0.00025453,0.00423439,-0.07726377,0.04520717,-0.00789445,-0.2335,0.1294,-9.8447,-0.003451,-0.004286,0.003569,-22.8773,40.7835,1.3456,-33.9004,0.0280,53,0,0,0.000131,-0.000126,-0.028240,0.003163,-0.005733,-0.002542,-6.5572,-4.4155,0.1421
14386,2.0,0.000159,0.000056,-0.028242,-0.001019,0.013834,-0.001357,0.4257,1.1881,0.0777,0.00010730,-0.00025163,0.00422934,-0.07909410,0.03641988,-0.00860955,-0.2319,0.1294,-9.8474,-0.003943,-0.002968,0.003339,-22.8773,40.7835,1.3456,-33.9004,0.0280,53,0,1,0.000139,-0.000140,-0.028241,0.004943,-0.008985,-0.002188,-6.2175,-4.2239,0.1236
14389,3.0,0.000157,0.000105,-0.028246,-0.001135,0.017344,-0.001434,0.3589,1.2087,0.0869,0.00016998,-0.00027154,0.00422798,-0.07979880,0.03419809,-0.00859915,-0.2353,0.1178,-9.8531,-0.004135,-0.002455,0.003900,-22.8773,40.7835,1.3456,-33.9004,0.0280,53,0,1,0.000151,-0.000163,-0.028241,0.006644,-0.012141,-0.001877,-5.9084,-4.0500,0.1079
14392,3.0,0.000155,0.000161,-0.028250,-0.001191,0.019231,-0.001499,0.3168,1.2046,0.0937,0.00020781,-0.00027393,0.00422719,-0.08188521,0.03371146,-0.00863416,-0.2298,0.1229,-9.8510,-0.005510,-0.000305,0.004768,-22.8773,40.7835,1.3456,-33.9004,0.0280,53,0,1,0.000133,-0.000097,-0.028260,0.002137,0.000230,-0.002530,-7.0296,-4.6464,0.1689
14394,2.0,0.000154,0.000213,-0.028204,-0.001104,0.024711,-0.000936,0.2065,1.2213,0.1064,0.00031800,-0.00029102,0.00422505,-0.08247710,0.02992973,-0.00948043,-0.2330,0.1183,-9.8582,-0.003444,-0.000119,0.004456,-22.8773,40.7835,1.3456,-33.9004,0.0280,53,0,1,0.000139,-0.000096,-0.028260,0.003929,-0.003089,-0.002155,-6.7467,-4.4877,0.1524
14397,3.0,0.000152,0.000258,-0.028209,-0.001164,0.013223,-0.001118,0.4423,1.2160,0.0841,0.00007094,-0.00029257,0.00422933,-0.08460101,0.03901881,-0.00957090,-0.2337,0.1084,-9.8644,-0.001340,-0.002647,0.005635,-22.8773,40.7835,1.3456,-33.9004,0.0280,56,0,0,0.000149,-0.000105,-0.028258,0.005669,-0.006344,-0.001815,-6.4800,-4.3387,0.1377
14399,2.0,0.000151,0.000270,-0.028213,-0.001051,0.007618,-0.001242,0.5637,1.2327,0.0730,-0.00005801,-0.00031038,0.00423143,-0.08519818,0.04330857,-0.00963370,-0.2321,0.1176,-9.8668,-0.000521,-0.003631,0.005443,-22.8773,40.7835,1.3456,-33.9004,0.0280,56,0,0,0.000164,-0.000122,-0.027988,0.007355,-0.009473,0.001024,-6.2392,-4.2043,0.1251
14402,3.0,0.000149,0.000284,-0.028176,-0.001107,0.004286,-0.000825,0.6285,1.2262,0.0687,-0.00013282,-0.00031197,0.00423264,-0.08730353,0.04680168,-0.01051488,-0.2269,0.1207,-9.8587,-0.000203,-0.006614,0.005369,-22.8773,40.7835,1.3456,-33.9004,0.0280,56,0,0,0.000139,-0.000088,-0.027989,0.002623,-0.003578,0.000784,-6.7032,-4.4905,0.1523
14404,2.0,0.000148,0.000288,-0.028178,-0.001014,0.002617,-0.000891,0.6695,1.2418,0.0664,-0.00017866,-0.00032992,0.00423324,-0.08788694,0.04828708,-0.01057125,-0.2324,0.1287,-9.8520,-0.000079,-0.004524,0.005340,-22.8773,40.7835,1.3456,-33.9004,0.0280,56,0,0,0.000146,-0.000098,-0.027983,0.004260,-0.006578,0.001093,-6.5037,-4.3792,0.1415
14406,2.0,0.000148,0.000290,-0.028180,-0.000994,0.001743,-0.000902,0.6808,1.2317,0.0654,-0.00019600,-0.00032601,0.00423355,-0.08973888,0.04997038,-0.01063021,-0.2250,0.1332,-9.8346,-0.000031,-0.001109,0.002727,-22.8773,40.7835,1.3456,-33.9004,0.0280,55,0,0,0.000157,-0.000116,-0.027977,0.005879,-0.009501,0.001433,-6.3122,-4.2716,0.1309
14409,3.0,0.000146,0.000293,-0.028148,-0.001084,0.001223,-0.000509,0.7016,1.2498,0.0644,-0.00022060,-0.00034783,0.00423376,-0.09043638,0.05075231,-0.01137704,-0.2272,0.1178,-9.8396,-0.000012,-0.001732,0.003012,-22.8773,40.7835,1.3456,-33.9004,0.0280,55,0,0,0.000173,-0.000141,-0.027969,0.007461,-0.012409,0.001756,-6.1242,-4.1665,0.1210
14412,3.0,0.000144,0.000296,-0.028150,-0.001108,0.000929,-0.000545,0.7042,1.2436,0.0637,-0.00022838,-0.00034922,0.00423388,-0.09258555,0.05215016,-0.01144345,-0.2221,0.1187,-9.8413,-0.000005,-0.002625,0.004423,-22.8773,40.7835,1.3456,-33.9004,0.0280,55,0,0,0.000148,-0.000098,-0.027970,0.002637,-0.004440,0.001493,-6.5836,-4.4328,0.1467
14414,2.0,0.000143,0.000296,-0.028151,-0.000999,0.000730,-0.000592,0.7158,1.2582,0.0645,-0.00024287,-0.00036796,0.00423392,-0.09316468,0.05259798,-0.01148492,-0.2234,0.1402,-9.8476,-0.000652,-0.004272,0.007573,-22.1999,40.7971,1.7585,-33.9004,0.0280,55,0,0,0.000155,-0.000111,-0.027962,0.004218,-0.007264,0.001800,-6.4233,-4.3429,0.1385
14416,2.0,0.000142,0.000297,-0.028124,-0.000963,0.000663,-0.000272,0.7109,1.2479,0.0649,-0.00024173,-0.00036400,0.00423393,-0.09500317,0.05376073,-0.01213194,-0.2189,0.1428,-9.8563,0.000397,-0.004263,0.005547,-22.1999,40.7971,1.7585,-33.9004,0.0280,47,0,0,0.000166,-0.000130,-0.027952,0.005784,-0.010033,0.002075,-6.2693,-4.2564,0.1305
14419,3.0,0.000140,0.000298,-0.028125,-0.001058,0.000680,-0.000372,0.7223,1.2648,0.0664,-0.00025648,-0.00038684,0.00423390,-0.09568747,0.05420351,-0.01218004,-0.2280,0.1411,-9.8591,0.000154,-0.003609,0.003458,-22.1999,40.7971,1.7585,-33.9004,0.0280,47,0,0,0.000182,-0.000158,-0.027942,0.007292,-0.012746,0.002318,-6.1298,-4.1785,0.1233
14422,3.0,0.000138,0.000299,-0.028126,-0.001112,0.000659,-0.000427,0.7209,1.2606,0.0673,-0.00025979,-0.00039010,0.00423388,-0.09769963,0.05542247,-0.01224191,-0.2309,0.1380,-9.8491,-0.001241,-0.001404,0.003946,-22.1999,40.7971,1.7585,-33.9004,0.0280,47,0,0,0.000156,-0.000113,-0.027945,0.002583,-0.004583,0.002020,-6.5311,-4.4079,0.1455
14424,2.0,0.000138,0.000300,-0.028103,-0.001022,0.000540,-0.000152,0.7301,1.2745,0.0688,-0.00027300,-0.00040929,0.00423387,-0.09826422,0.05581142,-0.01281309,-0.2263,0.1405,-9.8456,-0.003734,-0.000546,0.006087,-22.1999,40.7971,1.7585,-33.8634,0.0280,47,0,0,0.000164,-0.000126,-0.027934,0.004103,-0.007307,0.002324,-6.3989,-4.3332,0.1386
14426,2.0,0.000105,0.000300,-0.028100,-0.013419,0.000488,-0.000070,0.7246,1.0444,0.0520,-0.00027181,-0.00009661,0.00423697,-0.09104235,0.05688057,-0.01238764,-0.2321,0.1377,-9.8373,-0.002753,-0.001513,0.005619,-22.1999,40.7971,1.7585,-33.8634,0.0280,63,-1,0,0.000175,-0.000146,-0.027922,0.005580,-0.009988,0.002632,-6.2754,-4.2640,0.1323
14429,3.0,0.000057,0.000301,-0.028100,-0.016762,0.000558,-0.000108,0.7339,1.0015,0.0498,-0.00028520,-0.00003581,0.00423772,-0.08930930,0.05726095,-0.01231983,-0.2248,0.1330,-9.8464,-0.000421,-0.002539,0.004136,-22.1999,40.7971,1.7585,-33.8634,0.0280,63,-1,0,0.000190,-0.000173,-0.027910,0.007059,-0.012653,0.002921,-6.1491,-4.1934,0.1258
14432,3.0,0.000003,0.000302,-0.028261,-0.018888,0.000568,-0.002260,0.7310,0.9599,0.0488,-0.00028616,0.00001630,0.00423819,-0.08966449,0.05845679,-0.00868737,-0.2207,0.1240,-9.8525,-0.000164,-0.004239,0.005511,-22.1999,40.7971,1.7585,-33.8634,0.0290,63,-1,0,0.000132,-0.000129,-0.028317,-0.001649,-0.004574,-0.001052,-6.5273,-4.4628,0.1493
14434,2.0,-0.000048,0.000302,-0.028265,-0.024220,0.000490,-0.002295,0.7389,0.8776,0.0503,-0.00029810,0.00013915,0.00423927,-0.08625184,0.05878849,-0.00856102,-0.2174,0.1263,-9.8591,-0.001364,-0.002949,0.004094,-22.1999,40.7971,1.7585,-33.8634,0.0290,63,-1,0,0.000129,-0.000142,-0.028315,-0.000118,-0.007286,-0.000790,-6.3980,-4.3901,0.1423
14436,2.0,-0.000070,0.000302,-0.028272,-0.014286,0.000547,-0.002420,0.7324,1.0382,0.0585,-0.00029400,-0.00011598,0.00423688,-0.09492043,0.05988343,-0.00885085,-0.2187,0.1519,-9.8491,0.000770,-0.002448,0.004194,-22.1999,40.7971,1.7585,-33.8634,0.0290,61,0,0,0.000130,-0.000162,-0.028314,0.001375,-0.009873,-0.000540,-6.2880,-4.3278,0.1365
14439,3.0,-0.000096,0.000303,-0.028408,-0.008112,0.000584,-0.004207,0.7430,1.1581,0.0674,-0.00030992,-0.00030378,0.00423528,-0.09998978,0.06030948,-0.00615793,-0.2184,0.1430,-9.8498,-0.001651,-0.002903,0.004883,-22.1999,40.7971,1.7585,-33.8634,0.0290,61,0,0,0.000134,-0.000189,-0.028311,0.002852,-0.012451,-0.000293,-6.1780,-4.2656,0.1309
14442,3.0,-0.000110,0.000304,-0.028421,-0.004756,0.000553,-0.004323,0.7407,1.2094,0.0712,-0.00031330,-0.00039723,0.00423444,-0.10434522,0.06154830,-0.00631432,-0.2277,0.1381,-9.8544,-0.003243,-0.003080,0.005151,-22.1999,40.7971,1.7585,-33.8634,0.0290,61,0,0,0.000121,-0.000144,-0.028316,0.001256,-0.004640,-0.000464,-6.4262,-4.3714,0.1435
14444,2.0,-0.000114,0.000304,-0.028431,-0.003067,0.000504,-0.004395,0.7480,1.2486,0.0719,-0.00032532,-0.00046181,0.00423408,-0.10605358,0.06186685,-0.00640297,-0.2455,0.1311,-9.8496,-0.001262,-0.002499,0.003954,-22.1999,40.7971,1.7585,-33.8634,0.0290,61,0,0,0.000125,-0.000157,-0.028313,0.002633,-0.007207,-0.000224,-6.3330,-4.3200,0.1386
14446,2.0,-0.000083,0.000304,-0.028539,0.010680,0.000490,-0.005783,0.7429,1.4637,0.0669,-0.00032320,-0.00083181,0.00423135,-0.11775296,0.06288180,-0.00467556,-0.2365,0.1240,-9.8417,-0.001791,-0.002923,0.003489,-22.1999,40.7971,1.7585,-33.8634,0.0290,55,1,0,0.000133,-0.000178,-0.028309,0.004017,-0.009766,0.000044,-6.2352,-4.2659,0.1334
14449,3.0,-0.000040,0.000305,-0.028558,0.014540,0.000523,-0.005888,0.7513,1.5437,0.0644,-0.00033845,-0.00096896,0.00423059,-0.12130119,0.06327558,-0.00489288,-0.2336,0.1295,-9.8467,-0.002648,-0.003088,0.003958,-22.1999,40.7971,1.7585,-33.8634,0.0290,55,1,0,0.000144,-0.000204,-0.028304,0.005392,-0.012279,0.000291,-6.1413,-4.2138,0.1286
14452,3.0,0.000011,0.000306,-0.028576,0.016672,0.000593,-0.005964,0.7473,1.5718,0.0626,-0.00033825,-0.00103178,0.00423016,-0.12510249,0.06439650,-0.00505816,-0.2299,0.1263,-9.8464,0.000271,-0.002502,0.002840,-22.1999,40.7971,1.7585,-33.8634,0.0290,55,1,0,0.000157,-0.000158,-0.028308,0.006242,-0.004486,0.000195,-6.3345,-4.2611,0.1368
14454,2.0,0.000061,0.000307,-0.028660,0.022216,0.000566,-0.006982,0.7535,1.6726,0.0536,-0.00034957,-0.00120992,0.00422931,-0.12960003,0.06467326,-0.00369342,-0.2352,0.1181,-9.8493,0.000105,-0.000323,0.004356,-22.1999,40.7971,1.7585,-33.8634,0.0290,55,1,0,0.000173,-0.000171,-0.028302,0.007578,-0.006987,0.000450,-6.2421,-4.2103,0.1321
14456,2.0,0.000081,0.000271,-0.028674,0.012365,-0.013241,-0.007036,0.9667,1.5060,0.1001,-0.00073926,-0.00092351,0.00423505,-0.12456025,0.07558003,-0.00356904,-0.2392,0.1262,-9.8563,0.001341,-0.000776,0.003645,-22.1999,40.7971,1.7585,-33.8634,0.0290,55,0,-1,0.000193,-0.000191,-0.028295,0.008885,-0.009435,0.000669,-6.1573,-4.1638,0.1277
14459,3.0,0.000103,0.000221,-0.028695,0.006061,-0.016833,-0.007152,1.0338,1.4237,0.1263,-0.00086081,-0.00077289,0.00423678,-0.12084389,0.07858513,-0.00342811,-0.2277,0.1192,-9.8654,0.001822,-0.002253,0.003369,-22.1999,40.7971,1.7585,-33.8634,0.0290,55,0,-1,0.000217,-0.000217,-0.028287,0.010212,-0.011883,0.000878,-6.0665,-4.1141,0.1231
14462,3.0,0.000114,0.000164,-0.028764,0.002649,-0.018845,-0.007888,1.0610,1.3638,0.1412,-0.00091989,-0.00067525,0.00423769,-0.12061542,0.08141252,-0.00224383,-0.2245,0.1184,-9.8600,0.000059,-0.003477,0.002611,-22.1999,40.7971,1.7585,-33.8634,0.0290,55,0,-1,0.000181,-0.000208,-0.028289,0.003560,-0.008892,0.000781,-6.1723,-4.2322,0.1310
14465,3.0,0.000079,0.000175,-0.028885,0.002120,-0.021724,-0.010572,6.5335,4.3217,1.0352,-0.00792019,-0.00455979,0.00425878,0.07248442,-0.26037538,-0.00148576,-0.2216,0.1137,-9.8464,-0.003879,-0.002653,0.003617,-22.1999,40.7971,1.7585,-33.8634,0.0290,55,0,-1,0.000191,-0.000232,-0.028280,0.004878,-0.011286,0.001052,-6.0821,-4.1820,0.1264
14467,2.0,0.000127,0.000140,-0.028882,0.012591,-0.009828,-0.009669,5.0658,3.7547,0.9703,-0.00594923,-0.00395694,0.00423958,0.01437582,-0.18082379,-0.00190893,-0.2137,0.1090,-9.8473,-0.001509,-0.001682,0.005308,-22.1999,40.7971,1.7585,-33.8634,0.0280,58,1,0,0.000204,-0.000262,-0.028030,0.006204,-0.013669,0.003454,-5.9854,-4.1280,0.1217
14469,2.0,0.000170,0.000134,-0.028714,0.018669,-0.004081,-0.007157,5.1545,3.9483,0.9894,-0.00602414,-0.00429223,0.00423742,0.01379853,-0.19221146,-0.00678027,-0.2177,0.1095,-9.8562,-0.000587,-0.003255,0.005966,-22.1999,40.7971,1.7585,-33.8634,0.0280,58,1,0,0.000221,-0.000298,-0.028017,0.007498,-0.016012,0.003669,-5.8970,-4.0790,0.1177
14472,3.0,0.000232,0.000120,-0.028723,0.017453,0.000162,-0.006540,4.5004,3.5962,0.9568,-0.00517986,-0.00385591,0.00423087,-0.01200007,-0.15070970,-0.00705190,-0.2252,0.1098,-9.8495,-0.000228,-0.002567,0.004922,-22.1999,40.7971,1.7585,-33.8634,0.0280,58,1,0,0.000226,-0.000242,-0.028014,0.006718,-0.005616,0.003513,-6.1145,-4.1469,0.1276
14474,2.0,0.000277,0.000127,-0.028745,0.021711,0.001398,-0.006750,5.0110,3.9595,0.9902,-0.00583645,-0.00439033,0.00423421,0.00204953,-0.18266301,-0.00776425,-0.2262,0.1131,-9.8490,-0.000739,-0.002299,0.005166,-22.1999,40.7971,1.7585,-33.8634,0.0280,58,1,0,0.000233,-0.000226,-0.027859,0.008596,-0.010066,0.008039,-3.2519,-3.1770,0.9295
14476,2.0,0.000276,0.000106,-0.028572,-0.001168,0.002448,-0.003464,3.3643,2.7132,0.8902,-0.00376206,-0.00254065,0.00422557,-0.04536767,-0.07255347,-0.00948710,-0.2310,0.1150,-9.8519,-0.004189,-0.001545,0.006561,-22.1999,40.7971,1.7585,-33.8634,0.0280,58,-1,0,0.000256,-0.000252,-0.027837,0.009251,-0.010631,0.008069,-3.2273,-3.1607,0.9313
14479,3.0,0.000252,0.000108,-0.028578,-0.010800,0.002493,-0.003234,3.1827,2.4844,0.8750,-0.00356049,-0.00215189,0.00422680,-0.04782708,-0.05691275,-0.00902589,-0.2295,0.1202,-9.8461,-0.002280,-0.001901,0.003202,-22.1999,40.7971,1.7585,-33.8634,0.0280,58,-1,0,0.000279,-0.000279,-0.027815,0.009902,-0.011174,0.008112,-3.2034,-3.1448,0.9326
14482,3.0,0.000210,0.000109,-0.028581,-0.015999,0.002423,-0.002990,2.9343,2.2681,0.8617,-0.00327223,-0.00182925,0.00422633,-0.05676576,-0.03665947,-0.00909664,-0.2360,0.1190,-9.8555,-0.000887,-0.002040,0.003196,-22.1999,40.7971,1.7585,-33.8634,0.0280,58,-1,0,0.000215,-0.000244,-0.027804,-0.000769,-0.003641,0.007831,-3.3313,-3.2839,0.9337
14484,2.0,0.000163,0.000109,-0.028469,-0.022455,0.002027,-0.001363,2.8415,2.1268,0.8532,-0.00317883,-0.00157868,0.00422763,-0.05737577,-0.02765398,-0.01160945,-0.2375,0.1383,-9.8481,0.000956,-0.005345,0.003194,-22.1999,40.7971,1.7585,-33.8634,0.0280,58,-1,0,0.000213,-0.000253,-0.027783,-0.000121,-0.004151,0.007865,-3.3099,-3.2701,0.9351
14486,2.0,0.000113,0.000107,-0.028466,-0.026003,0.001851,-0.001174,2.6277,1.9511,0.8432,-0.00292707,-0.00131859,0.00422703,-0.06512917,-0.01073300,-0.01165952,-0.2258,0.1554,-9.8556,-0.000279,-0.005331,0.001242,-22.1999,40.7971,1.7585,-33.8634,0.0280,66,-1,0,0.000214,-0.000264,-0.027762,0.000552,-0.004612,0.007878,-3.2894,-3.2562,0.9363
14489,3.0,-0.000044,0.000266,-0.028751,-0.021491,-0.001920,-0.010613,15.0149,8.7337,1.9373,-0.01864264,-0.01017131,0.00445517,0.39439476,-0.83815169,-0.00753978,-0.2244,0.1513,-9.8513,0.000542,-0.003374,0.001784,-22.1999,40.7971,1.7585,-33.8634,0.0280,66,-1,0,0.000216,-0.000276,-0.027740,0.001223,-0.005076,0.007903,-3.2686,-3.2418,0.9375
14492,3.0,-0.000082,0.000220,-0.028521,-0.024553,0.005470,-0.002733,11.4049,6.8224,1.4810,-0.01415604,-0.00771244,0.00435421,0.25436905,-0.58989322,-0.01512215,-0.2174,0.1395,-9.8553,-0.001740,-0.002613,0.001994,-22.1999,40.7971,1.7585,-33.8634,0.0280,66,-1,0,0.000177,-0.000259,-0.027726,-0.003437,-0.001783,0.007765,-3.3131,-3.2951,0.9386
14494,2.0,-0.000151,0.000249,-0.028569,-0.028153,0.005333,-0.003864,13.5854,7.9454,1.7331,-0.01695143,-0.00915861,0.00441393,0.33428428,-0.72920126,-0.01559204,-0.2145,0.1361,-9.8628,-0.003278,-0.002317,0.002076,-22.1999,40.7971,1.7585,-33.8634,0.0280,66,-1,0,0.000169,-0.000264,-0.027704,-0.002744,-0.002275,0.007772,-3.2900,-3.2785,0.9399
14497,3.0,-0.000208,0.000273,-0.028589,-0.017885,0.007652,-0.002936,14.7136,8.6862,1.9157,-0.01840926,-0.01034536,0.00445432,0.36123821,-0.79442155,-0.02156571,-0.2181,0.1321,-9.8638,-0.003876,-0.001552,0.004059,-22.1999,40.7971,1.7585,-33.8634,0.0290,70,0,0,0.000163,-0.000270,-0.028238,-0.002067,-0.002765,0.002765,-3.2719,-3.2647,0.9415
14499,2.0,-0.000242,0.000316,-0.028499,-0.012037,0.007645,-0.002878,17.8495,10.3941,2.4226,-0.02233833,-0.01273362,0.00454654,0.46919110,-0.99636775,-0.02839960,-0.2212,0.1267,-9.8675,-0.001508,-0.001254,0.006781,-22.1999,40.7971,1.7585,-33.8634,0.0290,70,0,0,0.000158,-0.000277,-0.028230,-0.001400,-0.003268,0.002733,-3.2491,-3.2487,0.9434
14502,3.0,-0.000261,0.000327,-0.028468,-0.010452,0.010967,0.001431,17.4407,10.2215,2.3653,-0.02192779,-0.01261838,0.00453760,0.44243038,-0.95486015,-0.03628202,-0.2166,0.1384,-9.8538,-0.002537,-0.001138,0.005889,-22.1999,40.7971,1.7585,-33.8634,0.0290,70,0,0,0.000160,-0.000265,-0.028223,-0.000228,-0.001169,0.002684,-3.2607,-3.2327,0.9473
14504,2.0,-0.000283,0.000360,-0.028510,-0.008369,0.010511,0.000631,19.6700,11.3846,2.7638,-0.02473835,-0.01425464,0.00460123,0.51795405,-1.09343052,-0.04067865,-0.2298,0.1344,-9.8324,-0.001637,-0.004344,0.006192,-22.1999,40.7971,1.7585,-33.8422,0.0290,70,0,0,0.000160,-0.000269,-0.028215,0.000385,-0.001618,0.002731,-3.2407,-3.2192,0.9492
14506,2.0,-0.000281,0.000356,-0.028253,-0.008112,0.011733,0.008022,18.6407,10.8657,2.5794,-0.02357179,-0.01362908,0.00457350,0.47086179,-1.01205492,-0.05305717,-0.2309,0.1280,-9.8320,-0.003238,-0.002990,0.004359,-22.1999,40.7971,1.7585,-33.8422,0.0290,70,0,0,0.000161,-0.000273,-0.028207,0.000991,-0.002077,0.002781,-3.2207,-3.2054,0.9508
14509,3.0,-0.000311,0.000406,-0.028268,-0.008172,0.012835,0.008295,20.8572,11.9973,2.9944,-0.02638829,-0.01523453,0.00463619,0.54457700,-1.14607227,-0.05974814,-0.2347,0.1286,-9.8350,-0.002560,-0.001813,0.002346,-22.1999,40.7971,1.7585,-33.8422,0.0290,70,0,0,0.000164,-0.000279,-0.028199,0.001583,-0.002526,0.002821,-3.2014,-3.1922,0.9521
14512,3.0,-0.000324,0.000426,-0.028187,-0.008785,0.014452,0.014153,20.5378,11.8362,2.9315,-0.02614457,-0.01510693,0.00462852,0.52079314,-1.10613549,-0.07108419,-0.2347,0.1173,-9.8314,-0.002947,-0.001356,0.001563,-22.1999,40.7971,1.7585,-33.8422,0.0290,70,0,0,0.000157,-0.000269,-0.028193,0.000675,-0.000954,0.002817,-3.2104,-3.1979,0.9538
14514,2.0,-0.000254,0.000392,-0.027844,-0.009784,0.014296,0.030451,16.6701,5.9795,0.6912,-0.02265130,-0.00584181,0.00794384,0.07197044,-0.83926022,-0.08789757,-0.2326,0.1194,-9.8430,-0.001796,-0.003128,0.002559,-22.8794,41.1561,1.3095,-33.8422,0.0290,70,0,0,0.000159,-0.000272,-0.028184,0.001256,-0.001404,0.002840,-3.1904,-3.1846,0.9552
14516,2.0,-0.000263,0.000380,-0.027779,-0.006946,-0.001125,0.030489,18.1246,6.1756,0.7131,-0.02487995,-0.00593779,0.00841944,0.07902539,-0.90835226,-0.10153030,-0.2367,0.1196,-9.8454,0.001252,-0.001867,0.004897,-22.8794,41.1561,1.3095,-33.8422,0.0290,62,0,-1,0.000163,-0.000276,-0.028176,0.001821,-0.001846,0.002854,-3.1708,-3.1717,0.9568
14519,3.0,-0.000279,0.000376,-0.027724,-0.005636,-0.004243,0.030358,19.9661,6.4411,0.7504,-0.02751893,-0.00607786,0.00905385,0.09078192,-1.01735973,-0.10896836,-0.2242,0.1186,-9.8351,-0.000814,-0.002027,0.005806,-22.8794,41.1561,1.3095,-33.8422,0.0290,62,0,-1,0.000168,-0.000281,-0.028167,0.002414,-0.002283,0.002899,-3.1500,-3.1576,0.9586
14522,3.0,-0.000288,0.000340,-0.027538,-0.004907,-0.005122,0.035333,19.8504,6.4220,0.7469,-0.02754130,-0.00613065,0.00900960,0.08229662,-0.98789859,-0.12024343,-0.2162,0.1170,-9.8314,-0.000967,-0.004040,0.005510,-22.8794,41.1561,1.3095,-33.8422,0.0290,62,0,-1,0.000159,-0.000308,-0.028155,0.001042,-0.005330,0.002989,-3.1006,-3.1586,0.9577
14524,2.0,-0.000292,0.000313,-0.027502,-0.004034,-0.012065,0.034709,21.4727,6.6498,0.7853,-0.02989804,-0.00623524,0.00955887,0.09398130,-1.08161616,-0.12809074,-0.2401,0.1161,-9.8410,0.000274,-0.005473,0.004744,-22.8794,41.1561,1.3095,-33.8422,0.0290,62,0,-1,0.000162,-0.000322,-0.028146,0.001570,-0.005731,0.003012,-3.0824,-3.1471,0.9594
14527,3.0,-0.000297,0.000282,-0.027323,-0.004349,0.001978,0.041714,20.2016,6.4781,0.7549,-0.02819900,-0.00625746,0.00914032,0.07502880,-0.98925638,-0.13136818,-0.2420,0.1272,-9.8379,0.001407,-0.004730,0.005747,-22.8794,41.1561,1.3095,-33.8422,0.0290,66,0,0,0.000166,-0.000336,-0.028137,0.002087,-0.006096,0.003039,-3.0655,-3.1362,0.9613
14529,2.0,-0.000301,0.000287,-0.027248,-0.003954,0.006509,0.043242,20.6087,6.5437,0.7654,-0.02878971,-0.00633202,0.00929219,0.07508068,-1.01253784,-0.13398145,-0.2303,0.1186,-9.8435,-0.002704,-0.001840,0.004186,-22.8794,41.1561,1.3095,-33.8422,0.0290,66,0,0,0.000172,-0.000352,-0.028128,0.002633,-0.006479,0.003058,-3.0473,-3.1235,0.9630
14532,3.0,-0.000307,0.000296,-0.027054,-0.004253,0.011299,0.048636,20.1045,6.4720,0.7530,-0.02823085,-0.00636354,0.00911827,0.06397232,-0.96276993,-0.14165555,-0.2281,0.1233,-9.8520,-0.001702,-0.002016,0.004229,-22.8794,41.1561,1.3095,-33.8422,0.0280,66,0,0,0.000162,-0.000330,-0.028029,0.000997,-0.002115,0.003822,-3.0877,-3.1390,0.9664
14534,2.0,-0.000310,0.000311,-0.026980,-0.003893,0.011737,0.049390,20.8015,6.5754,0.7698,-0.02926386,-0.00644367,0.00936228,0.06704371,-1.00159979,-0.14610077,-0.2415,0.1249,-9.8525,-0.000012,-0.001435,0.003596,-22.8794,41.1561,1.3095,-33.8422,0.0280,66,0,0,0.000165,-0.000336,-0.028019,0.001501,-0.002469,0.003808,-3.0712,-3.1279,0.9680
14536,2.0,-0.000312,0.000316,-0.026824,-0.003820,0.012635,0.053307,20.4330,6.5206,0.7601,-0.02888352,-0.00646235,0.00923048,0.05868372,-0.96245372,-0.15298958,-0.2501,0.1311,-9.8643,-0.000005,-0.000558,0.004000,-22.8794,41.1561,1.3095,-33.8422,0.0280,70,0,0,0.000169,-0.000342,-0.028008,0.001981,-0.002801,0.003762,-3.0562,-3.1177,0.9696
14539,3.0,-0.000255,-0.000050,-0.023685,-0.005184,0.022236,0.161973,-13.2317,1.4531,1.5603,0.01584275,-0.00455320,-0.00443901,-0.32787982,1.53960216,-0.24527954,-0.2476,0.1219,-9.8626,-0.002603,-0.002168,0.002856,-22.8794,41.1561,1.3095,-33.8422,0.0280,70,0,0,0.000175,-0.000350,-0.027998,0.002463,-0.003152,0.003722,-3.0407,-3.1074,0.9711
14541,2.0,-0.000262,-0.000016,-0.023486,-0.003006,0.007912,0.159257,-11.8108,1.6095,1.4753,0.01383299,-0.00455006,-0.00379636,-0.31801099,1.44443798,-0.24343392,-0.2335,0.1304,-9.8679,-0.004264,-0.000843,0.002412,-22.8794,41.1561,1.3095,-33.8422,0.0280,70,0,0,0.000165,-0.000339,-0.027990,0.000922,-0.001135,0.003622,-3.0547,-3.1188,0.9729
14544,3.0,-0.000268,-0.000003,-0.024191,-0.001774,-0.001380,0.146620,-11.6225,1.6397,1.4606,0.01358143,-0.00458867,-0.00367918,-0.31917372,1.43145800,-0.21945955,-0.2288,0.1342,-9.8582,-0.003609,-0.002279,0.002889,-22.8794,41.1561,1.3095,-33.8422,0.0280,70,0,0,0.000168,-0.000342,-0.027980,0.001438,-0.001437,0.003595,-3.0390,-3.1074,0.9744
14546,2.0,-0.000268,0.000052,-0.023686,-0.001900,0.022996,0.154213,-13.6594,1.4191,1.5835,0.01677497,-0.00465104,-0.00459537,-0.33916208,1.53692961,-0.23068707,-0.2282,0.1152,-9.8433,-0.001404,-0.002187,0.002424,-22.8794,41.1561,1.3095,-33.8422,0.0280,60,0,2,0.000172,-0.000346,-0.027970,0.001951,-0.001779,0.003609,-3.0214,-3.0953,0.9758
14549,3.0,-0.000271,0.000130,-0.023087,-0.001696,0.026005,0.160024,-14.8240,1.3002,1.6557,0.01854438,-0.00470102,-0.00510294,-0.35061786,1.60316539,-0.23788333,-0.2363,0.1256,-9.8487,-0.001196,0.001100,0.003544,-22.8794,41.1561,1.3095,-33.8422,0.0280,60,0,2,0.000177,-0.000351,-0.027960,0.002438,-0.002088,0.003604,-3.0057,-3.0841,0.9773
14552,3.0,-0.000275,0.000228,-0.023680,-0.001443,0.027170,0.150420,-14.8978,1.2953,1.6612,0.01883644,-0.00470968,-0.00513076,-0.35304680,1.59087563,-0.22181442,-0.2209,0.1283,-9.8338,-0.001116,0.001078,0.006581,-22.8794,41.1561,1.3095,-33.8422,0.0280,60,0,2,0.000166,-0.000272,-0.027960,0.000762,0.007997,0.003479,-3.1043,-3.1045,0.9844
14554,2.0,-0.000277,0.000314,-0.023228,-0.001681,0.038342,0.155766,-16.3163,1.1510,1.7528,0.02102871,-0.00476105,-0.00575132,-0.36636567,1.66965044,-0.23223141,-0.2270,0.1288,-9.8433,-0.002385,-0.000881,0.004511,-22.8794,41.1561,1.3095,-33.8422,0.0280,60,0,2,0.000169,-0.000252,-0.027950,0.001265,0.007694,0.003490,-3.0880,-3.0929,0.9861
14556,2.0,-0.000281,0.000364,-0.023079,-0.000839,0.016538,0.154180,-14.6100,1.3238,1.6467,0.01852896,-0.00469464,-0.00501427,-0.35117832,1.55974853,-0.22376278,-0.2188,0.1206,-9.8497,-0.003529,-0.001643,0.005006,-22.8794,41.1561,1.3095,-33.8422,0.0280,71,0,0,0.000172,-0.000233,-0.027940,0.001786,0.007375,0.003489,-3.0705,-3.0803,0.9878
14559,3.0,-0.000283,0.000393,-0.023641,-0.000426,0.002239,0.144411,-14.2789,1.3634,1.6248,0.01803643,-0.00469815,-0.00485241,-0.34920961,1.54010999,-0.20295689,-0.2205,0.1244,-9.8449,-0.002023,-0.001940,0.003898,-22.8794,41.1561,1.3095,-33.8422,0.0280,71,0,0,0.000177,-0.000215,-0.027930,0.002297,0.007073,0.003499,-3.0535,-3.0683,0.9895
14562,3.0,-0.000284,0.000398,-0.023216,-0.000228,-0.005187,0.146677,-13.9408,1.3958,1.6069,0.01764077,-0.00467561,-0.00471629,-0.34661919,1.50808203,-0.20472226,-0.2236,0.1297,-9.8454,-0.001437,-0.002055,0.002167,-22.8794,41.1561,1.3095,-33.8422,0.0280,71,0,0,0.000168,-0.000236,-0.027916,0.000883,0.002132,0.003554,-2.9917,-3.0691,0.9873
14565,3.0,-0.000321,0.000611,-0.024116,0.001029,-0.013559,0.129352,5.9916,4.1964,0.5824,-0.00879559,-0.00554883,0.00589098,-0.11883396,-0.03890087,-0.20122813,-0.2180,0.1422,-9.8424,-0.000559,-0.000799,0.003444,-22.8794,41.1561,1.3095,-33.7894,0.0290,71,0,0,0.000171,-0.000231,-0.028371,0.001376,0.001918,-0.000717,-2.9793,-3.0594,0.9890
14567,2.0,-0.000319,0.000594,-0.024860,-0.000354,-0.006002,0.118331,5.2588,4.1535,0.5782,-0.00771270,-0.00566856,0.00590186,-0.12447391,0.01158631,-0.18260464,-0.2190,0.1471,-9.8303,-0.002168,-0.000311,0.004591,-22.8794,41.1561,1.3095,-33.7894,0.0290,72,0,0,0.000175,-0.000226,-0.028372,0.001862,0.001720,-0.000701,-2.9652,-3.0485,0.9908
14569,2.0,-0.000319,0.000587,-0.024613,-0.001157,-0.002173,0.118971,5.0969,4.1466,0.5774,-0.00746161,-0.00571669,0.00590207,-0.12650250,0.02144148,-0.18280618,-0.2333,0.1477,-9.8351,-0.004095,-0.001421,0.003737,-22.8794,41.1561,1.3095,-33.7894,0.0290,72,0,0,0.000180,-0.000222,-0.028373,0.002307,0.001529,-0.000699,-2.9527,-3.0391,0.9925
14572,3.0,-0.000321,0.000581,-0.024239,-0.001939,0.000604,0.119915,4.7991,4.1283,0.5758,-0.00706036,-0.00578740,0.00590707,-0.13072906,0.04494928,-0.18298814,-0.2381,0.1333,-9.8409,-0.000943,-0.003154,0.004705,-22.8794,41.1561,1.3095,-33.7894,0.0290,72,0,0,0.000171,-0.000225,-0.028374,0.000873,0.000435,-0.000713,-2.9329,-3.0453,0.9929
14574,2.0,-0.000322,0.000584,-0.024975,-0.002013,0.001439,0.108819,5.0189,4.1452,0.5770,-0.00736871,-0.00579251,0.00590101,-0.13275930,0.03072135,-0.16513723,-0.2335,0.1294,-9.8378,-0.000367,-0.002527,0.005081,-22.8794,41.1561,1.3095,-33.7894,0.0290,72,0,0,0.000253,-0.000362,-0.029193,-0.004642,0.010419,-0.012366,-18.2076,-11.5045,1.7637
14576,2.0,-0.000324,0.000583,-0.024748,-0.002107,0.002064,0.109398,4.8194,4.1316,0.5759,-0.00712204,-0.00584042,0.00590555,-0.13626848,0.04835031,-0.16540886,-0.2298,0.1252,-9.8361,-0.002744,-0.002284,0.004578,-22.8794,41.1561,1.3095,-33.7894,0.0290,59,0,0,0.000232,-0.000318,-0.028997,0.002947,-0.002420,-0.006423,-14.0738,-9.3559,1.1719
14579,3.0,-0.000328,0.000589,-0.024427,-0.002404,0.002593,0.109949,4.9969,4.1457,0.5769,-0.00739851,-0.00586174,0.00590018,-0.13822265,0.03769066,-0.16591240,-0.2235,0.1333,-9.8194,-0.003018,-0.002839,0.005032,-22.8794,41.1561,1.3095,-33.7894,0.0290,59,0,0,0.000237,-0.000319,-0.028863,0.008841,-0.012151,-0.002509,-11.4772,-7.9727,0.8802
14582,3.0,-0.000332,0.000594,-0.025018,-0.002515,0.002931,0.099658,5.0054,4.1464,0.5769,-0.00744972,-0.00589868,0.00590019,-0.14268969,0.04218260,-0.14932479,-0.2274,0.1295,-9.8332,-0.002474,-0.003705,0.005209,-22.8794,41.1561,1.3095,-33.7894,0.0290,59,0,0,0.000201,-0.000272,-0.028918,0.003612,-0.005435,-0.002659,-12.6589,-8.6136,1.0076
14584,2.0,-0.000334,0.000598,-0.024825,-0.002334,0.002785,0.099957,5.1595,4.1586,0.5779,-0.00769334,-0.00591869,0.00589555,-0.14436206,0.03308215,-0.14983346,-0.2422,0.1452,-9.8367,-0.002913,-0.002742,0.005277,-22.8794,41.1561,1.3095,-33.7894,0.0290,59,0,0,0.000208,-0.000282,-0.028845,0.007838,-0.012235,-0.000200,-11.4326,-7.9561,0.8785
14586,2.0,-0.000335,0.000599,-0.024620,-0.002288,0.002886,0.100451,5.0445,4.1504,0.5772,-0.00757275,-0.00595671,0.00589859,-0.14758828,0.04511851,-0.15025941,-0.2400,0.1361,-9.8376,-0.001783,-0.001717,0.005304,-22.8794,41.1561,1.3095,-33.7894,0.0290,67,0,0,0.000228,-0.000312,-0.028775,0.011733,-0.018448,0.001916,-10.3885,-7.3923,0.7797
14589,3.0,-0.000327,0.000467,-0.024676,-0.002814,0.006368,0.099088,-7.6340,3.2281,0.4404,0.00944885,-0.00686204,0.00879393,-0.23061930,1.06095684,-0.13108441,-0.2313,0.1205,-9.8381,-0.003295,-0.000668,0.005965,-22.8794,41.1561,1.3095,-33.7894,0.0290,67,0,0,0.000258,-0.000359,-0.028702,0.015378,-0.024212,0.003833,-9.4369,-6.8749,0.6987
14592,3.0,-0.000332,0.000478,-0.024387,-0.002336,-0.000458,0.099889,-7.3814,3.2433,0.4426,0.00910162,-0.00685955,0.00871518,-0.23236172,1.04072475,-0.13136581,-0.2286,0.1202,-9.8531,-0.002582,-0.002211,0.004921,-22.8794,41.1561,1.3095,-33.7894,0.0290,67,0,0,0.000207,-0.000284,-0.028770,0.005319,-0.008558,0.002524,-11.1729,-7.8193,0.8560
14594,2.0,-0.000333,0.000478,-0.024181,-0.001953,-0.002842,0.100557,-7.4808,3.2407,0.4406,0.00927086,-0.00691257,0.00874518,-0.23486654,1.04577672,-0.13169596,-0.2355,0.1389,-9.8573,-0.001004,-0.003461,0.005816,-22.8794,41.1561,1.3095,-33.7894,0.0290,67,0,0,0.000221,-0.000306,-0.028706,0.008856,-0.014102,0.004301,-10.4646,-7.4357,0.7899
14598,4.0,-0.000340,0.000446,-0.024538,-0.001961,-0.013963,0.092612,-7.0973,3.2653,0.4440,0.00870841,-0.00690261,0.00862619,-0.23674887,1.01915586,-0.11788283,-0.2341,0.1284,-9.8523,0.000910,-0.003297,0.005514,-22.8794,41.1561,1.3095,-33.7894,0.0280,65,0,-1,0.000244,-0.000342,-0.028063,0.012226,-0.019369,0.011288,-9.7828,-7.0648,0.7306
14599,1.0,-0.000340,0.000386,-0.024497,-0.001323,-0.034980,0.092248,-6.1329,3.3254,0.4549,0.00704100,-0.00681072,0.00832831,-0.23303427,0.96933770,-0.11483031,-0.2165,0.1288,-9.8495,-0.001597,-0.001282,0.003445,-22.8794,41.1561,1.3095,-33.7894,0.0280,65,0,-1,0.000277,-0.000393,-0.028004,0.015466,-0.024320,0.012652,-9.1573,-6.7224,0.6798
14602,3.0,-0.000342,0.000294,-0.024201,-0.001547,-0.031778,0.093176,-6.3871,3.3087,0.4509,0.00755345,-0.00685295,0.00840733,-0.23660789,0.97666073,-0.11653288,-0.2171,0.1290,-9.8532,-0.001271,-0.001799,0.001990,-22.8794,41.1561,1.3095,-33.7894,0.0280,65,0,-1,0.000222,-0.000346,-0.027992,0.005544,-0.013131,0.012250,-10.0634,-7.2390,0.7577
14604,2.0,-0.000343,0.000231,-0.024686,-0.001414,-0.033982,0.085490,-6.4268,3.3107,0.4492,0.00764448,-0.00690069,0.00841888,-0.23919295,0.97818023,-0.10449357,-0.2249,0.1260,-9.8458,0.000806,-0.001350,0.004026,-22.8794,41.1561,1.3095,-33.7894,0.0280,65,0,-1,0.000237,-0.000380,-0.027932,0.008626,-0.017846,0.013584,-9.5558,-6.9613,0.7150
14606,2.0,-0.000378,0.000197,-0.024481,-0.013752,-0.022091,0.086337,-7.0206,3.2460,0.4462,0.00875570,-0.00660293,0.00860092,-0.22751081,1.00285697,-0.10619320,-0.2197,0.1285,-9.8322,-0.001637,-0.000525,0.002866,-22.8794,41.1561,1.3095,-33.7894,0.0280,59,-1,0,0.000260,-0.000426,-0.027869,0.011587,-0.022317,0.014851,-9.0897,-6.7048,0.6777
14609,3.0,-0.000426,0.000150,-0.024190,-0.017338,-0.015323,0.087375,-7.6158,3.2073,0.4391,0.00981963,-0.00661974,0.00878292,-0.22810580,1.03221190,-0.10821927,-0.2337,0.1226,-9.8361,-0.001937,-0.001505,0.003066,-22.8794,41.1561,1.3095,-33.7894,0.0280,59,-1,0,0.000291,-0.000485,-0.027805,0.014371,-0.026549,0.015961,-8.6935,-6.4867,0.6478
14612,3.0,-0.000482,0.000122,-0.024591,-0.019247,-0.011683,0.080095,-7.8434,3.1901,0.4362,0.01033669,-0.00661444,0.00885230,-0.22998601,1.03631866,-0.09770447,-0.2299,0.1245,-9.8278,0.000547,-0.000585,0.003143,-22.8794,41.1561,1.3095,-33.7894,0.0280,59,-1,0,0.000208,-0.000398,-0.027803,0.001022,-0.009307,0.015100,-9.7946,-7.1096,0.7383
14614,2.0,-0.000535,0.000139,-0.024474,-0.024180,-0.009970,0.081613,-5.4375,3.3297,0.5398,0.00720995,-0.00621619,0.00694188,-0.21209878,0.82785112,-0.10147360,-0.2299,0.1266,-9.8347,0.000213,-0.002829,0.003824,-22.5397,40.0791,0.8605,-33.7894,0.0280,59,-1,0,0.000212,-0.000423,-0.027737,0.003903,-0.013691,0.016324,-9.4210,-6.9045,0.7077
14616,2.0,-0.000553,0.000131,-0.024305,-0.014689,-0.007775,0.082031,-5.4861,3.3456,0.5385,0.00738840,-0.00652561,0.00692171,-0.22702685,0.82390767,-0.10339928,-0.2373,0.1236,-9.8544,-0.000568,-0.003051,0.004088,-22.5397,40.0791,0.8605,-33.7894,0.0280,55,0,0,0.000224,-0.000460,-0.027669,0.006670,-0.017910,0.017400,-9.0873,-6.7209,0.6816
14619,3.0,-0.000579,0.000116,-0.024713,-0.008813,-0.006902,0.074389,-5.6135,3.3564,0.5380,0.00769060,-0.00679088,0.00689927,-0.23867987,0.82655007,-0.09279045,-0.2341,0.1219,-9.8570,0.001080,-0.003788,0.005492,-22.5397,40.0791,0.8605,-33.7894,0.0280,55,0,0,0.000243,-0.000508,-0.027598,0.009363,-0.021986,0.018419,-8.7693,-6.5456,0.6580
14622,3.0,-0.000593,0.000103,-0.024484,-0.005516,-0.006358,0.074981,-5.6712,3.3595,0.5373,0.00788283,-0.00692387,0.00689299,-0.24592732,0.82319683,-0.09409691,-0.2301,0.1315,-9.8479,-0.000230,-0.003424,0.003437,-22.5397,40.0791,0.8605,-33.7894,0.0280,55,0,0,0.000206,-0.000431,-0.027574,0.003594,-0.008079,0.018058,-9.3821,-6.8631,0.7058
14624,2.0,-0.000597,0.000098,-0.024330,-0.003750,-0.005593,0.075335,-5.7721,3.3604,0.5372,0.00810810,-0.00702965,0.00688451,-0.25031194,0.82556510,-0.09491183,-0.2258,0.1326,-9.8534,-0.000740,-0.003933,0.003938,-22.5397,40.0791,0.8605,-33.7894,0.0280,55,0,0,0.000217,-0.000454,-0.027500,0.006280,-0.012089,0.019118,-9.0874,-6.7003,0.6828
14626,2.0,-0.000600,0.000130,-0.024791,-0.002942,0.008010,0.067837,-6.1102,3.3404,0.5394,0.00894393,-0.00710667,0.00687977,-0.25594643,0.82913578,-0.08598837,-0.2318,0.1133,-9.8511,-0.000288,-0.004781,0.004133,-22.5397,40.0791,0.8605,-33.7894,0.0280,58,0,1,0.000234,-0.000487,-0.027423,0.008879,-0.016021,0.020152,-8.8019,-6.5427,0.6614
14630,4.0,-0.000609,0.000167,-0.024511,-0.002615,0.008607,0.068548,-6.2971,3.3359,0.5394,0.00936610,-0.00721224,0.00687114,-0.26028165,0.83358192,-0.08725885,-0.2310,0.1224,-9.8510,0.001189,-0.003811,0.002908,-22.5397,40.0791,0.8605,-33.7894,0.0290,58,0,1,0.000259,-0.000530,-0.027871,0.011394,-0.019777,0.016250,-8.5589,-6.4084,0.6438
14632,2.0,-0.000610,0.000215,-0.024363,-0.002210,0.017183,0.068903,-6.5115,3.3220,0.5409,0.00992575,-0.00725330,0.00687072,-0.26382253,0.83374560,-0.08923779,-0.2316,0.1371,-9.8614,-0.000188,-0.002783,0.005033,-22.5397,40.0791,0.8605,-33.7894,0.0290,58,0,1,0.000216,-0.000425,-0.027849,0.004140,-0.002840,0.015759,-9.2078,-6.7443,0.6936
14634,2.0,-0.000612,0.000267,-0.025010,-0.002027,0.021543,0.059264,-6.7016,3.3156,0.5417,0.01037410,-0.00733079,0.00686303,-0.26747587,0.83843267,-0.07602910,-0.2287,0.1505,-9.8504,-0.000723,-0.003033,0.003908,-22.5397,40.0791,0.8605,-33.7894,0.0290,58,0,1,0.000228,-0.000434,-0.027794,0.006685,-0.006581,0.016590,-8.9832,-6.6195,0.6764
14636,2.0,-0.000578,0.000288,-0.024899,0.010867,0.010226,0.059796,-6.4102,3.3620,0.5363,0.00979362,-0.00774288,0.00684361,-0.28426042,0.82513207,-0.07619654,-0.2272,0.1454,-9.8516,-0.004183,-0.001830,0.004121,-22.5397,40.0791,0.8605,-33.7894,0.0290,59,1,0,0.000247,-0.000454,-0.027736,0.009180,-0.010240,0.017395,-8.7640,-6.4970,0.6601
14639,3.0,-0.000528,0.000252,-0.024724,0.014126,0.003704,0.055431,-11.5741,2.8202,0.7154,0.01695968,-0.00683969,0.00562563,-0.33658287,1.26847935,-0.06819375,-0.2252,0.1426,-9.8554,-0.004878,-0.000712,0.004204,-22.5397,40.0791,0.8605,-33.7894,0.0290,59,1,0,0.000272,-0.000482,-0.027676,0.011627,-0.013811,0.018167,-8.5513,-6.3776,0.6448
14642,3.0,-0.000478,0.000258,-0.025230,0.016490,-0.003231,0.048455,-11.3700,2.8423,0.7042,0.01672498,-0.00694458,0.00571543,-0.34030125,1.24760044,-0.05706812,-0.2178,0.1378,-9.8639,-0.002548,-0.002878,0.003586,-22.5397,40.0791,0.8605,-33.7894,0.0290,59,1,0,0.000261,-0.000429,-0.027634,0.008498,-0.005622,0.018242,-8.7695,-6.4853,0.6612
14644,2.0,-0.000427,0.000256,-0.025130,0.022098,-0.005381,0.049226,-11.4885,2.8492,0.7070,0.01697785,-0.00716545,0.00564222,-0.34935519,1.25212276,-0.05839595,-0.2210,0.1446,-9.8539,-0.001641,-0.001770,0.003996,-22.5397,40.0791,0.8605,-33.7313,0.0290,59,1,0,0.000284,-0.000446,-0.027570,0.010870,-0.009047,0.019013,-8.5707,-6.3738,0.6469
14646,2.0,-0.000410,0.000217,-0.025034,0.012563,-0.020838,0.050684,-10.9299,2.8676,0.6840,0.01597092,-0.00683107,0.00593428,-0.33356732,1.21715033,-0.05597568,-0.2313,0.1263,-9.8356,-0.001289,-0.001989,0.004155,-22.5397,40.0791,0.8605,-33.7313,0.0290,53,0,-1,0.000313,-0.000471,-0.027504,0.013161,-0.012423,0.019806,-8.3789,-6.2665,0.6334
14649,3.0,-0.000388,0.000150,-0.025495,0.006272,-0.026322,0.043970,-11.0897,2.8428,0.6928,0.01627356,-0.00663385,0.00587647,-0.32864487,1.22577751,-0.04519588,-0.2275,0.1224,-9.8402,-0.002452,-0.001424,0.003567,-22.5397,40.0791,0.8605,-33.7313,0.0290,53,0,-1,0.000348,-0.000505,-0.027436,0.015417,-0.015729,0.020575,-8.1890,-6.1599,0.6204
