timestamp_ms,dt_ms,pos_x,pos_y,pos_z,vel_x,vel_y,vel_z,roll_deg,pitch_deg,yaw_deg,gyro_bias_x,gyro_bias_y,gyro_bias_z,accel_bias_x,accel_bias_y,accel_bias_z,raw_accel_x,raw_accel_y,raw_accel_z,raw_gyro_x,raw_gyro_y,raw_gyro_z,raw_baro_alt,raw_tof,raw_flow_squal,raw_flow_dx,raw_flow_dy,dev_pos_x,dev_pos_y,dev_pos_z,dev_vel_x,dev_vel_y,dev_vel_z,dev_roll_deg,dev_pitch_deg,dev_yaw_deg
11023,10.0,0.000007,-0.000015,-0.032968,0.000462,-0.001285,0.073698,-0.0004,-0.0003,0.0007,0.00000000,0.00000000,-0.00184470,-0.00001364,-0.00008669,0.00000000,-0.1566,0.1526,-9.7277,-0.002055,-0.001463,-0.002257,36.4687,0.0330,88,1,0,0.000158,0.000221,-0.032411,-0.000184,0.002859,-0.008445,-0.9492,-0.8688,0.2740
11035,12.0,-0.000007,-0.000088,-0.031727,-0.001055,-0.003221,0.133046,-0.0028,-0.0003,0.0009,0.00000000,-0.00000000,-0.00184470,-0.00001232,-0.00008026,0.00000000,-0.1499,0.1733,-9.7293,-0.002773,-0.000891,-0.004440,36.4687,0.0330,95,3,1,0.000166,0.000205,-0.032492,-0.000255,0.002560,-0.007706,-0.9498,-0.8688,0.2739
11046,11.0,0.000005,-0.000091,-0.029067,-0.001427,-0.001108,0.204776,-0.0023,-0.0025,0.0005,-0.00000000,0.00000000,-0.00184470,-0.00001697,-0.00008414,-0.00002774,-0.1636,0.1642,-9.7313,-0.000983,-0.001629,-0.002837,36.4687,0.0310,93,0,0,0.000106,0.000120,-0.032585,-0.000696,0.002076,-0.005735,-0.9524,-0.8682,0.2740
11057,11.0,-0.000000,-0.000073,-0.030941,-0.001112,-0.000497,0.085703,-0.4722,-0.4562,0.0014,0.00000360,0.00000348,-0.00184470,-0.00002008,-0.00008940,0.00007476,-0.1633,0.1679,-9.7409,-0.002868,-0.000320,-0.003564,36.4687,0.0310,93,0,0,0.000113,0.000127,-0.031521,-0.000669,0.002049,0.006889,-0.9544,-0.8739,0.2740
11068,11.0,0.000010,-0.000046,-0.029937,-0.001483,0.001005,0.087941,-0.4716,-0.4589,0.0005,0.00000359,0.00000349,-0.00184470,-0.00002743,-0.00009655,0.00005419,-0.1579,0.1768,-9.7532,-0.001261,-0.002716,-0.001708,36.4687,0.0310,81,-1,0,0.000126,0.000167,-0.031368,-0.000691,0.002075,0.008419,-0.9612,-0.8782,0.2735
11079,11.0,0.000036,-0.000003,-0.028966,-0.000751,0.001421,0.088671,-0.6487,-0.6209,0.0018,0.00000629,0.00000591,-0.00184470,-0.00003966,-0.00010781,0.00005421,-0.1606,0.1843,-9.7302,-0.004032,-0.002243,-0.000136,36.4687,0.0320,89,-1,-1,0.000133,0.000197,-0.031239,-0.000738,0.002293,0.009565,-0.9601,-0.8776,0.2733
11090,11.0,0.000072,0.000001,-0.031276,-0.000674,0.001946,0.029775,-0.6560,-0.6295,0.0020,0.00000629,0.00000592,-0.00184470,-0.00005239,-0.00010756,0.00201733,-0.1637,0.1887,-9.7114,-0.003170,-0.001770,-0.000552,36.4687,0.0320,91,0,-1,0.000164,0.000230,-0.031667,-0.000542,0.002396,0.004564,-0.9669,-0.8839,0.1861
11101,11.0,0.000101,0.000043,-0.030944,-0.000195,0.002144,0.030579,-0.7573,-0.7140,0.0030,0.00000895,0.00000809,-0.00184469,-0.00006487,-0.00011977,0.00201715,-0.1752,0.1796,-9.7288,-0.004902,-0.001027,-0.003950,36.4687,0.0320,94,-1,-1,0.000227,0.000245,-0.031531,-0.000436,0.002450,0.006528,-0.9706,-0.8898,0.1873
11112,11.0,0.000111,0.000049,-0.030589,-0.000506,0.002506,0.031668,-0.7613,-0.7158,0.0031,0.00000897,0.00000810,-0.00184469,-0.00007207,-0.00010930,0.00199370,-0.1580,0.1795,-9.7321,-0.004225,-0.000266,-0.001807,36.5268,0.0310,87,0,0,0.000260,0.000277,-0.031461,-0.000480,0.002568,0.007309,-0.9711,-0.8903,0.1863
11123,11.0,0.000114,0.000062,-0.030771,-0.000389,0.002334,0.025147,-0.8227,-0.7668,0.0034,0.00001135,0.00001012,-0.00184469,-0.00006488,-0.00011473,0.00302636,-0.1626,0.1737,-9.7267,-0.003448,-0.003318,-0.004178,36.5268,0.0310,80,0,0,0.000274,0.000292,-0.031028,-0.000489,0.002292,0.011679,-0.9733,-0.8938,0.1866
11134,11.0,0.000123,0.000068,-0.030482,-0.000565,0.002554,0.026072,-0.8265,-0.7692,0.0031,0.00001137,0.00001013,-0.00184470,-0.00007390,-0.00010172,0.00300389,-0.1416,0.1817,-9.7300,-0.002497,-0.004544,-0.002733,36.5268,0.0310,90,0,0,0.000280,0.000299,-0.030900,-0.000475,0.002254,0.012557,-0.9773,-0.8999,0.1864
11145,11.0,0.000074,0.000080,-0.030191,-0.000936,0.002410,0.026907,-0.8624,-0.7913,0.0034,0.00001340,0.00001152,-0.00184471,-0.00004300,-0.00009751,0.00300337,-0.1630,0.1708,-9.7230,-0.003050,-0.001391,-0.000811,36.5268,0.0320,84,0,2,0.000287,0.000306,-0.030770,-0.000373,0.002322,0.013334,-0.9774,-0.9012,0.1864
11156,11.0,0.000082,0.000088,-0.031204,-0.000981,0.002467,0.011835,-0.8694,-0.7976,0.0029,0.00001338,0.00001151,-0.00184471,-0.00000505,-0.00013789,0.00825892,-0.1626,0.1596,-9.7401,-0.003113,-0.001969,-0.003773,36.5268,0.0320,91,0,0,0.000251,0.000320,-0.031401,-0.000467,0.002319,0.005507,-0.9799,-0.9038,0.1877
11167,11.0,0.000088,0.000099,-0.031069,-0.000859,0.002346,0.012592,-0.8892,-0.8165,0.0028,0.00001485,0.00001295,-0.00184471,-0.00001150,-0.00013125,0.00825864,-0.1627,0.1685,-9.7269,-0.002984,0.000796,-0.002456,36.5268,0.0320,89,0,0,0.000258,0.000327,-0.031342,-0.000448,0.002260,0.006158,-0.9794,-0.9072,0.1873
11178,11.0,0.000097,0.000106,-0.030918,-0.000975,0.002404,0.013490,-0.8924,-0.8184,0.0027,0.00001488,0.00001298,-0.00184471,-0.00002742,-0.00011566,0.00820634,-0.1635,0.1795,-9.7177,-0.003476,-0.001675,-0.000948,36.5268,0.0320,89,0,0,0.000266,0.000335,-0.031267,-0.000519,0.002204,0.006991,-0.9806,-0.9066,0.1870
11189,11.0,0.000102,0.000090,-0.031480,-0.000844,0.002081,0.005921,-0.9098,-0.8341,0.0028,0.00001616,0.00001438,-0.00184471,0.00001801,-0.00014215,0.01276576,-0.1433,0.1685,-9.7321,-0.002290,-0.001165,-0.002104,36.5268,0.0320,85,1,0,0.000281,0.000351,-0.031652,-0.000570,0.002106,0.003066,-0.9868,-0.9070,0.3870
11201,12.0,0.000082,0.000100,-0.031398,-0.001040,0.002174,0.006792,-0.9130,-0.8340,0.0026,0.00001620,0.00001436,-0.00184472,0.00002488,-0.00012711,0.01271615,-0.1426,0.1719,-9.7372,-0.003704,-0.000712,-0.004264,36.5268,0.0320,93,0,1,0.000288,0.000334,-0.031610,-0.000515,0.001985,0.003799,-0.9889,-0.9049,0.3863
11212,11.0,0.000089,0.000110,-0.031319,-0.000927,0.002102,0.007546,-0.9284,-0.8408,0.0023,0.00001815,0.00001511,-0.00184472,0.00001167,-0.00012483,0.01271588,-0.1538,0.1905,-9.7163,-0.001137,-0.001745,-0.002131,36.5268,0.0330,89,0,0,0.000270,0.000341,-0.031569,-0.000471,0.002054,0.004401,-0.9901,-0.9035,0.3850
11223,11.0,0.000097,0.000118,-0.032226,-0.000858,0.002224,-0.003331,-0.9330,-0.8449,0.0020,0.00001814,0.00001512,-0.00184472,0.00010018,-0.00022296,0.02106886,-0.1640,0.1996,-9.7186,-0.001308,-0.003288,-0.001210,36.5268,0.0330,95,0,0,0.000286,0.000357,-0.032452,-0.000481,0.001998,-0.004315,-0.9952,-0.9026,0.3845
11234,11.0,0.000160,0.000156,-0.032259,-0.000406,0.002338,-0.002678,-0.9457,-0.8543,0.0014,0.00002028,0.00001606,-0.00184469,0.00003292,-0.00024929,0.02106863,-0.1483,0.1638,-9.7346,-0.004831,-0.002037,0.000968,36.5268,0.0330,83,-1,-2,0.000293,0.000365,-0.032492,-0.000477,0.001999,-0.003589,-0.9986,-0.9056,0.3852
11245,11.0,0.000223,0.000164,-0.032277,-0.000103,0.002444,-0.001887,-0.9491,-0.8589,0.0361,0.00002036,0.00001631,-0.00184609,-0.00003807,-0.00022865,0.02098805,-0.1573,0.1763,-9.7238,-0.003944,-0.000632,0.000001,36.5268,0.0320,90,0,-2,0.000407,0.000406,-0.032208,-0.000076,0.001993,0.001461,-0.9968,-0.9105,0.3841
11256,11.0,0.000230,0.000173,-0.032126,-0.000073,0.002367,0.000769,-0.9586,-0.8649,0.0371,0.00002189,0.00001733,-0.00184609,-0.00006283,-0.00019542,0.01936498,-0.1543,0.1639,-9.7267,-0.004655,-0.003028,-0.001871,36.4343,0.0320,93,0,0,0.000415,0.000413,-0.032155,-0.000056,0.002010,0.002587,-0.9978,-0.9102,0.3849
11267,11.0,0.000212,0.000154,-0.032080,-0.000278,0.002148,0.001836,-0.9633,-0.8651,0.0383,0.00002209,0.00001725,-0.00184611,-0.00004899,-0.00014083,0.01902190,-0.1649,0.1690,-9.7276,-0.000073,-0.002130,-0.003092,36.4343,0.0320,85,1,1,0.000405,0.000426,-0.032089,-0.000212,0.002228,0.003961,-0.9978,-0.9100,0.3840
11278,11.0,0.000190,0.000163,-0.032056,-0.000408,0.002078,0.002545,-0.9670,-0.8699,0.0386,0.00002249,0.00001844,-0.00184612,-0.00001985,-0.00012639,0.01902144,-0.1579,0.1625,-9.7168,-0.002148,-0.001939,-0.003100,36.4343,0.0340,94,0,1,0.000387,0.000408,-0.033193,-0.000287,0.002113,-0.008228,-0.9994,-0.9097,0.3839
11290,12.0,0.000170,0.000174,-0.033099,-0.000585,0.002007,-0.009495,-0.9706,-0.8718,0.0390,0.00002258,0.00001835,-0.00184614,0.00015317,-0.00028025,0.02995764,-0.1508,0.1764,-9.7171,-0.001774,-0.003268,0.000224,36.4343,0.0340,94,0,1,0.000368,0.000415,-0.033272,-0.000359,0.002034,-0.007592,-0.9990,-0.9098,0.3479
11301,11.0,0.000206,0.000211,-0.033201,-0.000357,0.002120,-0.008896,-0.9730,-0.8782,0.0380,0.00002324,0.00001953,-0.00184611,0.00010921,-0.00030436,0.02995751,-0.1525,0.1795,-9.7297,-0.002285,-0.000412,-0.003847,36.4343,0.0340,88,-1,-1,0.000331,0.000430,-0.033361,-0.000475,0.002138,-0.005806,-0.9989,-0.9072,0.3499
11312,11.0,0.000215,0.000219,-0.033251,-0.000362,0.002138,-0.007733,-0.9752,-0.8801,0.0379,0.00002334,0.00001961,-0.00184611,0.00008685,-0.00027743,0.02949247,-0.1651,0.1830,-9.7200,-0.002014,-0.001937,-0.001915,36.4343,0.0330,88,0,0,0.000364,0.000464,-0.033160,-0.000346,0.002210,-0.002407,-0.9998,-0.9064,0.3484
11323,11.0,0.000222,0.000229,-0.033143,-0.000315,0.002103,-0.004846,-0.9831,-0.8829,0.0378,0.00002575,0.00002033,-0.00184611,0.00004879,-0.00024729,0.02756507,-0.1526,0.1937,-9.7165,-0.002817,0.001172,-0.001932,36.4343,0.0330,93,0,0,0.000379,0.000479,-0.033156,-0.000366,0.002314,-0.000704,-1.0037,-0.9074,0.3481
11334,11.0,0.000231,0.000237,-0.033176,-0.000282,0.002224,-0.004016,-0.9855,-0.8838,0.0374,0.00002588,0.00002041,-0.00184611,0.00003115,-0.00022356,0.02739212,-0.1435,0.1902,-9.7245,-0.002876,-0.000095,-0.002425,36.4924,0.0330,90,0,0,0.000387,0.000486,-0.033133,-0.000344,0.002471,0.000219,-1.0040,-0.9065,0.3483
11345,11.0,0.000239,0.000190,-0.033217,-0.000243,0.001871,-0.003363,-0.9964,-0.8870,0.0380,0.00002913,0.00002144,-0.00184614,0.00002457,-0.00015379,0.02739243,-0.1687,0.1788,-9.7198,-0.001163,-0.003135,-0.001076,36.4924,0.0340,93,2,0,0.000395,0.000494,-0.033128,-0.000284,0.002464,0.000802,-1.0071,-0.9045,0.3478
11356,11.0,0.000247,0.000198,-0.033648,-0.000206,0.001932,-0.007510,-0.9988,-0.8886,0.0438,0.00002928,0.00002156,-0.00184650,0.00006921,-0.00020320,0.03133373,-0.1492,0.1669,-9.7417,-0.001880,-0.003896,-0.003771,36.4924,0.0340,89,0,0,0.000411,0.000456,-0.033714,-0.000340,0.002293,-0.003965,-1.0102,-0.9065,0.3482
11367,11.0,0.000255,0.000235,-0.033728,-0.000167,0.002047,-0.007055,-1.0019,-0.8914,0.0433,0.00003050,0.00002225,-0.00184649,0.00006080,-0.00023519,0.03133309,-0.1624,0.1810,-9.7516,-0.002519,-0.000661,-0.001680,36.4924,0.0330,86,-1,0,0.000392,0.000464,-0.033752,-0.000373,0.002104,-0.003647,-1.0092,-0.9074,0.3478
11379,12.0,0.000263,0.000245,-0.033787,-0.000211,0.002047,-0.006292,-1.0036,-0.8939,0.0435,0.00003065,0.00002235,-0.00184649,0.00004251,-0.00021092,0.03111121,-0.1622,0.1835,-9.7270,0.000164,-0.003527,-0.000176,36.4924,0.0330,82,0,0,0.000406,0.000530,-0.033308,-0.000272,0.002315,0.002181,-1.0091,-0.9074,0.3477
11391,12.0,0.000271,0.000256,-0.033369,-0.000178,0.002017,-0.000024,-1.0080,-0.8971,0.0435,0.00003233,0.00002302,-0.00184649,-0.00003831,-0.00012561,0.02647270,-0.1531,0.1925,-9.7246,-0.003293,-0.002177,-0.001236,36.5849,0.0330,86,0,0,0.000414,0.000538,-0.033283,-0.000308,0.002234,0.002710,-1.0099,-0.9081,0.4148
11402,11.0,0.000280,0.000291,-0.033377,-0.000192,0.002216,0.000336,-1.0093,-0.8989,0.0438,0.00003219,0.00002315,-0.00184647,-0.00005184,-0.00014481,0.02657307,-0.1608,0.1765,-9.7418,-0.006164,-0.001976,-0.001210,36.5849,0.0330,91,-1,0,0.000421,0.000545,-0.033269,-0.000258,0.002362,0.003085,-1.0107,-0.9082,0.4150
11413,11.0,0.000287,0.000328,-0.033371,-0.000164,0.002337,0.000880,-1.0144,-0.9022,0.0438,0.00003467,0.00002444,-0.00184646,-0.00005518,-0.00018635,0.02657205,-0.1650,0.1947,-9.7302,-0.003144,0.000678,-0.002243,36.5849,0.0330,94,-1,0,0.000437,0.000610,-0.033074,-0.000400,0.002744,0.005526,-1.0147,-0.9107,0.4134
11424,11.0,0.000296,0.000309,-0.033162,-0.000191,0.002236,0.003748,-1.0190,-0.9031,0.0441,0.00003522,0.00002455,-0.00184648,-0.00009881,-0.00008958,0.02478868,-0.1674,0.1810,-9.7234,-0.003462,0.000610,-0.003711,36.5849,0.0330,90,1,0,0.000444,0.000644,-0.033016,-0.000421,0.002844,0.006127,-1.0175,-0.9119,0.4129
11435,11.0,0.000304,0.000290,-0.033117,-0.000165,0.002025,0.004310,-1.0244,-0.9056,0.0442,0.00003622,0.00002601,-0.00184650,-0.00010090,-0.00003164,0.02478931,-0.1521,0.1566,-9.7294,-0.005090,-0.001248,-0.002866,36.5849,0.0330,88,1,0,0.000452,0.000626,-0.032951,-0.000567,0.002781,0.006767,-1.0183,-0.9119,0.4129
11446,11.0,0.000313,0.000298,-0.033080,-0.000172,0.002029,0.004747,-1.0272,-0.9065,0.0439,0.00003642,0.00002616,-0.00184650,-0.00011427,-0.00001325,0.02491345,-0.1562,0.1947,-9.7272,-0.002521,-0.002732,-0.000922,36.5849,0.0330,87,0,0,0.000443,0.000565,-0.032880,-0.000748,0.002549,0.007348,-1.0182,-0.9102,0.4105
11457,11.0,0.000321,0.000306,-0.033006,-0.000146,0.001977,0.005613,-1.0306,-0.9089,0.0434,0.00003694,0.00002734,-0.00184651,-0.00012146,0.00000664,0.02474959,-0.1654,0.1790,-9.7140,-0.004315,-0.002123,-0.003656,36.5849,0.0330,87,0,0,0.000450,0.000572,-0.032816,-0.000718,0.002582,0.007809,-1.0214,-0.9110,0.4107
11468,11.0,0.000385,0.000370,-0.032951,0.000179,0.002292,0.006141,-1.0314,-0.9130,0.0614,0.00003632,0.00002835,-0.00184804,-0.00021746,-0.00005679,0.02484276,-0.1509,0.2091,-9.7205,-0.002269,-0.003320,-0.003604,36.5849,0.0330,89,-2,-2,0.000465,0.000587,-0.032648,-0.000698,0.002533,0.009061,-1.0213,-0.9134,0.4112
11479,11.0,0.000449,0.000407,-0.032879,0.000498,0.002422,0.006818,-1.0360,-0.9167,0.0604,0.00003938,0.00002910,-0.00184796,-0.00030987,-0.00010466,0.02484296,-0.1502,0.1827,-9.7202,-0.002818,-0.000953,0.002530,36.6087,0.0330,87,-1,-2,0.000523,0.000644,-0.032849,-0.000441,0.002961,0.006493,-1.0208,-0.9153,0.4103
11490,11.0,0.000457,0.000415,-0.032918,0.000495,0.002492,0.006072,-1.0386,-0.9183,0.0612,0.00003974,0.00002917,-0.00184797,-0.00029848,-0.00009389,0.02584460,-0.1660,0.1977,-9.7385,-0.001760,-0.002493,0.001033,36.6087,0.0330,88,0,0,0.000583,0.000679,-0.032781,-0.000322,0.002956,0.007163,-1.0247,-0.9130,0.5643
11501,11.0,0.000466,0.000424,-0.032849,0.000510,0.002466,0.006632,-1.0436,-0.9194,0.0617,0.00004342,0.00002878,-0.00184797,-0.00030736,-0.00009955,0.02584434,-0.1553,0.1800,-9.7410,-0.000887,-0.002110,-0.003433,36.6087,0.0330,99,0,0,0.000597,0.000694,-0.032653,-0.000260,0.003056,0.007987,-1.0263,-0.9131,0.5670
11511,10.0,0.000446,0.000430,-0.032802,0.000394,0.002419,0.006780,-1.0455,-0.9195,0.0631,0.00004377,0.00002833,-0.00184802,-0.00026770,-0.00007536,0.02603340,-0.1509,0.1716,-9.7587,-0.002179,-0.002052,-0.001721,36.6087,0.0330,91,0,1,0.000605,0.000702,-0.032827,-0.000331,0.002975,0.005701,-1.0262,-0.9132,0.5670
11522,11.0,0.000455,0.000439,-0.032869,0.000425,0.002350,0.005533,-1.0478,-0.9204,0.0635,0.00004489,0.00002749,-0.00184802,-0.00026370,-0.00007846,0.02723430,-0.1432,0.1797,-9.7150,-0.001577,-0.002421,-0.001421,36.6087,0.0330,90,0,0,0.000595,0.000717,-0.032727,-0.000380,0.002816,0.006236,-1.0265,-0.9135,0.5680
11533,11.0,0.000463,0.000420,-0.032806,0.000523,0.002076,0.006029,-1.0504,-0.9220,0.0638,0.00004578,0.00002754,-0.00184806,-0.00026783,-0.00001305,0.02723907,-0.1484,0.1663,-9.7236,-0.000895,-0.003148,-0.002282,36.5506,0.0330,94,1,0,0.000602,0.000699,-0.032663,-0.000333,0.002661,0.006784,-1.0257,-0.9136,0.5679
11544,11.0,0.000444,0.000428,-0.032737,0.000473,0.001994,0.006490,-1.0511,-0.9198,0.0640,0.00004521,0.00002225,-0.00184808,-0.00027905,0.00001764,0.02724004,-0.1151,0.1885,-9.7558,-0.000276,-0.005901,-0.001609,36.5506,0.0330,89,0,1,0.000610,0.000681,-0.032832,-0.000290,0.002489,0.004694,-1.0251,-0.9145,0.5678
11555,11.0,0.000424,0.000437,-0.032843,0.000487,0.001874,0.005018,-1.0522,-0.9207,0.0638,0.00004554,0.00002170,-0.00184812,-0.00021696,0.00000977,0.02869446,-0.1665,0.1616,-9.6847,-0.000982,-0.000414,-0.006806,36.5506,0.0330,92,0,1,0.000574,0.000696,-0.032732,-0.000413,0.002431,0.005440,-1.0282,-0.9122,0.5666
11566,11.0,0.000379,0.000444,-0.032784,0.000287,0.001788,0.005649,-1.0520,-0.9183,0.0637,0.00004398,0.00001626,-0.00184818,-0.00018254,0.00004699,0.02869492,-0.1373,0.1769,-9.7214,-0.001261,-0.004415,-0.000900,36.5506,0.0330,89,0,2,0.000582,0.000704,-0.032673,-0.000474,0.002356,0.006190,-1.0277,-0.9139,0.5648
11577,11.0,0.000330,0.000453,-0.032718,0.000171,0.001739,0.006349,-1.0536,-0.9175,0.0975,0.00004425,0.00001500,-0.00185166,-0.00011124,0.00005688,0.02869908,-0.1444,0.1966,-9.6953,-0.002756,0.001088,-0.002874,36.5506,0.0340,89,0,2,0.000537,0.000710,-0.032610,-0.000497,0.002354,0.006726,-1.0273,-0.9147,0.5654
11588,11.0,0.000339,0.000462,-0.033384,0.000228,0.001705,-0.001535,-1.0551,-0.9170,0.0959,0.00004469,0.00001289,-0.00185165,-0.00004999,-0.00003720,0.03451846,-0.1479,0.1881,-9.6983,-0.001365,-0.000839,-0.005939,36.5506,0.0340,89,0,0,0.000553,0.000725,-0.033509,-0.000645,0.002537,-0.002228,-1.0295,-0.9162,0.4459
11599,11.0,0.000374,0.000470,-0.033397,0.000640,0.001729,-0.000853,-1.0566,-0.9188,0.0952,0.00004497,0.00001370,-0.00185163,-0.00009706,-0.00002131,0.03452158,-0.1034,0.1844,-9.7273,-0.002090,0.000116,-0.000334,36.5506,0.0340,94,0,-1,0.000561,0.000734,-0.033528,-0.000620,0.002552,-0.001653,-1.0302,-0.9163,0.4436
11610,11.0,0.000384,0.000479,-0.033403,0.000759,0.001695,-0.000222,-1.0584,-0.9152,0.0941,0.00004541,0.00000707,-0.00185160,-0.00016570,-0.00000757,0.03452303,-0.1404,0.1578,-9.7411,-0.002487,-0.000980,-0.001286,36.4924,0.0330,92,0,0,0.000593,0.000742,-0.033543,-0.000151,0.002622,-0.001202,-1.0301,-0.9157,0.4438
11621,11.0,0.000391,0.000488,-0.033163,0.001034,0.001602,0.003073,-1.0602,-0.9158,0.0938,0.00004564,0.00000703,-0.00185161,-0.00019092,0.00004107,0.03268517,-0.1286,0.1747,-9.7543,-0.003078,-0.001989,-0.002440,36.4924,0.0330,94,0,0,0.000608,0.000757,-0.033162,-0.000177,0.002457,0.003465,-1.0288,-0.9158,0.4427
11632,11.0,0.000401,0.000496,-0.033127,0.001161,0.001529,0.003547,-1.0607,-0.9123,0.0939,0.00004378,-0.00000115,-0.00185160,-0.00026728,0.00007584,0.03268722,-0.1460,0.1815,-9.7048,-0.000317,-0.001868,0.000094,36.4924,0.0330,92,0,0,0.000616,0.000765,-0.033125,-0.000065,0.002404,0.003770,-1.0293,-0.9144,0.4423
11643,11.0,0.000436,0.000478,-0.033064,0.001417,0.001263,0.004290,-1.0632,-0.9136,0.0943,0.00004480,-0.00000050,-0.00185160,-0.00030256,0.00013051,0.03252231,-0.1553,0.1761,-9.7226,-0.002866,0.000731,-0.001701,36.4924,0.0330,86,1,-1,0.000623,0.000772,-0.033058,-0.000069,0.002494,0.004567,-1.0284,-0.9146,0.4440
11654,11.0,0.000446,0.000486,-0.033001,0.001443,0.001217,0.004966,-1.0642,-0.9126,0.0947,0.00004340,-0.00000431,-0.00185161,-0.00032998,0.00015640,0.03242480,-0.1492,0.1764,-9.7279,-0.003322,-0.002669,-0.000381,36.4924,0.0330,87,0,0,0.000665,0.000763,-0.032927,0.000012,0.002106,0.005781,-1.0301,-0.9148,0.4437
11665,11.0,0.000455,0.000494,-0.032927,0.001429,0.001157,0.005779,-1.0656,-0.9135,0.0953,0.00004355,-0.00000454,-0.00185162,-0.00032142,0.00016585,0.03229913,-0.1643,0.1782,-9.7204,-0.001303,-0.003203,-0.002779,36.4924,0.0330,90,0,0,0.000672,0.000770,-0.032866,0.000017,0.002059,0.006283,-1.0305,-0.9151,0.4434
11676,11.0,0.000490,0.000529,-0.032860,0.001521,0.001261,0.006311,-1.0664,-0.9153,0.0948,0.00004204,-0.00000398,-0.00185157,-0.00035122,0.00014189,0.03229923,-0.1567,0.1900,-9.7346,-0.004131,-0.003155,-0.002657,36.4924,0.0320,89,-1,-1,0.000680,0.000777,-0.032801,0.000035,0.002089,0.006829,-1.0310,-0.9160,0.4427
11687,11.0,0.000472,0.000536,-0.032338,0.001376,0.001228,0.012133,-1.0680,-0.9163,0.0882,0.00004223,-0.00000502,-0.00185066,-0.00034913,0.00021512,0.02898476,-0.1478,0.1815,-9.7290,-0.000041,-0.002236,0.003117,36.4924,0.0320,84,0,1,0.000694,0.000840,-0.032146,0.000132,0.002294,0.012818,-1.0300,-0.9179,0.3326
11698,11.0,0.000481,0.000518,-0.032201,0.001336,0.001099,0.012679,-1.0709,-0.9176,0.0892,0.00004444,-0.00000519,-0.00185071,-0.00033949,0.00025219,0.02898517,-0.1602,0.1961,-9.7295,-0.003965,-0.000961,-0.001280,36.4924,0.0320,84,1,0,0.000659,0.000854,-0.031857,0.000043,0.002404,0.014084,-1.0303,-0.9172,0.3345
11709,11.0,0.000490,0.000526,-0.032038,0.001306,0.001050,0.013466,-1.0728,-0.9188,0.0898,0.00004457,-0.00000539,-0.00185072,-0.00033360,0.00026069,0.02882883,-0.1628,0.1523,-9.7253,-0.003411,-0.002754,-0.003419,36.4924,0.0330,90,0,0,0.000666,0.000836,-0.032480,0.000049,0.002323,0.006010,-1.0321,-0.9170,0.3349
11720,11.0,0.000499,0.000506,-0.032492,0.001266,0.000864,0.006831,-1.0744,-0.9199,0.0908,0.00004316,-0.00000555,-0.00185079,-0.00025642,0.00024852,0.03319595,-0.1613,0.1758,-9.7489,-0.003380,-0.002042,-0.004033,36.4924,0.0330,90,1,0,0.000674,0.000844,-0.032401,0.000000,0.002074,0.006641,-1.0323,-0.9177,0.3343
11731,11.0,0.000508,0.000514,-0.032399,0.001195,0.000794,0.007486,-1.0768,-0.9209,0.0903,0.00004319,-0.00000572,-0.00185080,-0.00025187,0.00025204,0.03307654,-0.1620,0.1854,-9.7250,-0.003943,-0.001125,-0.002712,36.4924,0.0330,86,0,0,0.000690,0.000833,-0.032261,-0.000080,0.001982,0.007479,-1.0323,-0.9189,0.3331
11742,11.0,0.000517,0.000548,-0.032313,0.001166,0.000844,0.008008,-1.0764,-0.9217,0.0901,0.00003744,-0.00000589,-0.00185079,-0.00024550,0.00026006,0.03307674,-0.1452,0.1707,-9.7077,-0.002197,-0.000051,0.000869,36.4924,0.0320,89,-1,0,0.000698,0.000841,-0.032054,-0.000086,0.001958,0.009432,-1.0336,-0.9187,0.3327
11753,11.0,0.000525,0.000556,-0.032075,0.001164,0.000768,0.010222,-1.0781,-0.9227,0.0898,0.00003747,-0.00000605,-0.00185080,-0.00025553,0.00028085,0.03203472,-0.1541,0.1773,-9.7409,-0.000714,-0.003940,-0.004366,36.4581,0.0320,89,0,0,0.000704,0.000873,-0.031957,0.000003,0.001964,0.010054,-1.0334,-0.9175,0.3336
11764,11.0,0.000534,0.000591,-0.031960,0.001139,0.000832,0.010765,-1.0775,-0.9237,0.0899,0.00003211,-0.00000630,-0.00185079,-0.00025068,0.00028207,0.03203480,-0.1705,0.1584,-9.7296,-0.002599,-0.001900,-0.001083,36.4581,0.0330,89,-1,0,0.000719,0.000913,-0.031710,0.000047,0.001857,0.011219,-1.0326,-0.9178,0.3337
11775,11.0,0.000571,0.000628,-0.031805,0.001174,0.000803,0.011768,-1.0781,-0.9254,0.0893,0.00003093,-0.00000525,-0.00185070,-0.00028942,0.00024680,0.03179304,-0.1907,0.1689,-9.7060,-0.002461,-0.001110,-0.002761,36.4581,0.0330,88,-1,-1,0.000752,0.000946,-0.032411,0.000087,0.001860,0.002652,-1.0315,-0.9189,0.3340
11786,11.0,0.000579,0.000635,-0.032395,0.001085,0.000706,0.003828,-1.0773,-0.9278,0.0894,0.00002496,-0.00000205,-0.00185076,-0.00017282,0.00020930,0.03680176,-0.1559,0.1697,-9.7193,-0.001735,-0.002059,-0.003513,36.4581,0.0330,85,0,0,0.000786,0.000980,-0.032381,-0.000101,0.001875,0.003267,-1.0311,-0.9189,0.3335
11797,11.0,0.000589,0.000644,-0.032324,0.000933,0.000546,0.004670,-1.0795,-0.9282,0.1286,0.00002490,-0.00000214,-0.00185635,-0.00018902,0.00019673,0.03661722,-0.1621,0.1818,-9.7348,-0.004369,-0.001201,-0.001488,36.4581,0.0330,93,0,0,0.000802,0.001021,-0.032263,-0.000165,0.001916,0.004667,-1.0330,-0.9179,0.5045
11808,11.0,0.000597,0.000651,-0.032270,0.000875,0.000517,0.005179,-1.0802,-0.9300,0.1289,0.00002217,0.00000016,-0.00185637,-0.00016493,0.00021887,0.03661726,-0.1528,0.1917,-9.7363,-0.001533,-0.002252,-0.000807,36.4343,0.0320,91,0,0,0.000810,0.001028,-0.032080,-0.000162,0.001911,0.006606,-1.0349,-0.9181,0.5045
11819,11.0,0.000606,0.000633,-0.032065,0.000923,0.000309,0.007354,-1.0829,-0.9310,0.1291,0.00002331,0.00000006,-0.00185642,-0.00017877,0.00027080,0.03562685,-0.1437,0.1602,-9.7251,-0.005601,-0.001343,-0.002002,36.4343,0.0320,93,1,0,0.000824,0.001043,-0.031902,-0.000023,0.001958,0.007827,-1.0360,-0.9165,0.5053
11831,12.0,0.000615,0.000614,-0.031974,0.000918,0.000182,0.007747,-1.0856,-0.9319,0.1295,0.00002293,-0.00000043,-0.00185646,-0.00018054,0.00031584,0.03562768,-0.1754,0.1946,-9.7585,-0.003497,-0.001149,-0.003382,36.4343,0.0320,85,1,0,0.000831,0.001025,-0.031822,0.000105,0.001794,0.008182,-1.0370,-0.9165,0.5054
11842,11.0,0.000624,0.000594,-0.031843,0.000955,0.000046,0.008659,-1.0881,-0.9330,0.1298,0.00002402,-0.00000053,-0.00185650,-0.00018304,0.00035155,0.03532862,-0.1482,0.1835,-9.7252,-0.001475,-0.002770,-0.001130,36.4343,0.0330,91,1,0,0.000839,0.001007,-0.031671,0.000055,0.001779,0.009125,-1.0391,-0.9178,0.5046
11853,11.0,0.000633,0.000601,-0.032435,0.001014,0.000065,0.000926,-1.0898,-0.9326,0.1292,0.00002204,-0.00000473,-0.00185647,-0.00014295,0.00026987,0.03989751,-0.1299,0.1934,-9.7588,-0.004853,0.000520,-0.002380,36.4343,0.0330,89,0,0,0.000854,0.000996,-0.032459,0.000173,0.001714,0.000552,-1.0397,-0.9185,0.5036
11864,11.0,0.000586,0.000581,-0.032390,0.000802,0.000015,0.001586,-1.0921,-0.9324,0.1296,0.00002316,-0.00000776,-0.00185662,-0.00006699,0.00030318,0.03967172,-0.1621,0.1927,-9.7313,-0.001072,-0.003871,-0.004060,36.4343,0.0330,93,1,2,0.000861,0.001003,-0.032453,0.000370,0.001821,0.000686,-1.0411,-0.9177,0.5033
11875,11.0,0.000622,0.000588,-0.032371,0.000986,0.000060,0.001959,-1.0934,-0.9335,0.1287,0.00002308,-0.00001008,-0.00185653,-0.00013739,0.00029103,0.03967261,-0.1628,0.1820,-9.7184,-0.001432,-0.002979,-0.001369,36.4343,0.0330,92,0,-1,0.000851,0.000992,-0.032740,0.000374,0.001816,-0.001746,-1.0430,-0.9186,0.5029
11886,11.0,0.000631,0.000595,-0.032675,0.001079,0.000093,-0.001444,-1.0951,-0.9349,0.1284,0.00002267,-0.00001021,-0.00185652,-0.00009765,0.00024170,0.04180991,-0.1430,0.1786,-9.7014,-0.004662,-0.003304,-0.001158,36.4343,0.0330,89,0,0,0.000858,0.001024,-0.032755,0.000386,0.001903,-0.001318,-1.0422,-0.9201,0.4707
11897,11.0,0.000639,0.000602,-0.032689,0.001074,0.000103,-0.001012,-1.0962,-0.9368,0.1283,0.00002078,-0.00001152,-0.00185651,-0.00010343,0.00024713,0.04181012,-0.1631,0.1828,-9.7525,-0.002627,-0.003836,-0.001807,36.5162,0.0330,89,0,0,0.000865,0.001031,-0.032750,0.000485,0.001899,-0.000519,-1.0427,-0.9210,0.4714
11908,11.0,0.000648,0.000610,-0.032685,0.001076,0.000093,-0.000389,-1.0979,-0.9385,0.1331,0.00002042,-0.00001170,-0.00185728,-0.00010272,0.00023795,0.04172882,-0.1636,0.1909,-9.7157,-0.002874,-0.001504,-0.002499,36.5162,0.0330,89,0,0,0.000932,0.001071,-0.032908,0.000619,0.001916,-0.001476,-1.0411,-0.9235,0.4709
11919,11.0,0.000657,0.000617,-0.032853,0.001095,0.000054,-0.001870,-1.0987,-0.9399,0.1331,0.00001543,-0.00001445,-0.00185729,-0.00010346,0.00024920,0.04279313,-0.1504,0.1579,-9.7227,-0.002593,-0.004424,-0.003012,36.5162,0.0330,94,0,0,0.000939,0.001079,-0.032908,0.000598,0.001944,-0.000857,-1.0424,-0.9236,0.4711
11931,12.0,0.000639,0.000569,-0.032863,0.001036,-0.000294,-0.001401,-1.1014,-0.9411,0.1341,0.00001824,-0.00001634,-0.00185744,-0.00006247,0.00031322,0.04273022,-0.1359,0.1767,-9.7496,-0.001712,-0.001445,0.000477,36.5162,0.0330,90,2,1,0.000947,0.001087,-0.032914,0.000678,0.001790,-0.000421,-1.0425,-0.9247,0.4708
11942,11.0,0.000592,0.000549,-0.032877,0.000836,-0.000462,-0.001018,-1.1019,-0.9405,0.1353,0.00001352,-0.00002434,-0.00185760,-0.00002401,0.00038448,0.04273095,-0.1544,0.1775,-9.7309,-0.001714,-0.002488,-0.001002,36.5162,0.0330,83,1,2,0.000911,0.000998,-0.032957,0.000697,0.001347,-0.000113,-1.0420,-0.9248,0.4713
11953,11.0,0.000600,0.000557,-0.032931,0.000950,-0.000602,-0.001220,-1.1030,-0.9421,0.1353,0.00001264,-0.00002446,-0.00185758,-0.00001690,0.00036033,0.04301006,-0.1569,0.1667,-9.7397,-0.002851,-0.002236,-0.002893,36.4924,0.0330,90,0,0,0.000868,0.000980,-0.032956,0.000571,0.001222,0.000271,-1.0412,-0.9243,0.4720
11964,11.0,0.000582,0.000563,-0.032943,0.000888,-0.000672,-0.000916,-1.1021,-0.9419,0.1359,0.00000350,-0.00003096,-0.00185763,-0.00001829,0.00041148,0.04301107,-0.1570,0.1614,-9.7266,-0.001304,-0.002895,-0.002584,36.4924,0.0320,87,0,1,0.000857,0.000995,-0.032913,0.000615,0.000966,0.001363,-1.0412,-0.9237,0.4740
11975,11.0,0.000590,0.000571,-0.032929,0.000936,-0.000781,-0.000250,-1.1031,-0.9435,0.1357,0.00000248,-0.00003108,-0.00185760,-0.00001788,0.00039325,0.04287463,-0.1535,0.1813,-9.7112,-0.002449,-0.003054,-0.001849,36.4924,0.0320,88,0,0,0.000864,0.001002,-0.032293,0.000646,0.000888,0.008204,-1.0408,-0.9237,0.4734
11985,10.0,0.000677,0.000632,-0.032419,0.001337,-0.000591,0.006119,-1.1011,-0.9460,0.1340,-0.00001072,-0.00002966,-0.00185732,-0.00020164,0.00043832,0.03971338,-0.1476,0.1691,-9.7329,-0.001224,-0.003655,-0.002508,36.4924,0.0320,85,-2,-3,0.000872,0.001009,-0.032209,0.000680,0.000909,0.008703,-1.0408,-0.9236,0.4734
11996,11.0,0.000739,0.000666,-0.032333,0.001620,-0.000571,0.006763,-1.1016,-0.9488,0.1332,-0.00001348,-0.00002657,-0.00185713,-0.00026303,0.00038689,0.03961192,-0.1621,0.1792,-9.7357,-0.003388,-0.002437,0.000064,36.4924,0.0320,90,-1,-2,0.001010,0.001098,-0.031997,0.001156,0.001069,0.009930,-1.0396,-0.9255,0.4478
12007,11.0,0.000748,0.000673,-0.032256,0.001647,-0.000586,0.007248,-1.1019,-0.9493,0.1330,-0.00001956,-0.00003180,-0.00185712,-0.00028961,0.00041217,0.03961283,-0.1478,0.1813,-9.7140,-0.003216,-0.001127,-0.004053,36.4924,0.0330,91,0,0,0.001018,0.001106,-0.032564,0.001212,0.000973,0.003197,-1.0399,-0.9256,0.4475
12018,11.0,0.000730,0.000681,-0.032607,0.001552,-0.000640,0.002542,-1.1038,-0.9499,0.1388,-0.00002070,-0.00003444,-0.00185811,-0.00020196,0.00034070,0.04224686,-0.1638,0.1801,-9.7494,-0.005745,-0.001937,0.001828,36.4924,0.0330,94,0,1,0.001033,0.001120,-0.032473,0.001293,0.000970,0.004074,-1.0402,-0.9253,0.4465
12029,11.0,0.000711,0.000688,-0.032577,0.001402,-0.000617,0.002940,-1.1053,-0.9503,0.1399,-0.00002462,-0.00003794,-0.00185818,-0.00016529,0.00034640,0.04224638,-0.1689,0.1920,-9.7149,-0.002327,-0.002743,-0.000887,36.4924,0.0330,93,0,1,0.001016,0.001127,-0.032431,0.001189,0.001005,0.004301,-1.0419,-0.9260,0.4486
12040,11.0,0.000720,0.000695,-0.032522,0.001381,-0.000633,0.003559,-1.1077,-0.9514,0.1405,-0.00002565,-0.00003841,-0.00185816,-0.00015893,0.00033064,0.04211625,-0.1656,0.1729,-9.7475,-0.005249,-0.001851,-0.000132,36.4924,0.0320,93,0,0,0.000999,0.001133,-0.032135,0.001013,0.001186,0.007492,-1.0418,-0.9259,0.4495
12051,11.0,0.000702,0.000702,-0.032212,0.001218,-0.000609,0.007051,-1.1093,-0.9519,0.1421,-0.00002931,-0.00004011,-0.00185823,-0.00013871,0.00036552,0.04051059,-0.1591,0.1921,-9.7231,-0.001635,-0.000339,-0.000924,36.4924,0.0320,93,0,1,0.000990,0.001146,-0.031959,0.000823,0.001271,0.008367,-1.0426,-0.9260,0.4508
12062,11.0,0.000711,0.000682,-0.032116,0.001219,-0.000726,0.007720,-1.1116,-0.9530,0.1429,-0.00002838,-0.00004047,-0.00185827,-0.00013424,0.00038300,0.04041276,-0.1475,0.1786,-9.7073,-0.003844,-0.002883,-0.002103,36.4924,0.0320,85,1,0,0.000972,0.001153,-0.031873,0.000716,0.001307,0.008733,-1.0431,-0.9261,0.4513
12074,12.0,0.000720,0.000688,-0.032020,0.001255,-0.000749,0.008216,-1.1129,-0.9530,0.1433,-0.00003523,-0.00004455,-0.00185826,-0.00015739,0.00040887,0.04041360,-0.1508,0.1730,-9.7238,-0.004497,0.000819,-0.001924,36.4924,0.0320,90,0,0,0.000980,0.001135,-0.031907,0.000784,0.001250,0.007916,-1.0438,-0.9267,0.4515
12085,11.0,0.000675,0.000669,-0.031949,0.001057,-0.000935,0.008499,-1.1152,-0.9524,0.1438,-0.00003448,-0.00004909,-0.00185843,-0.00008218,0.00041842,0.04054291,-0.1686,0.1652,-9.7154,-0.003846,-0.000568,-0.003855,36.4924,0.0320,93,1,2,0.000946,0.001125,-0.031721,0.000585,0.000977,0.009044,-1.0459,-0.9245,0.5646
12095,10.0,0.000709,0.000677,-0.031862,0.001217,-0.000969,0.008974,-1.1154,-0.9523,0.1432,-0.00004459,-0.00005186,-0.00185835,-0.00014700,0.00046538,0.04054481,-0.1490,0.1782,-9.7303,-0.002211,-0.000028,-0.002572,36.5506,0.0320,92,0,-1,0.000979,0.001132,-0.031630,0.000654,0.000928,0.009445,-1.0458,-0.9240,0.5638
12106,11.0,0.000718,0.000685,-0.031761,0.001259,-0.001049,0.009462,-1.1167,-0.9526,0.1428,-0.00004611,-0.00005229,-0.00185832,-0.00014017,0.00044162,0.04054993,-0.1577,0.1853,-9.7155,0.000065,-0.002685,-0.000655,36.5506,0.0320,90,0,0,0.001011,0.001140,-0.031534,0.000820,0.000934,0.009785,-1.0460,-0.9233,0.5633
12117,11.0,0.000726,0.000719,-0.031836,0.001302,-0.000953,0.007879,-1.1160,-0.9525,0.1426,-0.00005711,-0.00005768,-0.00185824,-0.00015404,0.00042279,0.04160188,-0.1388,0.1791,-9.7055,-0.002886,-0.002446,0.000175,36.5506,0.0320,95,-1,0,0.001050,0.001154,-0.031730,0.000921,0.000861,0.006799,-1.0458,-0.9239,0.5642
12128,11.0,0.000734,0.000726,-0.031748,0.001430,-0.001022,0.008386,-1.1173,-0.9529,0.1748,-0.00005862,-0.00005830,-0.00186470,-0.00016503,0.00038259,0.04160569,-0.1419,0.1679,-9.7237,-0.003072,-0.000610,-0.001448,36.5506,0.0320,91,0,0,0.001058,0.001186,-0.031659,0.000994,0.000909,0.007273,-1.0455,-0.9235,0.5647
12139,11.0,0.000743,0.000733,-0.031652,0.001487,-0.001035,0.008955,-1.1167,-0.9530,0.1752,-0.00006667,-0.00006532,-0.00186467,-0.00020492,0.00041074,0.04160683,-0.1653,0.1824,-9.7109,0.000704,-0.003005,-0.001989,36.5506,0.0320,91,0,0,0.001065,0.001194,-0.031586,0.001063,0.000774,0.007597,-1.0452,-0.9230,0.5657
12150,11.0,0.000751,0.000740,-0.031791,0.001584,-0.001080,0.006646,-1.1173,-0.9543,0.1758,-0.00006838,-0.00006612,-0.00186465,-0.00017136,0.00036154,0.04296979,-0.1542,0.1858,-9.7395,-0.001458,-0.003579,0.000227,36.5506,0.0320,92,0,0,0.001081,0.001208,-0.031749,0.000883,0.000884,0.005812,-1.0442,-0.9219,0.5656
12161,11.0,0.000759,0.000774,-0.031716,0.001611,-0.000959,0.007012,-1.1163,-0.9546,0.1762,-0.00007763,-0.00007161,-0.00186456,-0.00019610,0.00034798,0.04296990,-0.1567,0.1881,-9.7496,-0.000058,-0.000580,-0.000028,36.5506,0.0320,93,-1,0,0.001088,0.001215,-0.031690,0.000848,0.000923,0.006231,-1.0447,-0.9223,0.5666
12172,11.0,0.000793,0.000780,-0.031638,0.001699,-0.000932,0.007336,-1.1167,-0.9560,0.1764,-0.00007915,-0.00007019,-0.00186448,-0.00021537,0.00032714,0.04297566,-0.1707,0.1889,-9.7332,-0.003833,-0.000124,-0.002179,36.5506,0.0310,90,0,-1,0.001096,0.001246,-0.031626,0.000811,0.000993,0.006490,-1.0433,-0.9226,0.5675
12183,11.0,0.000802,0.000787,-0.031246,0.001698,-0.000937,0.011271,-1.1168,-0.9561,0.1768,-0.00008608,-0.00007412,-0.00186447,-0.00025510,0.00038135,0.04124902,-0.1501,0.1609,-9.7192,-0.003011,-0.000865,-0.003475,36.5506,0.0310,88,0,0,0.001158,0.001260,-0.031112,0.001068,0.001062,0.011149,-1.0427,-0.9233,0.5672
12194,11.0,0.000785,0.000795,-0.031122,0.001577,-0.001012,0.011560,-1.1185,-0.9558,0.1769,-0.00008773,-0.00007733,-0.00186453,-0.00021258,0.00035916,0.04125320,-0.1632,0.1696,-9.7523,-0.005546,-0.000390,-0.002330,36.5506,0.0310,89,0,1,0.001165,0.001268,-0.030997,0.001121,0.000949,0.011673,-1.0422,-0.9213,0.6031
12205,11.0,0.000767,0.000802,-0.030993,0.001457,-0.001078,0.011888,-1.1187,-0.9552,0.1772,-0.00009953,-0.00008298,-0.00186463,-0.00019011,0.00041152,0.04125376,-0.1521,0.1727,-9.7398,-0.001414,-0.001181,-0.001363,36.5506,0.0320,93,0,1,0.001131,0.001281,-0.031496,0.001036,0.000891,0.004139,-1.0445,-0.9196,0.6021
12216,11.0,0.000802,0.000810,-0.031478,0.001637,-0.001202,0.004977,-1.1203,-0.9562,0.1769,-0.00010169,-0.00008146,-0.00186452,-0.00015503,0.00032196,0.04465134,-0.1511,0.1827,-9.7365,-0.003148,-0.002518,0.000238,36.5506,0.0320,91,0,-1,0.001163,0.001289,-0.031454,0.001188,0.000842,0.004382,-1.0444,-0.9201,0.6026
12227,11.0,0.000810,0.000790,-0.031422,0.001655,-0.001361,0.005218,-1.1211,-0.9565,0.1777,-0.00011043,-0.00008660,-0.00186459,-0.00017520,0.00039587,0.04465300,-0.1580,0.1757,-9.7341,-0.003353,-0.003622,-0.001375,36.5506,0.0310,91,1,0,0.001228,0.001304,-0.031362,0.001343,0.000761,0.004797,-1.0466,-0.9199,0.6038
12238,11.0,0.000793,0.000772,-0.031351,0.001614,-0.001583,0.005630,-1.1229,-0.9567,0.1963,-0.00011019,-0.00009002,-0.00186867,-0.00014678,0.00038902,0.04458712,-0.1480,0.1614,-9.7415,-0.002299,0.000901,-0.002045,36.5162,0.0310,91,1,1,0.001236,0.001286,-0.031113,0.001321,0.000663,0.007273,-1.0473,-0.9204,0.6045
12249,11.0,0.000801,0.000778,-0.031125,0.001656,-0.001660,0.007805,-1.1223,-0.9565,0.1970,-0.00012496,-0.00009674,-0.00186867,-0.00019296,0.00046810,0.04370658,-0.1561,0.1594,-9.7411,-0.002321,-0.000265,-0.000735,36.5162,0.0310,95,0,0,0.001220,0.001270,-0.031039,0.001305,0.000433,0.007504,-1.0476,-0.9188,0.6046
12260,11.0,0.000809,0.000786,-0.031029,0.001699,-0.001850,0.008202,-1.1233,-0.9570,0.1968,-0.00012760,-0.00009774,-0.00186863,-0.00018173,0.00043756,0.04365655,-0.1604,0.1588,-9.7329,-0.001456,-0.001902,-0.003969,36.5162,0.0310,91,0,0,0.001234,0.001285,-0.030868,0.001339,0.000152,0.008387,-1.0464,-0.9178,0.6052
12271,11.0,0.000818,0.000793,-0.030937,0.001726,-0.001963,0.008466,-1.1221,-0.9564,0.1971,-0.00014626,-0.00010376,-0.00186865,-0.00020606,0.00051960,0.04365839,-0.1552,0.1764,-9.7436,-0.004262,-0.000774,-0.001604,36.5162,0.0310,88,0,0,0.001242,0.001291,-0.030907,0.001322,0.000088,0.007322,-1.0455,-0.9177,0.6049
12282,11.0,0.000826,0.000800,-0.030916,0.001750,-0.002044,0.007904,-1.1230,-0.9568,0.1967,-0.00014923,-0.00010486,-0.00186861,-0.00018698,0.00047854,0.04405063,-0.1561,0.1972,-9.7275,-0.000897,-0.001329,-0.002318,36.5162,0.0310,93,0,0,0.001249,0.001298,-0.030823,0.001317,0.000029,0.007716,-1.0464,-0.9171,0.6051
12293,11.0,0.000834,0.000806,-0.030827,0.001751,-0.002070,0.008372,-1.1225,-0.9573,0.1969,-0.00016293,-0.00010968,-0.00186860,-0.00020155,0.00052208,0.04405161,-0.1578,0.1611,-9.6786,-0.003931,-0.003775,0.000287,36.5162,0.0310,93,0,0,0.001263,0.001312,-0.030649,0.001474,0.000072,0.008251,-1.0456,-0.9176,0.5122
12304,11.0,0.000894,0.000865,-0.030721,0.002003,-0.001844,0.008964,-1.1230,-0.9589,0.1963,-0.00017110,-0.00010564,-0.00186826,-0.00024678,0.00043273,0.04398866,-0.1560,0.1867,-9.7372,-0.002123,-0.000730,-0.000733,36.5162,0.0310,93,-2,-2,0.001271,0.001318,-0.030819,0.001457,0.000034,0.005965,-1.0451,-0.9186,0.5127
12315,11.0,0.000903,0.000871,-0.030822,0.001993,-0.001788,0.007137,-1.1232,-0.9595,0.1970,-0.00017851,-0.00011092,-0.00186822,-0.00024120,0.00041537,0.04505103,-0.1607,0.1927,-9.7127,-0.001598,-0.003779,0.000352,36.5162,0.0310,93,0,0,0.001325,0.001373,-0.030760,0.001720,0.000209,0.005901,-1.0452,-0.9186,0.5123
12326,11.0,0.000886,0.000851,-0.030731,0.001865,-0.001937,0.007757,-1.1249,-0.9604,0.1979,-0.00017863,-0.00011494,-0.00186834,-0.00019883,0.00041466,0.04500303,-0.1656,0.1709,-9.7330,-0.004147,-0.001372,-0.004435,36.5162,0.0310,92,1,1,0.001341,0.001362,-0.030621,0.001600,0.000144,0.006948,-1.0454,-0.9200,0.5117
12337,11.0,0.000869,0.000831,-0.030644,0.001744,-0.002012,0.008146,-1.1259,-0.9604,0.1985,-0.00018495,-0.00012201,-0.00186847,-0.00017957,0.00045480,0.04500341,-0.1542,0.1788,-9.7236,-0.004517,-0.000829,-0.002020,36.5162,0.0310,92,1,1,0.001325,0.001344,-0.030813,0.001479,0.000037,0.004299,-1.0453,-0.9202,0.5104
12348,11.0,0.000877,0.000838,-0.030784,0.001723,-0.002064,0.005875,-1.1270,-0.9612,0.1900,-0.00018827,-0.00012319,-0.00186634,-0.00014132,0.00040503,0.04620327,-0.1671,0.1603,-9.7182,-0.001296,-0.000121,-0.000285,36.5162,0.0310,89,0,0,0.001292,0.001333,-0.030708,0.001253,-0.000062,0.005214,-1.0463,-0.9191,0.5103
12359,11.0,0.000886,0.000845,-0.030718,0.001723,-0.002107,0.006262,-1.1270,-0.9609,0.1902,-0.00020378,-0.00012778,-0.00186635,-0.00015412,0.00045712,0.04620435,-0.1477,0.1785,-9.7286,-0.004101,-0.000430,-0.001164,36.5162,0.0310,90,0,0,0.001300,0.001340,-0.030639,0.001194,-0.000167,0.005818,-1.0457,-0.9185,0.5103
12371,12.0,0.000896,0.000850,-0.030641,0.001745,-0.002236,0.006663,-1.1285,-0.9613,0.1905,-0.00020721,-0.00012895,-0.00186629,-0.00014200,0.00042237,0.04621088,-0.1648,0.1647,-9.7345,-0.002285,-0.002409,-0.001187,36.5506,0.0310,89,0,0,0.001307,0.001347,-0.030580,0.001222,-0.000198,0.006145,-1.0456,-0.9172,0.5110
12382,11.0,0.000904,0.000856,-0.030800,0.001752,-0.002310,0.004350,-1.1272,-0.9614,0.1913,-0.00022598,-0.00013444,-0.00186630,-0.00013967,0.00046812,0.04739749,-0.1504,0.1675,-9.7156,-0.000776,-0.003032,-0.002273,36.5506,0.0310,89,0,0,0.001322,0.001360,-0.030793,0.001141,-0.000281,0.003379,-1.0429,-0.9198,0.5099
12393,11.0,0.000938,0.000890,-0.030751,0.001900,-0.002269,0.004715,-1.1276,-0.9627,0.1904,-0.00023245,-0.00013286,-0.00186607,-0.00015456,0.00040475,0.04740189,-0.1625,0.1828,-9.7233,-0.002116,-0.001370,-0.004283,36.5506,0.0310,86,-1,-1,0.001329,0.001367,-0.030756,0.001226,-0.000332,0.003962,-1.0416,-0.9206,0.4516
12404,11.0,0.000947,0.000896,-0.030697,0.001937,-0.002262,0.005060,-1.1273,-0.9626,0.1901,-0.00024525,-0.00014106,-0.00186603,-0.00018671,0.00043371,0.04740285,-0.1365,0.1954,-9.7403,-0.004247,0.000376,-0.001037,36.5506,0.0310,84,0,0,0.001367,0.001404,-0.030866,0.001290,-0.000335,0.002597,-1.0406,-0.9208,0.4518
12415,11.0,0.000929,0.000902,-0.030832,0.001879,-0.002259,0.003128,-1.1285,-0.9627,0.1899,-0.00024899,-0.00014550,-0.00186606,-0.00012860,0.00038121,0.04836381,-0.1682,0.1765,-9.7479,-0.004381,-0.000822,-0.002111,36.5506,0.0310,88,0,1,0.001351,0.001411,-0.030840,0.001279,-0.000258,0.002763,-1.0411,-0.9188,0.4523
12426,11.0,0.000937,0.000883,-0.030796,0.001894,-0.002287,0.003395,-1.1299,-0.9619,0.1894,-0.00025353,-0.00015179,-0.00186608,-0.00014843,0.00040173,0.04836447,-0.1593,0.1931,-9.7259,-0.003287,0.001028,-0.002412,36.5506,0.0310,95,1,0,0.001334,0.001417,-0.030812,0.001120,-0.000219,0.002903,-1.0417,-0.9182,0.4519
12437,11.0,0.000972,0.000915,-0.030759,0.002023,-0.002111,0.003584,-1.1316,-0.9625,0.1887,-0.00026007,-0.00015029,-0.00186585,-0.00016173,0.00034124,0.04837032,-0.1675,0.1831,-9.7458,-0.005038,-0.003945,-0.002893,36.5506,0.0310,92,-1,-1,0.001350,0.001406,-0.030875,0.001061,-0.000181,0.002375,-1.0434,-0.9169,0.4521
12448,11.0,0.000980,0.000922,-0.030866,0.001952,-0.002102,0.002137,-1.1319,-0.9633,0.1886,-0.00027236,-0.00015111,-0.00186587,-0.00013105,0.00035370,0.04910257,-0.1696,0.1653,-9.7129,-0.000381,-0.002546,-0.002779,36.5506,0.0310,86,0,0,0.001381,0.001436,-0.030850,0.001083,-0.000131,0.002613,-1.0439,-0.9186,0.4519
12459,11.0,0.000989,0.000929,-0.030842,0.001943,-0.002190,0.002480,-1.1333,-0.9641,0.1853,-0.00027597,-0.00015261,-0.00186512,-0.00011506,0.00032294,0.04910678,-0.1452,0.1518,-9.7184,-0.004168,-0.000961,-0.003142,36.5506,0.0310,86,0,0,0.001396,0.001451,-0.030791,0.001027,-0.000300,0.003391,-1.0431,-0.9169,0.4510
12469,10.0,0.000944,0.000911,-0.030816,0.001710,-0.002372,0.002771,-1.1325,-0.9640,0.1859,-0.00029343,-0.00016364,-0.00186542,-0.00007277,0.00042759,0.04910790,-0.1552,0.1660,-9.7394,-0.001583,-0.001869,-0.002797,36.5506,0.0310,92,1,2,0.001404,0.001458,-0.030905,0.000989,-0.000355,0.002116,-1.0432,-0.9163,0.4515
12480,11.0,0.000952,0.000892,-0.030895,0.001753,-0.002630,0.001833,-1.1336,-0.9649,0.1853,-0.00029456,-0.00016495,-0.00186543,-0.00005217,0.00040776,0.04965695,-0.1559,0.1833,-9.7257,-0.003303,-0.002053,-0.002659,36.5506,0.0310,94,1,0,0.001363,0.001440,-0.030884,0.000832,-0.000446,0.002277,-1.0423,-0.9167,0.4513
12491,11.0,0.000961,0.000899,-0.030874,0.001789,-0.002726,0.002121,-1.1328,-0.9649,0.1852,-0.00031699,-0.00017260,-0.00186543,-0.00008254,0.00048887,0.04965879,-0.1638,0.1579,-9.7426,-0.004728,-0.002106,-0.001860,36.5506,0.0310,91,0,0,0.001371,0.001422,-0.030860,0.000883,-0.000501,0.002430,-1.0428,-0.9170,0.4306
12503,12.0,0.000997,0.000929,-0.030848,0.001939,-0.002693,0.002360,-1.1335,-0.9665,0.1841,-0.00032458,-0.00017093,-0.00186518,-0.00009624,0.00042390,0.04966429,-0.1545,0.1894,-9.7377,-0.000893,-0.002245,-0.002366,36.5506,0.0310,87,-1,-1,0.001386,0.001435,-0.030920,0.000730,-0.000571,0.001639,-1.0424,-0.9167,0.4310
12514,11.0,0.001057,0.000987,-0.030913,0.002178,-0.002516,0.001538,-1.1319,-0.9673,0.1834,-0.00034966,-0.00017220,-0.00186481,-0.00016572,0.00041899,0.05011136,-0.1505,0.1531,-9.7301,-0.001728,-0.001073,-0.001265,36.5506,0.0310,92,-2,-2,0.001417,0.001466,-0.030902,0.000808,-0.000459,0.001847,-1.0418,-0.9159,0.4307
12525,11.0,0.001065,0.000994,-0.030896,0.002207,-0.002601,0.001770,-1.1333,-0.9684,0.1834,-0.00035396,-0.00017412,-0.00186475,-0.00014936,0.00038285,0.05011525,-0.1581,0.1886,-9.7297,-0.006016,-0.003203,-0.000927,36.5506,0.0310,90,0,0,0.001480,0.001529,-0.030862,0.001005,-0.000554,0.002251,-1.0402,-0.9160,0.4310
12536,11.0,0.001074,0.001000,-0.030875,0.002211,-0.002588,0.002055,-1.1328,-0.9683,0.1836,-0.00036836,-0.00018155,-0.00186472,-0.00016877,0.00041205,0.05011598,-0.1653,0.1808,-9.7270,-0.000740,0.000541,-0.001615,36.5506,0.0310,96,0,0,0.001487,0.001535,-0.030930,0.000983,-0.000471,0.001522,-1.0412,-0.9159,0.4310
12547,11.0,0.001082,0.001007,-0.030927,0.002253,-0.002638,0.001468,-1.1336,-0.9693,0.1835,-0.00037285,-0.00018359,-0.00186466,-0.00014596,0.00036901,0.05047747,-0.1476,0.1789,-9.7312,-0.001566,-0.004654,-0.003718,36.5506,0.0310,91,0,0,0.001502,0.001548,-0.030895,0.000878,-0.000447,0.002189,-1.0420,-0.9172,0.4297
12558,11.0,0.001065,0.001013,-0.030910,0.002135,-0.002575,0.001749,-1.1340,-0.9696,0.1841,-0.00038358,-0.00019349,-0.00186471,-0.00013406,0.00037476,0.05047726,-0.1636,0.1880,-9.7360,-0.003799,-0.003099,0.002132,36.5506,0.0310,94,0,1,0.001510,0.001554,-0.030873,0.000888,-0.000425,0.002482,-1.0416,-0.9177,0.4286
12569,11.0,0.001022,0.001019,-0.030890,0.001947,-0.002606,0.001998,-1.1345,-0.9701,0.1895,-0.00038797,-0.00020167,-0.00186616,-0.00007274,0.00033565,0.05048164,-0.1538,0.1635,-9.7360,-0.001061,-0.002841,-0.001549,36.5506,0.0300,89,0,2,0.001494,0.001559,-0.030337,0.000784,-0.000316,0.008272,-1.0417,-0.9184,0.4304
12580,11.0,0.001031,0.001025,-0.030388,0.001948,-0.002660,0.007737,-1.1331,-0.9715,0.1901,-0.00040656,-0.00020774,-0.00186617,-0.00012653,0.00043604,0.04824407,-0.1717,0.1536,-9.7657,-0.000540,-0.003860,-0.003007,36.5506,0.0300,90,0,0,0.001414,0.001571,-0.030169,0.000528,-0.000309,0.008509,-1.0384,-0.9177,0.4301
12591,11.0,0.001064,0.001006,-0.030277,0.001993,-0.002874,0.008294,-1.1337,-0.9730,0.1907,-0.00040808,-0.00020618,-0.00186609,-0.00014048,0.00042644,0.04812303,-0.1778,0.1738,-9.7056,-0.001157,0.000516,0.000020,36.4581,0.0300,91,1,-1,0.001421,0.001577,-0.030082,0.000478,-0.000428,0.008835,-1.0350,-0.9196,0.3809
12602,11.0,0.001073,0.001013,-0.030184,0.001941,-0.002950,0.008593,-1.1317,-0.9739,0.1912,-0.00043071,-0.00020846,-0.00186614,-0.00013203,0.00049925,0.04812408,-0.1599,0.1737,-9.7202,-0.003248,-0.001830,-0.003380,36.4581,0.0310,92,0,0,0.001452,0.001561,-0.029940,0.000390,-0.000569,0.009811,-1.0347,-0.9187,0.3819
12613,11.0,0.001082,0.000993,-0.030560,0.001861,-0.003159,0.003532,-1.1322,-0.9748,0.1913,-0.00043307,-0.00021018,-0.00186612,-0.00008312,0.00044340,0.05030605,-0.1656,0.1734,-9.6810,-0.001267,-0.002676,-0.000442,36.4581,0.0310,88,1,0,0.001467,0.001551,-0.030531,0.000226,-0.000658,0.003113,-1.0333,-0.9189,0.3817
12624,11.0,0.001090,0.000999,-0.030518,0.001815,-0.003125,0.004044,-1.1314,-0.9755,0.1916,-0.00044906,-0.00021257,-0.00186610,-0.00007755,0.00047026,0.05030632,-0.1593,0.1875,-9.7340,-0.003077,-0.002882,-0.003227,36.4581,0.0310,96,0,0,0.001475,0.001533,-0.030497,0.000134,-0.000695,0.003710,-1.0329,-0.9200,0.3828
12635,11.0,0.001073,0.001030,-0.030439,0.001697,-0.003000,0.004864,-1.1316,-0.9764,0.1913,-0.00045751,-0.00021731,-0.00186601,-0.00004426,0.00040953,0.05014999,-0.1677,0.1842,-9.7364,-0.001384,-0.002912,-0.001132,36.4581,0.0300,89,-1,1,0.001483,0.001538,-0.030458,0.000065,-0.000528,0.003999,-1.0328,-0.9204,0.3838
12647,12.0,0.001058,0.001033,-0.030164,0.001573,-0.003030,0.007758,-1.1305,-0.9769,0.1918,-0.00047577,-0.00022414,-0.00186609,-0.00004103,0.00047189,0.04918113,-0.1626,0.1470,-9.7386,-0.002063,0.000226,-0.002750,36.5162,0.0300,89,0,1,0.001473,0.001574,-0.030064,-0.000032,-0.000386,0.007199,-1.0339,-0.9205,0.3835
12658,11.0,0.001040,0.001040,-0.030069,0.001480,-0.003119,0.008080,-1.1311,-0.9773,0.1917,-0.00048115,-0.00022865,-0.00186608,-0.00000845,0.00043299,0.04913948,-0.1593,0.1607,-9.7436,-0.002620,-0.000708,-0.001057,36.5162,0.0300,89,0,1,0.001441,0.001588,-0.029903,-0.000214,-0.000611,0.007844,-1.0342,-0.9186,0.3838
12669,11.0,0.001075,0.001047,-0.029979,0.001605,-0.003161,0.008322,-1.1295,-0.9780,0.1916,-0.00050279,-0.00023051,-0.00186595,-0.00005152,0.00049341,0.04914115,-0.1542,0.1820,-9.7258,-0.001574,-0.003365,-0.003697,36.5162,0.0310,89,0,-1,0.001472,0.001619,-0.030522,-0.000101,-0.000632,0.000337,-1.0323,-0.9181,0.3845
12680,11.0,0.001109,0.001080,-0.030483,0.001772,-0.003168,0.001665,-1.1296,-0.9788,0.2010,-0.00051259,-0.00022853,-0.00186892,-0.00002957,0.00036874,0.05181538,-0.1544,0.1754,-9.7241,-0.002772,-0.001519,-0.003214,36.5162,0.0310,95,-1,-1,0.001503,0.001625,-0.030508,0.000027,-0.000575,0.000681,-1.0318,-0.9192,0.3836
12691,11.0,0.001117,0.001086,-0.030463,0.001814,-0.003180,0.001956,-1.1285,-0.9789,0.2009,-0.00053221,-0.00023723,-0.00186886,-0.00006295,0.00041594,0.05181661,-0.1585,0.1683,-9.7225,-0.002444,-0.002470,-0.000843,36.5162,0.0310,88,0,0,0.001541,0.001662,-0.030490,0.000194,-0.000350,0.001120,-1.0338,-0.9184,0.3917
12702,11.0,0.001125,0.001092,-0.030429,0.001827,-0.003162,0.002387,-1.1289,-0.9801,0.2003,-0.00053777,-0.00023881,-0.00186875,-0.00005242,0.00037761,0.05176394,-0.1791,0.1892,-9.7412,-0.001216,-0.002203,-0.002057,36.5162,0.0310,85,0,0,0.001548,0.001668,-0.030776,0.000195,-0.000347,-0.001848,-1.0330,-0.9193,0.3921
12713,11.0,0.001134,0.001072,-0.030722,0.001830,-0.003209,-0.001051,-1.1287,-0.9805,0.2003,-0.00054870,-0.00024481,-0.00186877,-0.00004350,0.00038899,0.05318811,-0.1529,0.1877,-9.7248,-0.002391,-0.001968,-0.002163,36.5162,0.0310,95,1,0,0.001556,0.001674,-0.030794,0.000034,-0.000220,-0.001685,-1.0322,-0.9197,0.3922
12724,11.0,0.001142,0.001052,-0.030724,0.001838,-0.003291,-0.000740,-1.1293,-0.9816,0.2003,-0.00055086,-0.00024642,-0.00186875,-0.00003296,0.00037464,0.05314774,-0.1588,0.1732,-9.7521,-0.001856,-0.002322,-0.001973,36.5162,0.0310,90,1,0,0.001571,0.001638,-0.030810,0.000046,-0.000147,-0.001145,-1.0312,-0.9199,0.3926
12735,11.0,0.001150,0.001058,-0.030731,0.001862,-0.003207,-0.000557,-1.1286,-0.9817,0.2002,-0.00056350,-0.00025397,-0.00186865,-0.00005758,0.00037771,0.05314805,-0.1455,0.1806,-9.7306,-0.001000,-0.000664,-0.001111,36.5744,0.0310,96,0,0,0.001578,0.001645,-0.030929,0.000057,-0.000104,-0.002154,-1.0311,-0.9201,0.3926
12746,11.0,0.001158,0.001064,-0.030880,0.001954,-0.003165,-0.002043,-1.1292,-0.9825,0.1997,-0.00056935,-0.00025580,-0.00186854,-0.00003413,0.00032702,0.05377854,-0.1608,0.1829,-9.7386,-0.004477,-0.002223,-0.004003,36.5744,0.0310,90,0,0,0.001584,0.001651,-0.030949,0.000163,-0.000029,-0.001864,-1.0303,-0.9196,0.3929
12757,11.0,0.001166,0.001070,-0.030901,0.002036,-0.003125,-0.001781,-1.1287,-0.9823,0.1990,-0.00058513,-0.00026866,-0.00186842,-0.00008784,0.00035111,0.05377968,-0.1409,0.1743,-9.6972,-0.002978,-0.004011,-0.002197,36.5744,0.0310,89,0,0,0.001598,0.001689,-0.030993,0.000230,0.000111,-0.001316,-1.0298,-0.9188,0.3915
12768,11.0,0.001148,0.001076,-0.030929,0.002018,-0.003087,-0.001560,-1.1293,-0.9829,0.1988,-0.00059076,-0.00027428,-0.00186843,-0.00004932,0.00031246,0.05382326,-0.1682,0.1858,-9.7229,-0.001605,-0.001014,-0.002033,36.5744,0.0310,90,0,1,0.001605,0.001695,-0.030996,0.000310,0.000130,-0.000802,-1.0297,-0.9190,0.3907
12779,11.0,0.001157,0.001083,-0.030969,0.002047,-0.003086,-0.001456,-1.1283,-0.9832,0.1982,-0.00060943,-0.00028338,-0.00186838,-0.00007801,0.00035233,0.05393179,-0.1600,0.1502,-9.7118,-0.000380,-0.002634,-0.003421,36.5744,0.0310,87,0,0,0.001571,0.001708,-0.031016,0.000201,0.000100,-0.000310,-1.0277,-0.9189,0.3903
12790,11.0,0.001164,0.001089,-0.030990,0.002085,-0.003089,-0.001136,-1.1291,-0.9845,0.2204,-0.00061504,-0.00028546,-0.00187577,-0.00008592,0.00029522,0.05396514,-0.1632,0.2003,-9.7307,-0.004207,-0.004464,-0.002170,36.5744,0.0300,88,0,0,0.001579,0.001716,-0.031018,0.000178,-0.000105,-0.000023,-1.0277,-0.9185,0.4505
12801,11.0,0.001173,0.001119,-0.031001,0.002065,-0.002925,-0.000767,-1.1281,-0.9852,0.2199,-0.00063240,-0.00029119,-0.00187563,-0.00009475,0.00028683,0.05396493,-0.1609,0.1856,-9.7126,-0.002314,-0.001751,-0.002351,36.5744,0.0300,94,-1,0,0.001586,0.001721,-0.030412,0.000155,0.000018,0.006835,-1.0296,-0.9203,0.4502
12812,11.0,0.001181,0.001125,-0.030458,0.002086,-0.002915,0.006022,-1.1284,-0.9867,0.2192,-0.00063731,-0.00029300,-0.00187555,-0.00012123,0.00029684,0.05162117,-0.1585,0.1801,-9.7091,-0.000745,-0.003089,-0.003393,36.5744,0.0300,90,0,0,0.001600,0.001757,-0.030277,0.000043,0.000251,0.007476,-1.0295,-0.9211,0.4506
12823,11.0,0.001214,0.001131,-0.030390,0.002189,-0.002824,0.006433,-1.1284,-0.9876,0.2186,-0.00064802,-0.00029669,-0.00187535,-0.00016098,0.00029589,0.05162169,-0.1626,0.1738,-9.7195,-0.002280,-0.000132,-0.000650,36.5744,0.0300,94,0,-1,0.001607,0.001763,-0.030200,0.000007,0.000345,0.007946,-1.0284,-0.9220,0.4493
12834,11.0,0.001247,0.001137,-0.030328,0.002367,-0.002787,0.006564,-1.1288,-0.9889,0.2184,-0.00065327,-0.00029555,-0.00187517,-0.00016725,0.00026158,0.05166597,-0.1409,0.1890,-9.7882,-0.003165,-0.003795,-0.000440,36.5744,0.0300,94,0,-1,0.001637,0.001769,-0.030043,0.000079,0.000374,0.009161,-1.0288,-0.9218,0.4494
12845,11.0,0.001255,0.001143,-0.030112,0.002409,-0.002723,0.007815,-1.1292,-0.9896,0.2181,-0.00066412,-0.00030641,-0.00187508,-0.00021154,0.00027647,0.05104868,-0.1650,0.1949,-9.9692,-0.006893,-0.006752,-0.003043,36.5744,0.0300,90,0,0,0.001674,0.001780,-0.029842,0.000204,0.000707,0.009245,-1.0291,-0.9241,0.4492
12856,11.0,0.001264,0.001149,-0.030036,0.002473,-0.002765,0.007390,-1.1307,-0.9911,0.2182,-0.00066936,-0.00030906,-0.00187501,-0.00019408,0.00024273,0.05108237,-0.1607,0.1475,-9.6674,-0.003087,-0.001456,-0.002321,36.5744,0.0310,90,0,0,0.001682,0.001786,-0.029767,0.000143,0.000785,0.008246,-1.0305,-0.9251,0.4489
12867,11.0,0.001272,0.001155,-0.029957,0.002513,-0.002775,0.007006,-1.1308,-0.9922,0.2184,-0.00068632,-0.00032033,-0.00187497,-0.00022851,0.00028042,0.05108345,-0.1609,0.1717,-9.7392,-0.001762,-0.004189,-0.000283,36.5744,0.0310,91,0,0,0.001696,0.001775,-0.030452,0.000258,0.000611,0.001407,-1.0305,-0.9259,0.4479
12878,11.0,0.001281,0.001135,-0.030465,0.002513,-0.002938,0.000093,-1.1322,-0.9938,0.2185,-0.00068842,-0.00032339,-0.00187501,-0.00016988,0.00022229,0.05352222,-0.1650,0.1840,-9.6877,-0.001513,-0.001137,-0.001776,36.4581,0.0310,91,1,0,0.001703,0.001782,-0.030404,0.000309,0.000625,0.001962,-1.0304,-0.9262,0.4481
12889,11.0,0.001264,0.001115,-0.030462,0.002387,-0.003080,0.000582,-1.1313,-0.9938,0.2198,-0.00070583,-0.00033492,-0.00187525,-0.00016179,0.00030228,0.05352340,-0.1630,0.1776,-9.7427,-0.003110,-0.002377,0.000368,36.4581,0.0310,90,1,1,0.001710,0.001764,-0.030382,0.000345,0.000703,0.002329,-1.0294,-0.9270,0.3763
12900,11.0,0.001272,0.001121,-0.030420,0.002367,-0.003135,0.001381,-1.1320,-0.9952,0.2119,-0.00071166,-0.00033744,-0.00187214,-0.00013943,0.00027680,0.05338306,-0.1711,0.1566,-9.6969,-0.004823,-0.003110,0.000259,36.4581,0.0300,91,0,0,0.001677,0.001729,-0.030092,0.000357,0.000553,0.004987,-1.0302,-0.9267,0.3777
12911,11.0,0.001255,0.001127,-0.030178,0.002226,-0.003135,0.004376,-1.1313,-0.9953,0.2124,-0.00073054,-0.00034653,-0.00187227,-0.00013740,0.00033717,0.05245585,-0.1637,0.1766,-9.7504,-0.002451,-0.001679,-0.006041,36.4581,0.0300,93,0,1,0.001684,0.001735,-0.030040,0.000306,0.000524,0.005372,-1.0303,-0.9280,0.3791
12922,11.0,0.001238,0.001159,-0.030103,0.002115,-0.003090,0.004916,-1.1316,-0.9958,0.2122,-0.00074010,-0.00035243,-0.00187218,-0.00010300,0.00028106,0.05234777,-0.1608,0.1792,-9.7415,-0.000355,-0.001231,-0.002498,36.4581,0.0300,90,-1,1,0.001668,0.001742,-0.029951,0.000224,0.000534,0.005889,-1.0301,-0.9277,0.3779
12933,11.0,0.001274,0.001192,-0.030048,0.002200,-0.003027,0.005121,-1.1300,-0.9973,0.2112,-0.00076652,-0.00035361,-0.00187198,-0.00013134,0.00032125,0.05234877,-0.1695,0.1605,-9.7562,-0.003911,-0.005657,-0.005724,36.5162,0.0320,90,-1,-1,0.001684,0.001804,-0.031136,0.000107,0.000672,-0.007615,-1.0287,-0.9269,0.3767
12944,11.0,0.001309,0.001199,-0.031073,0.002317,-0.003041,-0.007374,-1.1307,-0.9989,0.2096,-0.00077330,-0.00035258,-0.00187175,-0.00006420,0.00020183,0.05675056,-0.1627,0.1903,-9.7422,-0.005007,-0.002124,-0.001098,36.5162,0.0320,91,0,-1,0.001716,0.001836,-0.031212,0.000085,0.000712,-0.007646,-1.0288,-0.9297,0.3751
12955,11.0,0.001293,0.001204,-0.031153,0.002221,-0.003001,-0.007285,-1.1300,-0.9992,0.2094,-0.00078822,-0.00036471,-0.00187180,-0.00006455,0.00022293,0.05675076,-0.1544,0.1877,-9.7290,0.000322,-0.002335,-0.000099,36.5162,0.0290,96,0,1,0.001748,0.001842,-0.031289,0.000246,0.000704,-0.007693,-1.0296,-0.9306,0.3758
12966,11.0,0.001276,0.001185,-0.031221,0.002211,-0.003078,-0.007011,-1.1312,-1.0002,0.2095,-0.00079036,-0.00037073,-0.00187193,-0.00002976,0.00021088,0.05670191,-0.1379,0.1850,-9.7246,-0.003653,-0.001280,-0.001635,36.5162,0.0290,85,1,1,0.001740,0.001853,-0.029999,-0.000002,0.001119,0.007186,-1.0304,-0.9308,0.3765
12977,11.0,0.001260,0.001166,-0.030040,0.002184,-0.003064,0.007867,-1.1321,-0.9989,0.2096,-0.00079509,-0.00038711,-0.00187198,-0.00014812,0.00031708,0.05164675,-0.1622,0.1894,-9.7061,-0.003695,0.000840,-0.003184,36.5162,0.0290,85,1,1,0.001724,0.001837,-0.029915,0.000031,0.001143,0.007605,-1.0328,-0.9296,0.3759
12988,11.0,0.001267,0.001172,-0.029943,0.002306,-0.003006,0.008342,-1.1324,-0.9993,0.2098,-0.00080091,-0.00038958,-0.00187189,-0.00013406,0.00028358,0.05161057,-0.1578,0.1721,-9.7263,-0.001689,-0.003003,-0.000171,36.5162,0.0310,88,0,0,0.001709,0.001820,-0.029836,-0.000081,0.001097,0.008142,-1.0330,-0.9289,0.3739
13000,12.0,0.001278,0.001176,-0.029841,0.002406,-0.002965,0.008728,-1.1323,-0.9980,0.2093,-0.00081559,-0.00040431,-0.00187176,-0.00019028,0.00030261,0.05161166,-0.1518,0.1749,-9.7365,-0.002810,-0.000288,-0.002870,36.4581,0.0310,91,0,0,0.001724,0.001834,-0.030467,-0.000246,0.001066,0.000541,-1.0338,-0.9298,0.3587
13011,11.0,0.001338,0.001183,-0.030409,0.002723,-0.002958,0.001404,-1.1333,-0.9990,0.2129,-0.00082198,-0.00039993,-0.00187296,-0.00017569,0.00021467,0.05424998,-0.1431,0.1789,-9.7124,-0.004807,-0.002953,-0.001462,36.4581,0.0310,84,0,-2,0.001786,0.001848,-0.030375,-0.000079,0.001036,0.001777,-1.0343,-0.9299,0.3600
13022,11.0,0.001371,0.001188,-0.030392,0.002873,-0.002919,0.001704,-1.1329,-0.9988,0.2126,-0.00083716,-0.00041075,-0.00187276,-0.00024236,0.00023907,0.05425136,-0.1638,0.1916,-9.7273,-0.002557,-0.002786,-0.002351,36.4581,0.0290,87,0,-1,0.001838,0.001855,-0.029545,0.000173,0.001028,0.011098,-1.0351,-0.9294,0.3600
13033,11.0,0.001354,0.001170,-0.030339,0.002839,-0.002984,0.002365,-1.1342,-0.9987,0.2127,-0.00083921,-0.00041783,-0.00187293,-0.00020402,0.00022939,0.05411710,-0.1638,0.1843,-9.7373,-0.002216,0.000821,-0.002123,36.4581,0.0290,90,1,1,0.001867,0.001860,-0.029433,0.000232,0.001145,0.011366,-1.0351,-0.9300,0.3597
13044,11.0,0.001338,0.001151,-0.029589,0.002739,-0.002991,0.010995,-1.1350,-0.9980,0.2130,-0.00084585,-0.00043161,-0.00187306,-0.00025682,0.00030271,0.05128840,-0.1681,0.1908,-9.7369,-0.003840,-0.001803,-0.000106,36.4581,0.0290,94,1,1,0.001836,0.001828,-0.029166,0.000029,0.000960,0.012187,-1.0360,-0.9319,0.3586
13055,11.0,0.001346,0.001157,-0.029443,0.002730,-0.002959,0.011493,-1.1357,-0.9984,0.2134,-0.00085165,-0.00043476,-0.00187299,-0.00024037,0.00027157,0.05118680,-0.1582,0.1618,-9.7486,-0.002649,-0.002439,0.000185,36.4581,0.0310,90,0,0,0.001843,0.001834,-0.029043,0.000018,0.000964,0.012328,-1.0360,-0.9326,0.3595
13066,11.0,0.001329,0.001164,-0.029315,0.002610,-0.002923,0.011712,-1.1355,-0.9973,0.2137,-0.00086710,-0.00044747,-0.00187309,-0.00023551,0.00029590,0.05118696,-0.1577,0.1814,-9.7209,-0.004076,0.000050,-0.004808,36.4581,0.0310,91,0,1,0.001850,0.001841,-0.030237,0.000061,0.000865,-0.001421,-1.0357,-0.9328,0.3602
13077,11.0,0.001337,0.001171,-0.030161,0.002620,-0.002964,0.000657,-1.1366,-0.9972,0.2136,-0.00087365,-0.00045119,-0.00187302,-0.00015315,0.00018861,0.05497782,-0.1629,0.1666,-9.7160,-0.003843,0.001373,-0.002823,36.5162,0.0310,91,0,0,0.001815,0.001879,-0.030249,0.000113,0.000870,-0.000770,-1.0361,-0.9320,0.3590
13089,12.0,0.001372,0.001175,-0.030152,0.002754,-0.003037,0.000946,-1.1358,-0.9960,0.2134,-0.00089605,-0.00045894,-0.00187292,-0.00020420,0.00025270,0.05497965,-0.1529,0.1669,-9.7276,-0.003168,0.000335,-0.000852,36.5162,0.0290,93,0,-1,0.001822,0.001886,-0.030255,0.000178,0.000878,-0.000509,-1.0341,-0.9331,0.2166
13100,11.0,0.001405,0.001206,-0.030128,0.002910,-0.002995,0.001381,-1.1365,-0.9958,0.2123,-0.00090567,-0.00045875,-0.00187263,-0.00020551,0.00020007,0.05493348,-0.1523,0.1776,-9.7356,-0.002526,-0.002158,-0.003145,36.5162,0.0290,92,-1,-1,0.001880,0.001899,-0.029401,0.000333,0.000603,0.008136,-1.0338,-0.9337,0.2169
13111,11.0,0.001461,0.001213,-0.029495,0.003140,-0.003025,0.008768,-1.1353,-0.9952,0.2117,-0.00092593,-0.00046438,-0.00187239,-0.00032285,0.00030135,0.05257409,-0.1539,0.1750,-9.7399,-0.001133,-0.002295,-0.003056,36.5162,0.0290,89,0,-2,0.001909,0.001928,-0.029319,0.000440,0.000770,0.008370,-1.0334,-0.9344,0.2167
