timestamp_ms,dt_ms,pos_x,pos_y,pos_z,vel_x,vel_y,vel_z,roll_deg,pitch_deg,yaw_deg,gyro_bias_x,gyro_bias_y,gyro_bias_z,accel_bias_x,accel_bias_y,accel_bias_z,raw_accel_x,raw_accel_y,raw_accel_z,raw_gyro_x,raw_gyro_y,raw_gyro_z,raw_mag_x,raw_mag_y,raw_mag_z,raw_baro_alt,raw_tof,raw_flow_squal,raw_flow_dx,raw_flow_dy,dev_pos_x,dev_pos_y,dev_pos_z,dev_vel_x,dev_vel_y,dev_vel_z,dev_roll_deg,dev_pitch_deg,dev_yaw_deg
11327,10.0,-0.000591,-0.000050,-0.316938,-0.060753,-0.000489,-0.001187,-0.0058,0.0119,0.0012,0.00000000,0.00000000,0.00000000,-0.00150823,0.00339969,0.00000000,-0.3293,0.8976,-9.8495,-0.006445,-0.001856,-0.022963,26.1084,16.4875,33.7145,-3.3768,0.3170,111,-1,0,-0.002872,-0.000981,-0.316721,-0.014061,0.003677,0.007945,-2.8117,-2.0271,1.4500
11338,11.0,-0.001291,-0.001401,-0.316947,-0.064884,-0.059264,-0.000470,-0.5156,0.0004,0.0151,0.00000093,0.00000006,-0.00000003,-0.00150160,0.00419388,0.00000008,-0.3261,0.9189,-9.7298,-0.028913,0.006086,-0.009972,26.1084,16.4875,33.7145,-3.3768,0.3180,101,-1,-1,-0.003321,-0.000975,-0.317053,-0.018827,0.004629,0.002869,-2.8699,-1.9620,1.5617
11349,11.0,-0.001349,-0.002789,-0.315054,-0.045532,-0.077608,0.084253,-0.9926,-0.3958,-0.0149,0.00000231,0.00000126,0.00000003,-0.00223285,0.00504019,-0.00004649,-0.3580,0.8705,-9.6397,-0.023997,0.006939,-0.003052,26.1084,17.5681,34.5420,-3.3768,0.3180,112,0,-1,-0.003775,-0.001461,-0.317024,-0.023041,0.000321,0.003160,-2.9145,-1.9084,1.7345
11361,12.0,-0.001371,-0.002953,-0.317887,-0.034056,-0.050697,-0.027531,-0.3933,-0.9172,-0.0596,-0.00000014,0.00000357,0.00000032,-0.00311808,0.00386768,0.00003809,-0.4203,0.7224,-9.8293,0.007949,-0.012069,-0.016042,26.1084,17.5681,34.5420,-3.3768,0.3180,110,0,0,-0.003834,-0.001941,-0.316882,-0.018181,-0.002028,0.005535,-2.9423,-2.0572,1.8337
11372,11.0,-0.001373,-0.003026,-0.318087,-0.027017,-0.031751,-0.026438,0.1255,-1.3647,-0.0559,-0.00000305,0.00000612,0.00000065,-0.00392004,0.00295519,-0.00000481,-0.4606,0.7286,-9.9777,0.019696,-0.009696,-0.032908,26.1084,17.5681,34.5420,-3.3768,0.3170,108,0,0,-0.003822,-0.001921,-0.316562,-0.015564,-0.000619,0.008002,-2.8676,-2.1562,1.8559
11384,12.0,-0.001504,-0.003134,-0.318409,-0.023613,-0.016063,-0.027252,0.3630,-1.6393,-0.0364,-0.00000450,0.00000826,0.00000091,-0.00442157,0.00243338,-0.00000006,-0.4071,0.8599,-9.8787,0.005144,0.014278,-0.031572,26.1084,17.5681,34.5420,-3.3768,0.3170,110,0,0,-0.003848,-0.001880,-0.316387,-0.012438,0.003367,0.005307,-2.6953,-2.2943,1.9222
11395,11.0,-0.001639,-0.003123,-0.317122,-0.019604,-0.002365,0.001721,0.6385,-1.7953,-0.0239,-0.00000646,0.00000977,0.00000110,-0.00475897,0.00208452,-0.00094015,-0.1990,0.8416,-9.7623,0.067762,0.010307,-0.052410,26.1084,17.5681,34.5420,-3.3768,0.3170,113,0,0,-0.003985,-0.001880,-0.316260,-0.012683,0.007283,0.006153,-2.5742,-2.3053,1.9845
11406,11.0,-0.001776,-0.003050,-0.317092,-0.016951,0.011128,0.003639,0.6982,-1.9053,-0.0144,-0.00000611,0.00001099,0.00000124,-0.00497749,0.00199297,-0.00093516,-0.2501,1.0900,-9.6450,0.097891,0.007603,-0.017675,26.1084,17.5681,34.5420,-3.3768,0.3180,113,0,0,-0.004094,-0.001791,-0.316199,-0.011671,0.009660,0.006465,-2.5186,-2.2934,1.9897
11417,11.0,-0.001831,-0.004016,-0.316967,-0.011452,-0.008092,0.005387,-1.0995,-2.1028,0.0277,0.00001746,0.00001343,0.00000097,-0.00534129,0.00546595,-0.00114640,-0.1283,1.0616,-9.6446,0.081022,-0.010699,0.018109,26.1084,17.5681,34.5420,-3.3768,0.3180,123,0,-1,-0.004249,-0.001549,-0.316978,-0.008214,0.019488,-0.000150,-2.3468,-2.3150,2.0591
11428,11.0,-0.001830,-0.004016,-0.317483,-0.006925,0.000304,-0.001851,-1.0746,-2.3043,-0.0179,0.00001755,0.00001621,0.00000128,-0.00567826,0.00527344,-0.00000183,-0.2646,0.8983,-9.7309,0.030584,-0.013888,0.024484,26.1084,17.5681,34.5420,-3.3768,0.3180,120,0,0,-0.004259,-0.001889,-0.316976,-0.005112,0.017877,0.001077,-2.2820,-2.3574,2.1721
11439,11.0,-0.002300,-0.005011,-0.317478,-0.017549,-0.023332,-0.003584,-2.6524,-1.7000,0.0810,0.00004570,0.00000532,-0.00000049,-0.00453207,0.00827775,-0.00026787,-0.3313,0.7135,-9.8829,0.015947,-0.020037,0.025388,26.1084,17.5681,34.5420,-3.3768,0.3160,117,-1,-1,-0.004602,-0.002214,-0.316016,-0.007234,0.014770,0.011452,-2.2316,-2.3509,2.4002
11450,11.0,-0.002329,-0.005084,-0.317523,-0.013014,-0.016292,-0.005617,-2.4104,-1.9494,-0.0177,0.00004089,0.00001041,0.00000009,-0.00498898,0.00778224,-0.00025288,-0.3212,0.6785,-9.9918,0.002366,-0.007032,0.007410,26.8960,17.5756,32.8640,-3.4878,0.3160,121,0,0,-0.004531,-0.002179,-0.315912,-0.004901,0.014572,0.009720,-2.1735,-2.4040,2.4494
11462,12.0,-0.002471,-0.005147,-0.316236,-0.011501,-0.008030,0.008661,-2.1213,-1.9394,-0.0072,0.00003531,0.00001075,0.00000027,-0.00515826,0.00776589,-0.00578690,-0.2268,0.7358,-9.9758,0.026876,0.019610,-0.013498,26.8960,17.5756,32.8640,-3.4878,0.3160,122,0,0,-0.004499,-0.002164,-0.315722,-0.002951,0.015386,0.008905,-2.0715,-2.4507,2.5275
11473,11.0,-0.002629,-0.005130,-0.316144,-0.011074,-0.000721,0.007836,-2.0081,-1.8694,-0.0009,0.00003327,0.00000910,0.00000023,-0.00507097,0.00754540,-0.00578588,-0.1964,0.8645,-9.8712,0.048422,0.024773,-0.008574,26.8960,17.5756,32.8640,-3.4878,0.3170,124,0,0,-0.004710,-0.002074,-0.316102,-0.002069,0.018910,-0.000283,-1.9018,-2.4295,2.6675
11484,11.0,-0.002721,-0.006090,-0.315979,-0.008711,-0.021449,0.008629,-3.1186,-1.8871,0.0167,0.00007164,0.00000991,-0.00000048,-0.00513670,0.00979631,-0.00653473,-0.1567,0.8452,-9.7455,0.055094,0.006439,0.006099,26.8960,17.5756,32.8640,-3.4878,0.3170,116,0,-1,-0.004837,-0.001994,-0.316111,-0.002052,0.021039,-0.001096,-1.8579,-2.3922,2.5969
11495,11.0,-0.002741,-0.007084,-0.316180,-0.004867,-0.039011,0.005704,-3.9358,-1.9569,0.0042,0.00010477,0.00001211,-0.00000076,-0.00524404,0.01129059,-0.00484386,-0.1195,0.8000,-9.6983,0.070976,-0.013174,0.013037,26.8960,17.5756,32.8640,-3.4878,0.3170,116,0,-1,-0.004903,-0.002361,-0.316123,-0.000508,0.018327,-0.001002,-1.7857,-2.4056,2.7100
11506,11.0,-0.002753,-0.007121,-0.316023,-0.002265,-0.028433,0.007733,-3.5000,-1.9967,-0.0025,0.00008738,0.00001355,-0.00000038,-0.00532025,0.01057250,-0.00540046,-0.1744,0.7488,-9.7163,0.072719,-0.012378,0.008139,26.8960,17.5756,32.8640,-3.4878,0.3160,120,0,0,-0.004879,-0.002599,-0.315988,0.003748,0.018352,0.002617,-1.6171,-2.4314,2.8334
11517,11.0,-0.002845,-0.007176,-0.315928,-0.003347,-0.021771,0.008387,-3.2533,-1.9186,-0.0021,0.00007545,0.00001005,-0.00000039,-0.00519793,0.01009725,-0.00538162,-0.2848,0.6499,-9.7458,0.025033,0.018407,0.015268,26.8960,17.5756,32.8640,-3.4878,0.3160,116,0,0,-0.004867,-0.002486,-0.315657,0.004998,0.020717,0.006810,-1.5316,-2.4279,2.8620
11528,11.0,-0.002940,-0.007253,-0.315491,-0.004874,-0.017440,0.012169,-3.1046,-1.8585,-0.0030,0.00006690,0.00000738,-0.00000035,-0.00517621,0.01002616,-0.00824924,-0.3547,0.5896,-9.8208,-0.010014,0.023688,-0.004310,26.8960,17.5756,32.8640,-3.4508,0.3160,119,0,0,-0.005032,-0.002408,-0.315513,0.003445,0.022382,0.007564,-1.3613,-2.4175,3.0425
11539,11.0,-0.003019,-0.007344,-0.315365,-0.006124,-0.013601,0.010516,-3.0587,-1.8295,-0.0020,0.00006239,0.00000640,-0.00000027,-0.00513284,0.00986276,-0.00823464,-0.3993,0.7132,-9.9403,-0.035106,0.022544,-0.012760,27.6863,16.1347,33.6915,-3.4508,0.3160,112,0,0,-0.005122,-0.002411,-0.315502,0.002158,0.022868,0.006519,-1.2730,-2.4186,3.1397
11550,11.0,-0.003186,-0.007420,-0.315171,-0.008829,-0.008699,0.010019,-3.0333,-1.7348,-0.0012,0.00005930,0.00000099,-0.00000056,-0.00501825,0.00984704,-0.00907688,-0.3767,0.8741,-9.9221,-0.026031,0.042488,-0.008533,27.6863,16.1347,33.6915,-3.4508,0.3160,108,0,0,-0.005193,-0.002424,-0.315446,0.000968,0.023223,0.005148,-1.2641,-2.4211,3.2021
11561,11.0,-0.003389,-0.007424,-0.315260,-0.011079,-0.002700,0.007854,-2.9829,-1.6357,-0.0004,0.00005610,-0.00000557,-0.00000095,-0.00482276,0.00958243,-0.00712728,-0.2941,0.9591,-9.7586,0.027199,0.042008,-0.005185,27.6863,16.1347,33.6915,-3.4508,0.3160,115,0,0,-0.005488,-0.002452,-0.315280,-0.002524,0.027465,0.004137,-1.1944,-2.3924,3.3587
11572,11.0,-0.003536,-0.007333,-0.315107,-0.011637,0.004327,0.008595,-2.8594,-1.6109,-0.0018,0.00005007,-0.00000715,-0.00000089,-0.00480925,0.00951345,-0.00778399,-0.2888,0.9781,-9.7846,0.100915,0.015383,-0.000815,27.6863,16.1347,33.6915,-3.4508,0.3150,112,0,0,-0.005678,-0.002420,-0.315237,-0.003996,0.031422,0.004595,-1.0819,-2.3823,3.4668
11583,11.0,-0.003682,-0.007206,-0.315022,-0.012198,0.009059,0.006839,-2.7588,-1.5930,-0.0015,0.00004677,-0.00000820,-0.00000084,-0.00478637,0.00940590,-0.00777499,-0.3061,0.8317,-9.9457,0.110843,0.013349,0.011162,27.6863,16.1347,33.6915,-3.4508,0.3150,117,0,0,-0.005984,-0.002158,-0.314720,-0.005397,0.038817,0.008083,-0.8580,-2.3752,3.2576
11594,11.0,-0.003967,-0.007128,-0.314668,-0.015413,0.010782,0.010910,-2.7352,-1.4777,0.0035,0.00004883,-0.00001875,-0.00000180,-0.00470107,0.00965461,-0.01058992,-0.2998,0.6856,-9.7203,0.056419,0.055769,0.021600,27.6863,16.1347,33.6915,-3.4297,0.3150,110,0,0,-0.006150,-0.002025,-0.314564,-0.006144,0.040393,0.007969,-0.7906,-2.3645,3.3249
11605,11.0,-0.004287,-0.008100,-0.314544,-0.017920,-0.009142,0.013254,-3.2475,-1.3621,0.0211,0.00013077,-0.00003010,-0.00000517,-0.00455587,0.01082998,-0.01091200,-0.2110,0.5782,-9.5699,0.063140,0.060607,0.005595,27.6863,16.1347,33.6915,-3.4297,0.3160,114,0,-1,-0.006419,-0.001942,-0.314482,-0.008112,0.041501,0.008698,-0.6670,-2.3446,3.4531
11616,11.0,-0.004454,-0.008051,-0.314306,-0.016821,-0.005570,0.016700,-3.1385,-1.3618,-0.0017,0.00011940,-0.00002803,-0.00000471,-0.00460529,0.01074048,-0.01169018,-0.1783,0.6302,-9.5759,0.063067,0.021094,-0.006185,27.6863,16.1347,33.6915,-3.4297,0.3160,104,0,0,-0.006904,-0.002631,-0.315121,-0.009307,0.031622,0.004526,-0.5396,-2.2918,3.6637
11627,11.0,-0.004566,-0.009099,-0.314854,-0.013788,-0.021925,0.010514,-3.5658,-1.3793,-0.0018,0.00020263,-0.00002347,-0.00000590,-0.00449174,0.01116399,-0.00444231,-0.0556,0.7284,-9.5432,0.041561,0.010442,-0.000543,27.6863,16.1347,33.6915,-3.4297,0.3160,107,0,-1,-0.007041,-0.002535,-0.315066,-0.008414,0.033060,0.006936,-0.4632,-2.2791,3.6940
11638,11.0,-0.004618,-0.009117,-0.314669,-0.010230,-0.017005,0.012973,-3.4560,-1.4169,0.0035,0.00018393,-0.00001589,-0.00000512,-0.00459168,0.01099773,-0.00499858,-0.0582,0.7042,-9.6369,0.030221,-0.000872,0.000348,27.6863,16.1347,33.6915,-3.4297,0.3130,101,0,0,-0.007108,-0.002915,-0.314886,-0.005667,0.030248,0.010758,-0.3768,-2.3014,3.7889
11649,11.0,-0.004545,-0.009202,-0.314528,-0.006220,-0.014909,0.012353,-3.4419,-1.4981,0.0038,0.00017505,0.00000003,-0.00000390,-0.00476912,0.01089580,-0.00496620,-0.1719,0.6360,-9.8520,-0.039017,-0.018494,0.016888,26.5089,15.7521,34.1743,-3.4297,0.3130,107,0,0,-0.007113,-0.002834,-0.313278,0.000019,0.034754,0.027579,-0.2281,-2.3330,3.8694
11660,11.0,-0.004270,-0.009333,-0.313202,-0.000372,-0.014942,0.022530,-3.4684,-1.6651,0.0108,0.00016912,0.00003315,-0.00000179,-0.00535018,0.01174821,-0.01694234,-0.2845,0.5414,-10.1905,-0.084250,-0.058212,0.019193,26.5089,15.7521,34.1743,-3.4297,0.3130,107,0,0,-0.006996,-0.002842,-0.312930,0.002827,0.034987,0.027942,-0.2209,-2.3599,3.8969
11671,11.0,-0.003987,-0.009457,-0.312990,0.004177,-0.014589,0.015866,-3.5028,-1.8040,0.0114,0.00016480,0.00006225,-0.00000008,-0.00555581,0.01171582,-0.01691778,-0.3433,0.6071,-10.4110,-0.078276,-0.056978,0.010751,26.5089,15.7521,34.1743,-3.5037,0.3150,107,0,0,-0.006732,-0.002890,-0.312666,0.006827,0.034761,0.025010,-0.1765,-2.4362,3.9734
11682,11.0,-0.004507,-0.009508,-0.312750,-0.004882,-0.010761,0.010203,-3.4757,-1.6152,-0.0176,0.00015431,0.00000202,-0.00000355,-0.00522756,0.01172921,-0.01796299,-0.2878,0.8478,-10.4224,-0.010794,-0.007860,-0.007839,26.5089,15.7521,34.1743,-3.5037,0.3150,105,-1,0,-0.006665,-0.003006,-0.313712,0.007144,0.035838,-0.000737,-0.0728,-2.5294,3.8284
11693,11.0,-0.004652,-0.009505,-0.313574,-0.005775,-0.005555,-0.006276,-3.4284,-1.5656,-0.0014,0.00014450,-0.00000902,-0.00000411,-0.00497367,0.01107031,-0.00932497,-0.2317,0.9655,-10.3060,0.030891,0.027354,-0.007083,26.5089,15.7521,34.1743,-3.5037,0.3150,105,0,0,-0.006610,-0.003006,-0.313750,0.008040,0.039038,-0.006729,0.0104,-2.5638,3.9112
11704,11.0,-0.004881,-0.009465,-0.313575,-0.007677,-0.000821,-0.007504,-3.3684,-1.4850,-0.0005,0.00013469,-0.00002861,-0.00000541,-0.00490303,0.01108022,-0.01009205,-0.1993,0.9152,-9.9827,0.053878,0.043497,0.014915,26.5089,15.7521,34.1743,-3.5037,0.3140,113,0,0,-0.006880,-0.002926,-0.313744,0.005881,0.047599,-0.012957,0.2275,-2.5602,4.1113
11715,11.0,-0.005100,-0.009363,-0.313659,-0.008562,0.003258,-0.007873,-3.2829,-1.4198,-0.0002,0.00012396,-0.00004603,-0.00000652,-0.00484477,0.01099615,-0.01008085,-0.1312,0.8215,-9.8231,0.093539,0.034039,0.027550,26.5089,15.7521,34.1743,-3.5037,0.3140,120,0,0,-0.007090,-0.002852,-0.313798,0.004324,0.051617,-0.013452,0.3493,-2.5474,4.2297
11726,11.0,-0.005956,-0.009232,-0.313501,-0.020303,0.005536,-0.004721,-3.1899,-1.1749,-0.0040,0.00011221,-0.00013996,-0.00001335,-0.00450692,0.01110885,-0.01232786,-0.2213,0.6473,-9.7729,0.106405,0.047483,0.028785,26.5089,15.7521,34.1743,-3.5037,0.3140,116,-1,0,-0.007988,-0.002607,-0.314071,-0.003935,0.055821,-0.012828,0.5541,-2.4643,4.4339
11737,11.0,-0.006843,-0.009100,-0.313556,-0.030994,0.006913,-0.005333,-3.1082,-0.9650,-0.0091,0.00010361,-0.00022402,-0.00001908,-0.00416231,0.01106281,-0.01234061,-0.2451,0.5879,-9.8574,0.101518,0.050116,0.031039,26.5089,15.7521,34.1743,-3.5037,0.3140,116,-1,0,-0.008704,-0.002486,-0.313837,-0.011145,0.056257,-0.008702,0.6356,-2.4028,4.5296
11747,10.0,-0.007177,-0.009092,-0.313527,-0.031445,0.005160,-0.006131,-3.1238,-0.9164,-0.0013,0.00011080,-0.00022705,-0.00001940,-0.00416941,0.01115091,-0.01320145,-0.1818,0.4638,-10.0035,-0.001950,0.072444,0.031821,26.1084,16.8477,34.1282,-3.4772,0.3140,117,0,0,-0.009001,-0.002375,-0.313931,-0.012165,0.056012,-0.009882,0.7661,-2.3891,4.6470
11758,11.0,-0.007751,-0.009226,-0.313528,-0.034861,0.001365,-0.004017,-3.2461,-0.7712,-0.0116,0.00013483,-0.00025786,-0.00002154,-0.00406068,0.01132446,-0.01376809,-0.1559,0.4465,-9.6849,-0.123372,0.139491,0.031497,26.1084,16.8477,34.1282,-3.4772,0.3140,119,0,0,-0.009755,-0.002426,-0.314052,-0.015460,0.052107,-0.010417,0.8303,-2.2865,4.8308
11770,12.0,-0.008328,-0.009389,-0.313477,-0.036630,-0.001900,0.001126,-3.3829,-0.6415,-0.0123,0.00015919,-0.00028058,-0.00002298,-0.00398798,0.01146482,-0.01446226,-0.0767,0.4918,-9.4580,-0.139072,0.131912,0.017776,26.1084,16.8477,34.1282,-3.4772,0.3130,116,0,0,-0.010282,-0.002581,-0.313305,-0.018401,0.048739,0.001043,0.7794,-2.1845,4.8904
11781,11.0,-0.008625,-0.009501,-0.313444,-0.034493,-0.003580,0.004857,-3.4602,-0.6224,0.0033,0.00017208,-0.00026571,-0.00002237,-0.00404520,0.01151494,-0.01447638,-0.0537,0.5370,-9.4709,-0.090680,0.066252,0.011287,26.1084,16.8477,34.1282,-3.4772,0.3130,120,0,0,-0.010763,-0.002751,-0.313201,-0.019929,0.046587,0.005586,0.7773,-2.1182,4.9940
11792,11.0,-0.008085,-0.008438,-0.312781,-0.021176,0.012640,0.013590,-3.2521,-0.8212,0.0864,0.00000728,-0.00012892,-0.00001437,-0.00463972,0.01122709,-0.01940405,-0.1137,0.6153,-9.6556,-0.049320,0.002560,0.004714,26.1084,16.8477,34.1282,-3.4772,0.3130,115,1,1,-0.010792,-0.002448,-0.312897,-0.011499,0.052167,0.013811,0.8839,-2.1187,4.9043
11803,11.0,-0.008036,-0.006237,-0.312625,-0.016432,0.042410,0.014740,-2.8723,-0.8856,0.0896,-0.00030828,-0.00008719,-0.00001063,-0.00480557,0.01007474,-0.01909743,-0.0745,0.5801,-9.7062,-0.077382,-0.009531,0.014763,26.1084,16.8477,34.1282,-3.4772,0.3140,119,0,2,-0.010807,-0.002023,-0.312753,-0.008936,0.057313,0.015636,0.8961,-2.1303,4.9213
11814,11.0,-0.008027,-0.003936,-0.312341,-0.012995,0.068429,0.018537,-2.5323,-0.9272,0.0845,-0.00059761,-0.00005803,-0.00000824,-0.00491950,0.00910549,-0.01975734,-0.0813,0.4898,-9.5895,-0.044176,-0.003150,-0.001486,26.1084,16.8477,34.1282,-3.5142,0.3140,119,0,2,-0.010811,-0.001179,-0.313332,-0.005940,0.067421,0.009236,0.9838,-2.1723,5.0040
11825,11.0,-0.007860,-0.003834,-0.312968,-0.008754,0.060616,0.009794,-2.6663,-1.0129,-0.0064,-0.00048865,-0.00000814,-0.00000651,-0.00498993,0.00903038,-0.01295292,-0.1712,0.5687,-9.7099,-0.010086,-0.042354,-0.011565,26.1084,16.8477,34.1282,-3.5142,0.3140,116,0,0,-0.010761,-0.000248,-0.312999,-0.000762,0.073761,0.014930,1.0880,-2.2241,5.0847
11836,11.0,-0.007503,-0.003746,-0.312787,-0.003067,0.052782,0.009013,-2.7834,-1.1523,0.0125,-0.00039109,0.00006876,-0.00000401,-0.00523261,0.00936961,-0.01374263,-0.2443,0.4958,-9.9721,-0.013745,-0.084112,-0.007429,26.8987,17.5681,33.7145,-3.5142,0.3120,117,0,0,-0.010592,-0.000180,-0.312140,0.002477,0.072009,0.024232,1.0982,-2.2640,5.0916
11847,11.0,-0.007138,-0.003725,-0.312695,0.002383,0.045769,0.007808,-2.9210,-1.2745,0.0112,-0.00029257,0.00013805,-0.00000202,-0.00542694,0.00962832,-0.01383246,-0.2118,0.5632,-9.9167,-0.054915,-0.078069,-0.004774,26.8987,17.5681,33.7145,-3.5142,0.3120,117,0,0,-0.009876,-0.000044,-0.311677,0.011746,0.069108,0.022048,1.1727,-2.4316,5.1676
11858,11.0,-0.006828,-0.003731,-0.311935,0.006844,0.039982,0.016220,-3.0535,-1.3638,0.0041,-0.00020101,0.00018843,-0.00000070,-0.00562602,0.01016730,-0.01930168,-0.1677,0.6265,-9.7597,-0.065083,-0.062071,0.004040,26.8987,17.5681,33.7145,-3.5142,0.3120,115,0,0,-0.009511,-0.000028,-0.311331,0.016031,0.068284,0.023022,1.2188,-2.5182,5.2359
11869,11.0,-0.006593,-0.002612,-0.311746,0.010117,0.050529,0.018126,-2.9872,-1.4159,0.0275,-0.00032305,0.00021562,0.00000196,-0.00572202,0.00981281,-0.01920920,-0.1268,0.6529,-9.6352,-0.075516,-0.041460,0.008206,26.8987,17.5681,33.7145,-3.5142,0.3140,119,0,1,-0.009196,-0.000019,-0.311101,0.019394,0.067169,0.023772,1.1921,-2.5647,5.2504
11880,11.0,-0.006362,-0.001440,-0.311422,0.012749,0.060851,0.022575,-2.9162,-1.4624,0.0237,-0.00043644,0.00023684,0.00000422,-0.00578751,0.00955527,-0.02000007,-0.1415,0.7034,-9.5197,-0.045674,-0.043462,0.011490,26.8987,17.5681,33.7145,-3.5142,0.3140,117,0,1,-0.008801,0.000861,-0.312448,0.023181,0.076631,0.010429,1.2506,-2.6278,5.1165
11891,11.0,-0.006677,-0.000230,-0.311342,0.006467,0.070069,0.021962,-2.8468,-1.4235,-0.0085,-0.00053697,0.00014941,0.00000068,-0.00554503,0.00918820,-0.01856072,-0.2699,0.6966,-9.6713,-0.023831,-0.055099,0.013518,26.8987,17.5681,33.7145,-3.5512,0.3120,113,-1,1,-0.009012,0.001296,-0.312329,0.019467,0.081280,0.013503,1.3293,-2.6672,5.2098
11902,11.0,-0.007046,-0.000158,-0.311017,-0.000432,0.062011,0.021436,-2.9770,-1.3822,-0.0272,-0.00039725,0.00006374,-0.00000685,-0.00535828,0.00955506,-0.01940259,-0.3544,0.6257,-9.9543,-0.031143,-0.043453,0.004387,26.8987,17.5681,33.7145,-3.5512,0.3120,112,-1,0,-0.009427,0.001767,-0.311575,0.011826,0.083226,0.019725,1.3952,-2.7292,5.3513
11913,11.0,-0.007046,-0.000128,-0.310793,-0.001367,0.054318,0.019354,-3.1127,-1.3787,-0.0007,-0.00026230,0.00006676,-0.00000990,-0.00534510,0.00982004,-0.01948842,-0.3452,0.6219,-9.9945,-0.054968,0.008727,0.001048,26.8987,17.5681,33.7145,-3.5512,0.3120,112,0,0,-0.009694,0.001770,-0.311273,0.007543,0.080735,0.019610,1.3785,-2.7462,5.4101
11924,11.0,-0.007212,-0.000141,-0.310985,-0.003738,0.047242,0.013011,-3.2542,-1.3254,-0.0055,-0.00013199,0.00003568,-0.00001497,-0.00524409,0.00990564,-0.01652447,-0.2824,0.6451,-9.9566,-0.078511,0.049354,-0.009924,26.8987,17.5681,33.7145,-3.5512,0.3120,112,0,0,-0.009696,0.001760,-0.311086,0.007077,0.079094,0.018143,1.4185,-2.7643,5.5032
11935,11.0,-0.007482,-0.000182,-0.310844,-0.006828,0.041321,0.012731,-3.3942,-1.2459,-0.0069,-0.00000881,-0.00001310,-0.00002105,-0.00515390,0.01010682,-0.01659746,-0.2413,0.7085,-9.8248,-0.089523,0.073369,-0.003764,26.8987,17.5681,33.7145,-3.5512,0.3140,112,0,0,-0.009800,0.001729,-0.310916,0.005790,0.076796,0.016812,1.3797,-2.7452,5.5522
11946,11.0,-0.007763,-0.000191,-0.310570,-0.009000,0.036977,0.016592,-3.4958,-1.1728,-0.0061,0.00009466,-0.00005856,-0.00002643,-0.00508964,0.01035098,-0.01759101,-0.1646,0.7429,-9.5802,-0.054541,0.068834,0.002220,27.6863,17.2154,34.1052,-3.5512,0.3140,117,0,0,-0.010315,0.002031,-0.312478,0.001115,0.079105,-0.000867,1.3675,-2.6644,5.6942
11957,11.0,-0.007876,-0.000158,-0.312009,-0.008542,0.033642,-0.000514,-3.5603,-1.1545,-0.0026,0.00018654,-0.00006273,-0.00002866,-0.00485766,0.00979375,-0.00536832,-0.1388,0.7451,-9.6036,-0.015437,0.024114,0.004341,27.6863,17.2154,34.1052,-3.5512,0.3140,113,0,0,-0.010566,0.001985,-0.312345,-0.000268,0.078444,0.003176,1.4056,-2.6402,5.7986
11968,11.0,-0.007845,-0.000076,-0.311917,-0.007417,0.030034,0.001612,-3.5848,-1.1795,0.0026,0.00025229,-0.00003348,-0.00002823,-0.00492429,0.00995402,-0.00610749,-0.2478,0.6227,-9.7020,0.023438,-0.013089,0.012529,27.6863,17.2154,34.1052,-3.5512,0.3120,113,0,0,-0.010733,0.002054,-0.311829,0.001083,0.078077,0.012122,1.4703,-2.6387,5.9300
11979,11.0,-0.007763,0.000017,-0.311904,-0.005738,0.026193,0.000803,-3.5943,-1.2176,0.0057,0.00030634,0.00000577,-0.00002712,-0.00497809,0.01006084,-0.00612467,-0.2492,0.5496,-9.8720,0.033887,-0.025877,0.008694,27.6863,17.2154,34.1052,-3.5512,0.3120,112,0,0,-0.010689,0.002150,-0.311606,0.002378,0.077345,0.014454,1.4967,-2.6584,5.9751
11990,11.0,-0.007710,0.000102,-0.311514,-0.004888,0.022795,0.003611,-3.5990,-1.2451,0.0050,0.00035247,0.00003462,-0.00002655,-0.00508291,0.01030697,-0.00901558,-0.2793,0.5554,-9.9617,0.032910,-0.018403,-0.004858,27.6863,17.2154,34.1052,-3.5512,0.3120,116,0,0,-0.010615,0.002250,-0.311463,0.004171,0.077144,0.014308,1.6059,-2.6839,5.7463
12001,11.0,-0.007676,0.000132,-0.311482,-0.003825,0.019439,0.002277,-3.6309,-1.2620,0.0045,0.00040572,0.00005633,-0.00002665,-0.00511090,0.01039132,-0.00903109,-0.2259,0.5802,-9.9216,-0.006501,-0.008392,-0.008856,27.6863,17.2154,34.1052,-3.5512,0.3140,114,0,0,-0.010500,0.002438,-0.312514,0.006377,0.076165,-0.002470,1.7238,-2.7449,5.8773
12012,11.0,-0.007554,0.000111,-0.311334,-0.001669,0.017015,0.004130,-3.6849,-1.2973,0.0063,0.00046494,0.00009715,-0.00002565,-0.00518732,0.01052718,-0.00994698,-0.2121,0.6821,-9.7583,-0.038335,-0.023364,-0.004863,27.6863,17.2154,34.1052,-3.5512,0.3140,112,0,0,-0.010448,0.002487,-0.312544,0.007495,0.075477,-0.003128,1.7266,-2.7563,5.9134
12023,11.0,-0.007313,0.000114,-0.312371,0.002965,0.016044,-0.007922,-3.7189,-1.3622,0.0043,0.00051797,0.00016103,-0.00002252,-0.00511315,0.01009776,-0.00213512,-0.0928,0.7702,-9.7243,-0.014201,-0.054436,0.002907,27.6863,17.2154,34.1052,-3.5512,0.3140,116,0,0,-0.010159,0.002542,-0.312461,0.011807,0.076291,0.000088,1.7659,-2.8254,6.0273
12034,11.0,-0.007055,0.000126,-0.312361,0.006832,0.016042,-0.005963,-3.7420,-1.4246,0.0013,0.00056353,0.00021813,-0.00001938,-0.00520333,0.01020007,-0.00282821,-0.1356,0.8414,-9.7027,-0.002359,-0.058197,0.014231,25.7079,16.5023,33.2548,-3.5512,0.3130,120,0,0,-0.009921,0.002596,-0.312369,0.015676,0.078334,0.002368,1.8362,-2.8907,6.1107
12045,11.0,-0.006801,0.000129,-0.312424,0.009371,0.015410,-0.005556,-3.7726,-1.4780,-0.0009,0.00061304,0.00026485,-0.00001685,-0.00526704,0.01024078,-0.00283714,-0.2182,0.7988,-9.7428,-0.012333,-0.053638,0.027906,25.7079,16.5023,33.2548,-3.5512,0.3130,116,0,0,-0.009670,0.002673,-0.312342,0.018772,0.080033,0.003826,1.8261,-2.9239,6.1331
12057,12.0,-0.007816,0.000147,-0.312276,-0.004242,0.014973,-0.002617,-3.8007,-1.3739,0.0037,0.00066041,-0.00004032,-0.00004135,-0.00492905,0.01039659,-0.00435557,-0.2193,0.8003,-9.7416,-0.010127,-0.039287,0.020847,25.7079,16.5023,33.2548,-3.4931,0.3130,127,-2,0,-0.009199,0.002796,-0.312121,0.022842,0.082891,0.007627,1.8779,-3.0152,6.2716
12068,11.0,-0.007638,0.000123,-0.312311,-0.001719,0.014255,-0.003677,-3.8434,-1.4216,-0.0029,0.00071609,0.00002216,-0.00003756,-0.00499610,0.01043792,-0.00436254,-0.2681,0.8256,-9.8748,-0.030185,-0.036471,0.020758,25.7079,16.5023,33.2548,-3.4931,0.3140,125,0,0,-0.009896,0.002750,-0.312042,0.013637,0.083350,0.008766,1.9410,-3.0267,6.4229
12080,12.0,-0.007508,0.000084,-0.312267,-0.000193,0.012896,-0.004920,-3.9041,-1.4526,-0.0016,0.00077706,0.00006522,-0.00003551,-0.00505489,0.01055042,-0.00509650,-0.2835,0.7918,-9.9866,-0.051832,-0.021803,0.022894,25.7079,16.5023,33.2548,-3.4931,0.3140,124,0,0,-0.009553,0.002796,-0.312822,0.016864,0.084973,-0.000904,1.9581,-3.0761,6.2829
12091,11.0,-0.007416,0.000078,-0.312797,0.000479,0.012060,-0.012872,-3.9317,-1.4741,-0.0004,0.00082346,0.00009316,-0.00003442,-0.00500392,0.01035030,-0.00193955,-0.3071,0.7905,-10.0138,-0.014638,-0.017823,0.009659,25.7079,16.5023,33.2548,-3.4931,0.3140,129,0,0,-0.009417,0.002814,-0.312843,0.017524,0.085046,-0.002260,1.9183,-3.0936,6.3397
12102,11.0,-0.007383,0.000084,-0.312876,0.001180,0.011940,-0.014510,-3.9488,-1.4813,0.0004,0.00086275,0.00010067,-0.00003480,-0.00502219,0.01042193,-0.00248639,-0.2280,0.8383,-10.0095,-0.003149,-0.007086,0.003794,25.7079,16.5023,33.2548,-3.4931,0.3120,127,0,0,-0.009310,0.002853,-0.312741,0.017765,0.086254,-0.002277,1.9782,-3.1300,6.4443
12113,11.0,-0.007470,0.000087,-0.313039,0.000440,0.011715,-0.015123,-3.9676,-1.4574,0.0034,0.00090392,0.00007000,-0.00003844,-0.00500415,0.01043462,-0.00249422,-0.2129,0.8202,-9.8335,-0.005376,0.020105,0.004231,25.7079,16.5023,33.2548,-3.4772,0.3120,127,0,0,-0.009256,0.002958,-0.311782,0.017647,0.088679,0.005320,2.0334,-3.1525,6.5994
12125,12.0,-0.007490,0.000117,-0.312015,0.000467,0.012100,-0.000981,-3.9743,-1.4523,0.0016,0.00093590,0.00006246,-0.00003992,-0.00518558,0.01108629,-0.01057886,-0.2251,0.8428,-9.7676,0.007605,0.003091,0.007260,25.7079,16.5023,33.2548,-3.4772,0.3120,130,0,0,-0.009321,0.003004,-0.311734,0.016508,0.089122,0.005392,2.0136,-3.1305,6.6548
12136,11.0,-0.007417,0.000163,-0.312025,0.001609,0.012238,-0.000896,-3.9671,-1.4715,-0.0022,0.00096526,0.00008227,-0.00003881,-0.00520462,0.01109091,-0.01058104,-0.2217,0.8058,-9.7788,0.028219,-0.020215,0.005014,25.7079,16.5023,33.2548,-3.4772,0.3140,130,0,0,-0.009352,0.003047,-0.311678,0.015832,0.090540,0.006314,2.0788,-3.1438,6.7678
12147,11.0,-0.007312,0.000191,-0.311943,0.002754,0.012246,-0.000130,-3.9710,-1.4954,-0.0026,0.00100059,0.00010939,-0.00003726,-0.00523964,0.01116984,-0.01122336,-0.2496,0.8185,-9.8181,0.013399,-0.024798,0.012808,25.7105,15.0541,34.1052,-3.4772,0.3140,120,0,0,-0.009206,0.003242,-0.312614,0.017004,0.092857,-0.002794,2.1555,-3.1863,6.9206
12158,11.0,-0.007251,0.000192,-0.312602,0.002991,0.011253,-0.008147,-3.9925,-1.5050,0.0003,0.00104735,0.00011915,-0.00003762,-0.00514149,0.01083279,-0.00690392,-0.2750,0.7531,-9.8221,-0.009003,-0.011231,0.014594,25.7105,15.0541,34.1052,-3.4772,0.3140,117,0,0,-0.009017,0.003400,-0.312563,0.017952,0.094284,-0.000719,2.2092,-3.2332,7.0826
12169,11.0,-0.007156,0.000152,-0.312623,0.003865,0.010232,-0.007838,-4.0347,-1.5197,-0.0005,0.00110115,0.00013889,-0.00003731,-0.00516703,0.01091173,-0.00739214,-0.2518,0.7886,-9.8341,-0.039322,-0.014745,0.016604,25.7105,15.0541,34.1052,-3.4772,0.3110,118,0,0,-0.008938,0.003454,-0.311200,0.017934,0.093839,0.014806,2.1899,-3.2412,7.1387
12180,11.0,-0.007096,0.000073,-0.312708,0.004078,0.009210,-0.007610,-4.0980,-1.5220,0.0017,0.00116644,0.00014447,-0.00003858,-0.00517070,0.01094123,-0.00739612,-0.2637,0.8230,-9.7600,-0.067791,-0.002296,0.018930,25.7105,15.0541,34.1052,-3.4772,0.3110,113,0,0,-0.008841,0.003469,-0.310976,0.018502,0.094250,0.016127,2.2264,-3.2726,7.2531
12191,11.0,-0.007011,0.000010,-0.311274,0.004248,0.007938,0.010821,-4.1483,-1.5308,0.0007,0.00121444,0.00015902,-0.00003868,-0.00542636,0.01182578,-0.01723934,-0.2942,0.7722,-9.7231,-0.056752,-0.009191,0.023530,25.7105,15.0541,34.1052,-3.3610,0.3110,117,0,0,-0.008682,0.003448,-0.310580,0.018597,0.093764,0.019251,2.2056,-3.2670,7.0166
12203,12.0,-0.006820,0.000016,-0.311142,0.005865,0.007087,0.011081,-4.1637,-1.5699,-0.0039,0.00124484,0.00020621,-0.00003537,-0.00545815,0.01184270,-0.01723688,-0.2725,0.7385,-9.7748,-0.008158,-0.038731,0.017764,25.7105,15.0541,34.1052,-3.3610,0.3140,116,0,0,-0.008567,0.003469,-0.312113,0.018826,0.092845,0.001444,2.1481,-3.2749,7.0946
12214,11.0,-0.006640,0.000066,-0.310973,0.007277,0.006976,0.011156,-4.1470,-1.6070,-0.0037,0.00125464,0.00024490,-0.00003226,-0.00549247,0.01187813,-0.01756514,-0.2708,0.7490,-9.8443,0.032215,-0.042439,0.007207,25.7105,15.0541,34.1052,-3.3610,0.3140,116,0,0,-0.008391,0.003531,-0.312095,0.020016,0.093308,0.002421,2.2027,-3.3224,7.2058
12225,11.0,-0.006608,0.000092,-0.310968,0.006785,0.006398,0.010031,-4.1443,-1.6074,0.0026,0.00127277,0.00022855,-0.00003422,-0.00546196,0.01182234,-0.01681353,-0.2732,0.7219,-9.7744,0.013404,-0.007233,-0.000250,25.7105,15.0541,34.1052,-3.3610,0.3120,114,0,0,-0.008092,0.003745,-0.311992,0.021479,0.094513,0.003568,2.2780,-3.3886,7.3699
12236,11.0,-0.006579,0.000127,-0.310811,0.006356,0.005148,0.012046,-4.1366,-1.6081,0.0019,0.00128332,0.00021252,-0.00003588,-0.00545786,0.01185117,-0.01706258,-0.2658,0.6300,-9.6623,0.017702,-0.007178,-0.005209,27.2911,16.4949,33.6915,-3.3610,0.3120,109,0,0,-0.008056,0.003830,-0.311480,0.020762,0.094251,0.009844,2.2732,-3.3866,7.4294
12247,11.0,-0.007038,0.000140,-0.310673,-0.000017,0.003939,0.012935,-4.1388,-1.5820,0.0120,0.00129639,0.00002717,-0.00005121,-0.00532632,0.01187311,-0.01707817,-0.2905,0.6452,-9.7218,0.003068,-0.033155,-0.004925,27.2911,16.4949,33.6915,-3.3610,0.3120,108,-1,0,-0.008396,0.003946,-0.311250,0.015096,0.092884,0.013959,2.3404,-3.3954,7.6149
12258,11.0,-0.006840,0.000113,-0.311338,0.002930,0.002819,0.004219,-4.1633,-1.6249,-0.0019,0.00132378,0.00009653,-0.00004657,-0.00522937,0.01146595,-0.01200702,-0.2158,0.6879,-9.7316,-0.026291,-0.040726,0.002930,27.2911,16.4949,33.6915,-3.3610,0.3130,109,0,0,-0.008676,0.003964,-0.311043,0.011509,0.092459,0.016135,2.3999,-3.4254,7.7363
12270,12.0,-0.006665,0.000054,-0.311285,0.004633,0.002590,0.004500,-4.2058,-1.6574,-0.0010,0.00135990,0.00014673,-0.00004361,-0.00526428,0.01147948,-0.01200322,-0.2773,0.7991,-9.7634,-0.047509,-0.030040,0.005933,27.2911,16.4949,33.6915,-3.4191,0.3130,112,0,0,-0.008481,0.004025,-0.311652,0.014173,0.092091,0.008916,2.3663,-3.4473,7.7837
12282,12.0,-0.006514,-0.000022,-0.311167,0.005654,0.002315,0.003745,-4.2574,-1.6801,0.0002,0.00140124,0.00018200,-0.00004202,-0.00529989,0.01154282,-0.01246986,-0.3019,0.8281,-9.9215,-0.058894,-0.022068,0.016295,27.2911,16.4949,33.6915,-3.4191,0.3130,108,0,0,-0.008155,0.004067,-0.311394,0.017241,0.093459,0.011584,2.3619,-3.4783,7.5500
12294,12.0,-0.006346,-0.000093,-0.311051,0.006686,0.001739,0.002594,-4.3060,-1.7054,-0.0001,0.00143973,0.00021952,-0.00004015,-0.00533314,0.01159555,-0.01297477,-0.3101,0.8047,-9.9630,-0.055838,-0.025531,0.019643,27.2911,16.4949,33.6915,-3.4191,0.3120,105,0,0,-0.008006,0.004066,-0.311282,0.018184,0.094446,0.011212,2.3825,-3.5157,7.6642
12305,11.0,-0.006195,-0.000108,-0.310976,0.006810,0.001990,0.001569,-4.3171,-1.7299,-0.0013,0.00145385,0.00025046,-0.00003803,-0.00535912,0.01163024,-0.01331922,-0.3779,0.8219,-9.9372,-0.010433,-0.028963,0.017565,27.2911,16.4949,33.6915,-3.4191,0.3120,114,0,0,-0.007698,0.004105,-0.311013,0.019465,0.095598,0.010556,2.3522,-3.5699,7.8541
12316,11.0,-0.006056,-0.000062,-0.310970,0.006808,0.002339,-0.000516,-4.2951,-1.7562,-0.0026,0.00144516,0.00027717,-0.00003552,-0.00536036,0.01162147,-0.01331756,-0.3805,0.7708,-9.9772,0.033522,-0.032811,0.009091,27.2911,16.4949,33.6915,-3.4191,0.3120,113,0,0,-0.007561,0.004176,-0.310845,0.019333,0.096013,0.010710,2.3200,-3.5896,7.9296
12327,11.0,-0.005968,0.000011,-0.311495,0.006637,0.003147,-0.007710,-4.2577,-1.7731,-0.0023,0.00142803,0.00028276,-0.00003437,-0.00526321,0.01136944,-0.01025375,-0.3406,0.7784,-9.9014,0.055413,-0.025103,0.009410,27.2911,16.4949,33.6915,-3.4191,0.3130,112,0,0,-0.007438,0.004277,-0.310744,0.019050,0.097230,0.009907,2.3897,-3.6302,8.0480
12338,11.0,-0.005938,0.000074,-0.311582,0.006271,0.003574,-0.007991,-4.2279,-1.7767,0.0001,0.00141760,0.00026580,-0.00003537,-0.00525722,0.01136096,-0.01025577,-0.2970,0.7513,-9.8136,0.045414,-0.011679,0.006536,27.6808,16.5098,34.4727,-3.3821,0.3130,115,0,0,-0.007276,0.004537,-0.311474,0.018511,0.099565,0.000597,2.4717,-3.6784,8.2439
12349,11.0,-0.006566,0.000100,-0.311614,-0.001536,0.003178,-0.007625,-4.2201,-1.7193,0.0187,0.00142218,-0.00000892,-0.00005819,-0.00515717,0.01139217,-0.01063216,-0.2839,0.7135,-9.8210,0.015753,-0.000267,0.007810,27.6808,16.5098,34.4727,-3.3821,0.3130,115,-1,0,-0.007246,0.004660,-0.311471,0.018032,0.099908,0.001221,2.4704,-3.6775,8.3162
12360,11.0,-0.006602,0.000092,-0.311324,-0.002177,0.001880,-0.004208,-4.2317,-1.7114,0.0024,0.00143647,-0.00001537,-0.00005937,-0.00522658,0.01158767,-0.01287554,-0.3425,0.6624,-9.8859,-0.012235,0.009767,0.006083,27.6808,16.5098,34.4727,-3.3821,0.3120,117,0,0,-0.007693,0.004757,-0.311368,0.012099,0.099022,0.002680,2.5121,-3.6724,8.5443
12371,11.0,-0.007319,0.000035,-0.311330,-0.010375,0.000390,-0.004364,-4.2686,-1.6377,0.0141,0.00146601,-0.00029379,-0.00008221,-0.00513045,0.01162134,-0.01316611,-0.3178,0.6819,-9.8579,-0.047321,0.027540,0.008020,27.6808,16.5098,34.4727,-3.3821,0.3120,122,-1,0,-0.008161,0.004723,-0.311156,0.006327,0.097807,0.004647,2.5495,-3.6669,8.6930
12382,11.0,-0.007473,-0.000008,-0.311382,-0.010742,-0.000226,-0.005020,-4.2947,-1.6116,0.0025,0.00148525,-0.00031017,-0.00008423,-0.00512422,0.01162780,-0.01316715,-0.2781,0.7395,-9.8522,-0.033930,0.035946,0.002407,27.6808,16.5098,34.4727,-3.3821,0.3120,125,0,0,-0.008671,0.004656,-0.311065,0.000767,0.095620,0.005345,2.4941,-3.6292,8.7961
12393,11.0,-0.007558,0.001175,-0.311163,-0.010334,0.013733,-0.001708,-4.2089,-1.6027,-0.0457,0.00099700,-0.00029798,-0.00006485,-0.00518541,0.01156356,-0.01477075,-0.2783,0.7703,-9.7791,-0.012396,0.017596,0.005663,27.6808,16.5098,34.4727,-3.3821,0.3120,123,0,1,-0.008909,0.004655,-0.310882,0.000857,0.095132,0.007220,2.4946,-3.5661,8.5544
12404,11.0,-0.007606,0.001198,-0.311181,-0.009270,0.012200,-0.001443,-4.2170,-1.6030,0.0033,0.00105038,-0.00027168,-0.00006470,-0.00520015,0.01158370,-0.01476706,-0.2488,0.7247,-9.7717,0.004271,0.006923,0.002356,27.6808,16.5098,34.4727,-3.3821,0.3120,122,0,0,-0.009051,0.005123,-0.310975,0.000511,0.100947,0.006530,2.5544,-3.5740,8.6595
12415,11.0,-0.007632,0.001234,-0.311097,-0.008093,0.010664,-0.000004,-4.2158,-1.6082,0.0021,0.00109058,-0.00024037,-0.00006371,-0.00523491,0.01164412,-0.01534688,-0.2500,0.6918,-9.7750,0.014846,0.000693,-0.001669,27.6808,16.5098,34.4727,-3.4931,0.3120,122,0,0,-0.009117,0.005247,-0.310729,0.002388,0.100562,0.009872,2.5729,-3.5804,8.8336
12426,11.0,-0.007609,0.001295,-0.309976,-0.007136,0.009532,0.013015,-4.1981,-1.6245,0.0010,0.00111287,-0.00019209,-0.00006094,-0.00548938,0.01214577,-0.02178617,-0.3126,0.6869,-9.8092,0.035296,-0.012104,-0.011817,27.6808,16.5098,34.4727,-3.4931,0.3100,123,0,0,-0.009125,0.005335,-0.310633,0.003426,0.100007,0.010914,2.5548,-3.5748,8.8909
12437,11.0,-0.007523,0.001344,-0.309758,-0.005067,0.008396,0.013850,-4.1856,-1.6534,0.0005,0.00113567,-0.00012221,-0.00005654,-0.00553339,0.01218754,-0.02222252,-0.2664,0.6831,-9.8120,0.027068,-0.025138,-0.014574,28.0787,16.5023,34.4958,-3.4931,0.3100,125,0,0,-0.009103,0.005439,-0.309585,0.004439,0.100536,0.022013,2.6278,-3.6047,8.9862
12448,11.0,-0.007414,0.001362,-0.309609,-0.003037,0.007492,0.013344,-4.1883,-1.6833,0.0010,0.00116790,-0.00005127,-0.00005237,-0.00556232,0.01219789,-0.02221663,-0.2769,0.7267,-9.8485,0.005627,-0.026621,-0.013247,28.0787,16.5023,34.4958,-3.4931,0.3100,118,0,0,-0.008948,0.005649,-0.309138,0.007965,0.101123,0.023212,2.6750,-3.6500,9.1285
12459,11.0,-0.007314,0.001348,-0.309714,-0.001097,0.006145,0.010529,-4.2081,-1.7072,0.0019,0.00120937,0.00000634,-0.00004951,-0.00553316,0.01210893,-0.02078154,-0.2547,0.7043,-9.7911,-0.019062,-0.020801,-0.015878,28.0787,16.5023,34.4958,-3.4931,0.3110,116,0,0,-0.008845,0.005735,-0.308787,0.009599,0.100955,0.025047,2.6438,-3.6585,9.1740
12470,11.0,-0.007207,0.001339,-0.309597,0.000646,0.005883,0.010806,-4.2215,-1.7310,0.0007,0.00124522,0.00005752,-0.00004676,-0.00555811,0.01211318,-0.02077745,-0.2603,0.7896,-9.7716,-0.010703,-0.022819,-0.015551,28.0787,16.5023,34.4958,-3.4931,0.3110,119,0,0,-0.008740,0.005793,-0.309420,0.011290,0.101126,0.016256,2.6748,-3.6920,9.2749
12481,11.0,-0.007023,0.001343,-0.309388,0.002755,0.006185,0.010580,-4.2268,-1.7707,-0.0009,0.00127521,0.00013620,-0.00004161,-0.00560556,0.01216418,-0.02133156,-0.2983,0.8405,-9.9196,0.000529,-0.040810,-0.015275,28.0787,16.5023,34.4958,-3.4931,0.3110,114,0,0,-0.008490,0.005930,-0.308992,0.014284,0.102650,0.019091,2.6960,-3.7005,8.9591
12492,11.0,-0.007509,0.000144,-0.309131,-0.003044,-0.006640,0.010085,-4.3311,-1.7481,0.0486,0.00185343,-0.00009521,-0.00007992,-0.00556709,0.01238745,-0.02218667,-0.3019,0.9200,-9.9954,-0.010078,-0.026091,-0.001698,28.0787,16.5023,34.4958,-3.4350,0.3100,112,-1,-1,-0.008682,0.005510,-0.308813,0.011646,0.097630,0.018648,2.6305,-3.7014,9.0331
12503,11.0,-0.007522,0.000101,-0.308970,-0.002640,-0.004529,0.009271,-4.3439,-1.7462,-0.0012,0.00184443,-0.00008657,-0.00007887,-0.00558059,0.01240961,-0.02251770,-0.2919,0.9341,-9.9245,-0.020762,0.004984,0.002591,28.0787,16.5023,34.4958,-3.4350,0.3100,112,0,0,-0.008841,0.005104,-0.308666,0.009591,0.096259,0.014880,2.5878,-3.7242,9.2179
12514,11.0,-0.008243,0.000060,-0.308866,-0.010467,-0.002486,0.009700,-4.3589,-1.6773,0.0301,0.00184644,-0.00040393,-0.00010765,-0.00548805,0.01239141,-0.02254049,-0.2915,0.9408,-9.7470,-0.020837,0.026413,0.005989,28.0787,16.5023,34.4958,-3.4350,0.3100,110,-1,0,-0.008861,0.005116,-0.308442,0.009308,0.098586,0.015987,2.6137,-3.7343,9.3336
12525,11.0,-0.008351,0.000038,-0.309374,-0.010420,-0.000731,0.003102,-4.3665,-1.6624,-0.0002,0.00184947,-0.00040123,-0.00010749,-0.00537680,0.01212488,-0.01916371,-0.2941,0.9172,-9.7305,-0.008614,0.022388,0.026003,28.0787,16.5023,34.4958,-3.4350,0.3110,112,0,0,-0.009379,0.005057,-0.308285,0.003186,0.098831,0.017242,2.5446,-3.6887,9.4309
12537,12.0,-0.008412,0.000050,-0.309339,-0.009760,-0.000313,0.002731,-4.3597,-1.6603,-0.0036,0.00184087,-0.00037136,-0.00010443,-0.00538394,0.01211769,-0.01916248,-0.2970,0.7776,-9.8259,0.010690,0.007034,0.033577,27.2911,17.2154,33.2778,-3.4350,0.3110,114,0,0,-0.009537,0.005121,-0.309142,0.002528,0.101255,0.008149,2.5157,-3.6706,9.6467
12548,11.0,-0.008487,0.000076,-0.309234,-0.009547,-0.000747,0.003042,-4.3475,-1.6542,-0.0024,0.00182450,-0.00035535,-0.00010244,-0.00540278,0.01214975,-0.01959169,-0.3073,0.6868,-9.8580,0.017872,0.011373,0.025080,27.2911,17.2154,33.2778,-3.4350,0.3110,106,0,0,-0.009577,0.005183,-0.309059,0.002863,0.102022,0.008888,2.5584,-3.6848,9.7784
12559,11.0,-0.008632,0.000116,-0.307983,-0.009968,-0.001575,0.017130,-4.3264,-1.6340,-0.0002,0.00179227,-0.00037316,-0.00010295,-0.00561295,0.01273260,-0.02611367,-0.2854,0.6216,-9.8166,0.026916,0.025751,0.013592,27.2911,17.2154,33.2778,-3.4350,0.3080,105,0,0,-0.009723,0.005334,-0.308780,0.002816,0.100999,0.010734,2.5800,-3.6759,9.9864
12570,11.0,-0.008741,0.000147,-0.307748,-0.009770,-0.002142,0.018337,-4.3096,-1.6223,-0.0015,0.00176582,-0.00037371,-0.00010211,-0.00562054,0.01274478,-0.02635108,-0.2645,0.6392,-9.7505,0.021938,0.018349,-0.002460,27.2911,17.2154,33.2778,-3.3821,0.3080,107,0,0,-0.009855,0.005410,-0.307636,0.002428,0.099874,0.022672,2.5681,-3.6466,10.0562
12581,11.0,-0.008749,0.000144,-0.307546,-0.008589,-0.003277,0.018352,-4.3118,-1.6294,-0.0018,0.00175077,-0.00032584,-0.00009801,-0.00563542,0.01276500,-0.02634708,-0.2796,0.6170,-9.8134,-0.005445,-0.000268,0.001271,27.2911,17.2154,33.2778,-3.3821,0.3080,106,0,0,-0.009956,0.005479,-0.307356,0.002476,0.099634,0.024651,2.6190,-3.6495,10.1667
12592,11.0,-0.008689,0.000132,-0.307125,-0.006487,-0.003603,0.020277,-4.3157,-1.6499,-0.0024,0.00173679,-0.00025227,-0.00009198,-0.00569701,0.01286052,-0.02752170,-0.2528,0.6962,-9.8713,-0.008169,-0.014805,-0.011267,27.2911,17.2154,33.2778,-3.3821,0.3080,105,0,0,-0.009940,0.005595,-0.306782,0.004924,0.098353,0.026688,2.6373,-3.6309,9.9293
12603,11.0,-0.008650,0.000105,-0.306907,-0.004804,-0.002774,0.019286,-4.3256,-1.6637,-0.0022,0.00173329,-0.00019964,-0.00008769,-0.00571639,0.01284842,-0.02751974,-0.2504,0.8240,-9.8916,-0.015117,-0.008782,-0.015059,27.2911,17.2154,33.2778,-3.3821,0.3110,112,0,0,-0.009878,0.005658,-0.308679,0.006440,0.098044,0.003631,2.5800,-3.6259,9.9855
12613,10.0,-0.008677,0.000058,-0.306659,-0.004211,-0.001466,0.020317,-4.3458,-1.6594,0.0001,0.00174675,-0.00019049,-0.00008735,-0.00572858,0.01287603,-0.02780955,-0.2513,0.9113,-9.7561,-0.030304,0.009821,-0.000959,27.2911,17.2154,33.2778,-3.3821,0.3110,112,0,0,-0.009829,0.005700,-0.308645,0.007586,0.099428,0.003689,2.6073,-3.6481,10.0793
12624,11.0,-0.008738,0.000045,-0.308346,-0.003975,0.000673,-0.000110,-4.3494,-1.6502,0.0004,0.00175418,-0.00020106,-0.00008837,-0.00540568,0.01204166,-0.01775912,-0.2454,0.9456,-9.6021,-0.001114,0.012107,0.008564,27.6890,16.8477,32.8869,-3.3610,0.3110,111,0,0,-0.009860,0.005740,-0.308494,0.007424,0.102096,0.007438,2.5567,-3.6377,10.2445
12636,12.0,-0.008107,0.000068,-0.308301,0.003877,0.002990,0.001759,-4.3343,-1.7044,-0.0307,0.00175397,0.00013539,-0.00005755,-0.00552873,0.01205784,-0.01794190,-0.2757,0.9379,-9.6633,0.023795,-0.010205,0.016183,27.6890,16.8477,32.8869,-3.3610,0.3080,105,1,0,-0.009894,0.005792,-0.307594,0.007146,0.103277,0.019310,2.5022,-3.6167,10.3025
12647,11.0,-0.008011,0.000101,-0.308283,0.004287,0.003859,0.001599,-4.3197,-1.7221,-0.0025,0.00175696,0.00016271,-0.00005510,-0.00553517,0.01204686,-0.01794136,-0.3170,0.8377,-9.8031,0.026463,-0.024004,0.028343,27.6890,16.8477,32.8869,-3.3610,0.3080,109,0,0,-0.009395,0.006054,-0.307168,0.012147,0.106975,0.023539,2.5075,-3.6515,10.4642
12658,11.0,-0.007958,0.000122,-0.309179,0.003873,0.003944,-0.009178,-4.3152,-1.7290,0.0003,0.00177110,0.00016578,-0.00005527,-0.00539131,0.01164746,-0.01325437,-0.3471,0.7841,-9.8025,0.013434,-0.011987,0.028553,27.6890,16.8477,32.8869,-3.3610,0.3110,122,0,0,-0.009310,0.006157,-0.306871,0.012351,0.107971,0.025164,2.5514,-3.6815,10.5868
12669,11.0,-0.007950,0.000151,-0.309282,0.003339,0.003285,-0.009574,-4.3068,-1.7275,0.0018,0.00177647,0.00014872,-0.00005702,-0.00538281,0.01165443,-0.01325473,-0.3156,0.7040,-9.8301,0.017132,-0.002976,0.024809,27.6890,16.8477,32.8869,-3.3610,0.3110,122,0,0,-0.009257,0.006251,-0.308678,0.011985,0.107333,0.003375,2.4949,-3.6786,10.6783
12680,11.0,-0.007969,0.000183,-0.309343,0.002459,0.002612,-0.009577,-4.2958,-1.7215,0.0017,0.00177652,0.00012117,-0.00005938,-0.00538267,0.01167693,-0.01350909,-0.3267,0.6914,-9.8479,0.019507,0.002525,0.013059,27.6890,16.8477,32.8869,-3.3610,0.3110,120,0,0,-0.009250,0.006425,-0.308562,0.010970,0.105937,0.004956,2.5218,-3.6512,10.4432
12691,11.0,-0.007985,0.000215,-0.308112,0.001743,0.002101,0.004533,-4.2826,-1.7176,0.0011,0.00176931,0.00010127,-0.00006087,-0.00559333,0.01228019,-0.02029902,-0.3261,0.7033,-9.9363,0.020267,0.001575,0.000069,27.6890,16.8477,32.8869,-3.3610,0.3080,127,0,0,-0.009278,0.006514,-0.308515,0.010202,0.105510,0.005109,2.5659,-3.6606,10.5601
12702,11.0,-0.007974,0.000185,-0.308034,0.001837,0.001780,0.003401,-4.3033,-1.7159,0.0018,0.00179780,0.00009666,-0.00006224,-0.00559878,0.01230377,-0.02048882,-0.2859,0.7830,-9.9395,-0.024850,0.001415,0.002860,27.6890,16.8477,32.8869,-3.3610,0.3080,130,0,0,-0.009287,0.006653,-0.307472,0.009500,0.104831,0.013693,2.5592,-3.6606,10.7382
12713,11.0,-0.007996,0.000126,-0.307995,0.002060,0.001401,0.003652,-4.3397,-1.7047,0.0028,0.00184085,0.00007192,-0.00006559,-0.00560156,0.01230690,-0.02048908,-0.2300,0.7964,-9.7740,-0.046292,0.011526,0.013321,27.6890,16.8477,32.8869,-3.3081,0.3080,120,0,0,-0.009269,0.006682,-0.307315,0.009646,0.104289,0.013776,2.4848,-3.6440,10.8064
12724,11.0,-0.007997,0.000120,-0.308491,0.002723,0.001390,-0.001374,-4.3462,-1.7020,0.0012,0.00185375,0.00005670,-0.00006725,-0.00550478,0.01207755,-0.01778355,-0.2042,0.7679,-9.6805,-0.005011,0.000467,0.013365,28.8717,17.2154,33.6915,-3.3081,0.3100,126,0,0,-0.009275,0.006687,-0.307174,0.009835,0.104190,0.015189,2.4835,-3.6491,10.9259
12735,11.0,-0.007966,0.000164,-0.308506,0.003286,0.001120,-0.001246,-4.3256,-1.7087,-0.0007,0.00183635,0.00005507,-0.00006681,-0.00551296,0.01208037,-0.01778334,-0.2433,0.6968,-9.7896,0.030834,-0.011211,0.002699,28.8717,17.2154,33.6915,-3.3081,0.3100,126,0,0,-0.009268,0.006807,-0.308202,0.010424,0.103510,0.005552,2.4477,-3.6395,11.1114
12746,11.0,-0.007972,0.000180,-0.308492,0.003268,0.000953,-0.000967,-4.3196,-1.7052,0.0008,0.00183349,0.00003142,-0.00006862,-0.00551136,0.01209174,-0.01792776,-0.2535,0.7316,-9.8037,0.010907,0.000202,0.005216,28.8717,17.2154,33.6915,-3.3081,0.3100,120,0,0,-0.009683,0.006824,-0.308149,0.005739,0.101831,0.006469,2.4173,-3.6100,11.1915
12757,11.0,-0.008000,0.000176,-0.307131,0.003055,0.000552,0.015233,-4.3242,-1.6955,0.0010,0.00183834,-0.00000303,-0.00007143,-0.00572817,0.01265843,-0.02466267,-0.2464,0.7259,-9.7793,-0.004941,0.007527,0.003390,28.8717,17.2154,33.6915,-3.3081,0.3070,116,0,0,-0.009692,0.006895,-0.308048,0.006165,0.102041,0.007739,2.4510,-3.6220,11.2960
12768,11.0,-0.007940,0.000175,-0.306944,0.003623,0.000089,0.015156,-4.3276,-1.7047,-0.0003,0.00184103,0.00001015,-0.00007047,-0.00573500,0.01266792,-0.02476919,-0.2707,0.7176,-9.8361,-0.002865,-0.012433,0.005079,28.8717,17.2154,33.6915,-3.3081,0.3070,116,0,0,-0.009720,0.006998,-0.306660,0.006921,0.101137,0.021678,2.4258,-3.6110,11.4569
12779,11.0,-0.007827,0.000207,-0.306785,0.005198,0.000176,0.013787,-4.3114,-1.7273,-0.0017,0.00182358,0.00004651,-0.00006708,-0.00575416,0.01266382,-0.02476780,-0.2292,0.7367,-9.9306,0.024091,-0.028667,0.001580,28.8717,17.2154,33.6915,-3.3081,0.3070,112,0,0,-0.009662,0.007073,-0.306419,0.007809,0.100590,0.022421,2.3774,-3.6054,11.5141
12790,11.0,-0.007713,0.000258,-0.307344,0.006435,0.000567,0.003450,-4.2847,-1.7501,-0.0011,0.00179684,0.00007386,-0.00006427,-0.00565703,0.01238745,-0.02137730,-0.2501,0.7491,-10.0032,0.039034,-0.030258,-0.002134,28.8717,17.2154,33.6915,-3.3980,0.3090,118,0,0,-0.009569,0.007170,-0.306198,0.009510,0.101449,0.022366,2.4394,-3.6014,11.1364
12801,11.0,-0.007655,0.000293,-0.307320,0.006744,0.001572,0.001071,-4.2658,-1.7586,-0.0003,0.00178393,0.00006487,-0.00006454,-0.00565982,0.01237298,-0.02137872,-0.2673,0.8266,-10.0114,0.029501,-0.015791,0.006922,28.8717,17.2154,33.6915,-3.3980,0.3090,111,0,0,-0.009395,0.007402,-0.307150,0.011665,0.103059,0.006635,2.4480,-3.6275,11.2872
12812,11.0,-0.007650,0.000310,-0.307256,0.006304,0.002303,0.000135,-4.2586,-1.7541,0.0013,0.00178650,0.00002636,-0.00006768,-0.00566300,0.01239693,-0.02168196,-0.2786,0.8242,-9.9465,0.014294,-0.001771,0.016266,28.8717,17.2154,33.6915,-3.3980,0.3090,113,0,0,-0.009355,0.007503,-0.307096,0.011789,0.103518,0.005467,2.4069,-3.6179,11.3456
12823,11.0,-0.007670,0.000324,-0.307124,0.005361,0.002716,0.000295,-4.2546,-1.7440,0.0018,0.00179531,-0.00002297,-0.00007187,-0.00567501,0.01244001,-0.02234788,-0.3025,0.8032,-9.9283,0.010440,0.004790,0.018407,28.8717,17.2154,33.6915,-3.3980,0.3080,109,0,0,-0.009341,0.007582,-0.306969,0.011605,0.104601,0.005823,2.4395,-3.6299,11.4533
12834,11.0,-0.007749,-0.000820,-0.307078,0.004136,-0.010781,0.000174,-4.3207,-1.7243,0.0152,0.00244566,-0.00009873,-0.00009588,-0.00567331,0.01254326,-0.02257139,-0.2731,0.7273,-9.8650,0.026063,0.015046,0.012013,26.8906,16.5098,32.4047,-3.3980,0.3080,109,0,-1,-0.009397,0.007713,-0.306954,0.009768,0.104348,0.004810,2.4093,-3.6112,11.6408
12845,11.0,-0.007864,-0.000801,-0.307077,0.002375,-0.009080,0.000038,-4.2968,-1.6979,0.0010,0.00236993,-0.00018837,-0.00010086,-0.00566049,0.01252846,-0.02257645,-0.2951,0.7662,-9.8117,0.025878,0.023179,0.013078,26.8906,16.5098,32.4047,-3.3980,0.3080,106,0,0,-0.009378,0.007358,-0.306912,0.009708,0.098600,0.005068,2.3495,-3.5836,11.7184
12856,11.0,-0.008017,-0.000792,-0.308075,0.000874,-0.007657,-0.010965,-4.2808,-1.6644,0.0019,0.00231003,-0.00029260,-0.00010749,-0.00551111,0.01214776,-0.01785038,-0.2432,0.7608,-9.7383,0.016640,0.031661,0.016992,26.8906,16.5098,32.4047,-3.4561,0.3100,106,0,0,-0.009470,0.007426,-0.306861,0.008210,0.099248,0.005762,2.3882,-3.5779,11.8311
12867,11.0,-0.008130,-0.000775,-0.308193,-0.000834,-0.006416,-0.010362,-4.2621,-1.6410,0.0008,0.00225347,-0.00035990,-0.00011124,-0.00549382,0.01213508,-0.01785435,-0.3195,0.7484,-9.7401,0.021551,0.022627,0.016230,26.8906,16.5098,32.4047,-3.4561,0.3100,109,0,0,-0.009730,0.007531,-0.308223,0.004741,0.099375,-0.005903,2.3697,-3.5255,12.0241
12878,11.0,-0.008189,-0.001968,-0.308228,-0.001685,-0.019330,-0.010149,-4.3397,-1.6285,0.0182,0.00288424,-0.00038502,-0.00013222,-0.00550306,0.01227312,-0.01824345,-0.3162,0.7287,-9.8680,0.001597,0.012933,0.017879,26.8906,16.5098,32.4047,-3.4561,0.3100,105,0,-1,-0.009843,0.007592,-0.308196,0.003139,0.098893,-0.003436,2.3276,-3.4957,12.0999
12889,11.0,-0.008315,-0.002037,-0.307602,-0.003358,-0.017652,-0.001923,-4.3540,-1.5998,-0.0009,0.00280333,-0.00044145,-0.00013418,-0.00558580,0.01252785,-0.02168855,-0.3303,0.7621,-9.8301,-0.035221,0.033211,0.014695,26.8906,16.5098,32.4047,-3.4561,0.3080,105,0,0,-0.009871,0.007234,-0.308269,0.002567,0.093833,-0.002680,2.2920,-3.4425,11.8405
12900,11.0,-0.008488,-0.002091,-0.307554,-0.004846,-0.015765,0.000008,-4.3612,-1.5638,-0.0004,0.00272456,-0.00051842,-0.00013781,-0.00558018,0.01253666,-0.02199646,-0.2713,0.7770,-9.6919,-0.023401,0.041143,0.011689,26.8906,16.5098,32.4047,-3.4561,0.3080,107,0,0,-0.009984,0.007213,-0.307531,0.001025,0.093984,0.006303,2.2920,-3.4286,11.9538
12911,11.0,-0.008553,-0.002108,-0.307548,-0.004868,-0.012741,0.001147,-4.3493,-1.5546,-0.0024,0.00264156,-0.00052571,-0.00013579,-0.00557911,0.01250415,-0.02199957,-0.2598,0.8725,-9.6878,0.006101,0.012209,0.006973,26.8906,16.5098,32.4047,-3.4561,0.3080,107,0,0,-0.010230,0.007214,-0.307285,-0.001178,0.094136,0.011245,2.2307,-3.3800,12.1386
12922,11.0,-0.007942,-0.002102,-0.308280,0.002805,-0.010085,-0.006124,-4.3286,-1.6009,-0.0194,0.00256272,-0.00015221,-0.00010181,-0.00555639,0.01221053,-0.01852917,-0.2524,0.8424,-9.6562,0.020907,-0.003838,0.012667,26.8906,16.5098,32.4047,-3.4561,0.3100,116,1,0,-0.009845,0.007359,-0.307170,0.003562,0.096135,0.013298,2.1742,-3.3787,12.1864
12933,11.0,-0.007930,-0.000925,-0.308343,0.002650,0.005005,-0.005351,-4.2421,-1.6003,-0.0179,0.00183154,-0.00016471,-0.00008105,-0.00555158,0.01202291,-0.01854776,-0.2727,0.7965,-9.7236,0.002767,-0.002439,0.018307,27.2884,17.2228,34.0821,-3.5089,0.3100,116,0,1,-0.009942,0.007866,-0.308365,0.002374,0.102595,0.001466,2.2169,-3.3882,12.2910
12945,12.0,-0.007878,-0.000909,-0.308297,0.002499,0.003944,-0.003086,-4.2453,-1.6076,0.0002,0.00185493,-0.00015171,-0.00008070,-0.00557055,0.01206939,-0.01903622,-0.3108,0.6817,-9.7166,0.001623,-0.010058,0.018805,27.2884,17.2228,34.0821,-3.5089,0.3100,118,0,0,-0.010011,0.008445,-0.308212,0.001609,0.106362,0.005813,2.1950,-3.3888,12.4693
12956,11.0,-0.007808,-0.000894,-0.308161,0.002953,0.002862,0.000365,-4.2446,-1.6194,-0.0000,0.00186721,-0.00012725,-0.00007922,-0.00560022,0.01214675,-0.01975851,-0.2791,0.6532,-9.6599,0.005564,-0.015591,0.015902,27.2884,17.2228,34.0821,-3.5089,0.3090,113,0,0,-0.009974,0.008526,-0.308143,0.001993,0.104449,0.007524,2.1417,-3.3855,12.5468
12967,11.0,-0.007726,-0.000866,-0.308070,0.003705,0.002320,0.002780,-4.2352,-1.6351,-0.0005,0.00186765,-0.00009912,-0.00007707,-0.00562035,0.01217721,-0.02012571,-0.2611,0.6800,-9.6703,0.017050,-0.020217,0.003649,27.2884,17.2228,34.0821,-3.5089,0.3090,122,0,0,-0.009855,0.008709,-0.307955,0.003937,0.101959,0.012002,2.1152,-3.4026,12.7223
12978,11.0,-0.007628,-0.000835,-0.308038,0.004219,0.001580,0.003072,-4.2236,-1.6532,-0.0001,0.00186092,-0.00006607,-0.00007450,-0.00562710,0.01218744,-0.02012408,-0.2970,0.6566,-9.7783,0.019166,-0.023278,0.008807,27.2884,17.2228,34.0821,-3.5089,0.3090,122,0,0,-0.009786,0.008807,-0.307705,0.004927,0.101509,0.015564,2.1417,-3.4256,12.8218
12990,12.0,-0.007463,-0.000839,-0.308507,0.005837,0.000657,-0.003444,-4.2316,-1.6828,0.0003,0.00187176,-0.00000203,-0.00007021,-0.00557065,0.01201168,-0.01789873,-0.2608,0.6792,-9.8645,-0.007351,-0.033363,0.015314,27.2884,17.2228,34.0821,-3.5089,0.3100,120,0,0,-0.009706,0.008913,-0.307552,0.005841,0.100368,0.016690,2.1243,-3.3994,12.4467
13001,11.0,-0.007344,-0.000862,-0.308550,0.006578,-0.000627,-0.004387,-4.2484,-1.6994,0.0008,0.00188523,0.00002954,-0.00006847,-0.00557943,0.01202921,-0.01789656,-0.2849,0.6508,-9.8895,-0.021904,-0.021760,0.015843,27.2884,17.2228,34.0821,-3.5089,0.3100,122,0,0,-0.009430,0.009073,-0.308437,0.008884,0.098638,0.005198,2.0689,-3.4357,12.6183
13012,11.0,-0.007234,-0.000860,-0.308472,0.007111,-0.001373,-0.005062,-4.2492,-1.7155,0.0002,0.00187686,0.00005073,-0.00006679,-0.00560442,0.01207529,-0.01852686,-0.2916,0.6718,-10.0144,-0.000531,-0.022451,0.009770,27.2884,17.2228,34.0821,-3.6041,0.3100,121,0,0,-0.009315,0.009133,-0.308388,0.009832,0.097842,0.005139,2.0711,-3.4590,12.7217
13023,11.0,-0.007203,-0.000884,-0.308793,0.005957,-0.001941,-0.009924,-4.2631,-1.7134,0.0001,0.00188036,0.00002586,-0.00006871,-0.00555262,0.01199656,-0.01740850,-0.3647,0.7067,-9.9717,-0.019390,-0.001546,0.007105,27.2884,17.2228,34.0821,-3.6041,0.3100,120,0,0,-0.009135,0.009277,-0.308794,0.010226,0.096121,-0.002569,2.0259,-3.4753,12.8903
13034,11.0,-0.007252,-0.000902,-0.308800,0.004281,-0.002271,-0.009237,-4.2724,-1.6963,-0.0014,0.00187708,-0.00003930,-0.00007295,-0.00555817,0.01203035,-0.01789076,-0.3384,0.7089,-9.8506,-0.013185,0.014495,0.008669,28.4739,17.2228,34.4958,-3.6041,0.3100,114,0,0,-0.009115,0.009314,-0.308715,0.009195,0.094907,-0.002025,1.9607,-3.4626,12.9634
13045,11.0,-0.007293,0.000289,-0.308903,0.002796,0.011059,-0.009485,-4.1959,-1.6832,-0.0298,0.00116449,-0.00009092,-0.00005140,-0.00553740,0.01192009,-0.01789991,-0.3442,0.7102,-9.8194,-0.007141,0.011713,0.001401,28.4739,17.2228,34.4958,-3.6041,0.3100,116,0,1,-0.009149,0.009342,-0.308736,0.007766,0.094397,-0.001718,1.9659,-3.4584,13.0703
13056,11.0,-0.007303,0.000315,-0.308943,0.002458,0.009950,-0.008865,-4.1972,-1.6794,0.0017,0.00122107,-0.00011508,-0.00005498,-0.00554374,0.01194837,-0.01818241,-0.2823,0.7279,-9.8101,0.009496,0.001438,0.001596,28.4739,17.2228,34.4958,-3.6041,0.3100,112,0,0,-0.009417,0.010297,-0.308973,0.003350,0.102395,-0.002421,1.9576,-3.4353,13.2287
13067,11.0,-0.007329,0.000345,-0.309041,0.002241,0.009227,-0.008880,-4.1939,-1.6732,0.0008,0.00126846,-0.00014765,-0.00005869,-0.00554330,0.01195152,-0.01818292,-0.2563,0.7461,-9.7990,0.015067,0.003774,-0.001301,28.4739,17.2228,34.4958,-3.6041,0.3100,118,0,0,-0.009432,0.010370,-0.308998,0.003150,0.101030,-0.001704,1.9062,-3.4179,13.2958
13078,11.0,-0.007422,0.000369,-0.309002,0.000808,0.008426,-0.007536,-4.1934,-1.6533,0.0006,0.00131481,-0.00021594,-0.00006493,-0.00555495,0.01199962,-0.01879735,-0.3041,0.7382,-9.8248,0.010319,0.019587,-0.006397,28.4739,17.2228,34.4958,-3.6041,0.3100,116,0,0,-0.009458,0.010439,-0.308873,0.003026,0.100694,0.000728,1.9255,-3.4212,13.3960
13089,11.0,-0.007527,0.000367,-0.309062,-0.000128,0.007245,-0.007454,-4.2065,-1.6299,0.0005,0.00137020,-0.00028455,-0.00007138,-0.00555214,0.01201539,-0.01890419,-0.2554,0.7190,-9.8188,-0.009474,0.024470,-0.000533,28.4739,17.2228,34.4958,-3.5089,0.3100,116,0,0,-0.009632,0.010535,-0.308855,0.001204,0.098883,0.001862,1.9104,-3.3534,13.0724
13100,11.0,-0.007550,0.000357,-0.309064,-0.000248,0.006897,-0.006297,-4.2210,-1.6242,0.0015,0.00142549,-0.00029748,-0.00007406,-0.00556301,0.01204745,-0.01925334,-0.2722,0.7935,-9.7752,-0.011828,0.006612,-0.002905,28.4739,17.2228,34.4958,-3.5089,0.3100,116,0,0,-0.009723,0.010564,-0.309079,0.000616,0.097362,-0.000010,1.8464,-3.3188,13.1386
13111,11.0,-0.007580,0.000358,-0.309130,0.000090,0.006618,-0.005714,-4.2299,-1.6173,0.0005,0.00147271,-0.00031662,-0.00007670,-0.00556817,0.01204660,-0.01925373,-0.2190,0.7851,-9.7436,-0.003947,0.006587,0.005640,28.4739,17.2228,34.4958,-3.5089,0.3100,114,0,0,-0.009756,0.010595,-0.309076,0.000431,0.097120,0.000985,1.8483,-3.3177,13.2350
13122,11.0,-0.007469,0.000386,-0.309594,0.001375,0.007170,-0.012009,-4.2221,-1.6418,-0.0000,0.00150243,-0.00025136,-0.00007264,-0.00551831,0.01193844,-0.01758847,-0.2829,0.8491,-9.9491,0.019220,-0.027377,0.001832,28.4739,17.2228,34.4958,-3.5089,0.3110,108,0,0,-0.009763,0.010715,-0.308919,0.001454,0.096923,0.003885,1.8035,-3.3080,13.3928
13133,11.0,-0.007388,0.000382,-0.309735,0.001848,0.007383,-0.013707,-4.2329,-1.6554,0.0004,0.00155642,-0.00021117,-0.00007110,-0.00551937,0.01192976,-0.01758859,-0.3166,0.8553,-9.9419,-0.005110,-0.016376,0.023223,26.4981,16.5023,34.4958,-3.5089,0.3110,112,0,0,-0.009672,0.010816,-0.309770,0.002524,0.097217,-0.006149,1.7489,-3.3105,13.4517
13144,11.0,-0.007362,0.000393,-0.309792,0.001428,0.006351,-0.014071,-4.2388,-1.6580,0.0011,0.00159803,-0.00020573,-0.00007202,-0.00553543,0.01196624,-0.01803472,-0.3402,0.7239,-9.9417,0.000259,-0.004851,0.019954,26.4981,16.5023,34.4958,-3.5089,0.3110,105,0,0,-0.009536,0.010955,-0.309819,0.002898,0.097187,-0.006452,1.6950,-3.3283,13.6356
13156,12.0,-0.007417,0.000440,-0.309447,0.000223,0.005875,-0.007631,-4.2243,-1.6463,0.0013,0.00161446,-0.00024608,-0.00007576,-0.00559796,0.01212564,-0.02016949,-0.3238,0.7198,-9.7535,0.025746,0.009244,0.010734,26.4981,16.5023,34.4958,-3.4878,0.3100,107,0,0,-0.009522,0.011017,-0.309766,0.002453,0.096483,-0.005487,1.7037,-3.3359,13.7441
13167,11.0,-0.007496,0.000499,-0.309450,-0.000427,0.005645,-0.005427,-4.2011,-1.6330,0.0005,0.00161770,-0.00029580,-0.00007962,-0.00560199,0.01214992,-0.02048689,-0.2576,0.7104,-9.6815,0.039165,0.011538,0.004719,26.4981,16.5023,34.4958,-3.4878,0.3100,103,0,0,-0.009646,0.011171,-0.309550,0.000474,0.094760,0.000200,1.6927,-3.3154,13.9261
13178,11.0,-0.007544,0.000520,-0.309500,-0.000580,0.004588,-0.003577,-4.1988,-1.6238,0.0005,0.00163932,-0.00032316,-0.00008228,-0.00560315,0.01216468,-0.02048622,-0.2479,0.6606,-9.6376,0.009162,0.008793,0.007442,26.4981,16.5023,34.4958,-3.4878,0.3100,107,0,0,-0.009725,0.011249,-0.309447,-0.000108,0.093621,0.003205,1.6592,-3.2898,13.9952
13189,11.0,-0.007570,0.000525,-0.309751,-0.000516,0.003489,-0.003960,-4.2039,-1.6185,0.0004,0.00166420,-0.00033599,-0.00008395,-0.00556834,0.01209928,-0.01955785,-0.2502,0.6580,-9.6039,-0.001933,0.005579,0.005648,26.4981,16.5023,34.4958,-3.4878,0.3110,107,0,0,-0.009776,0.011305,-0.309406,-0.000058,0.092852,0.005599,1.6958,-3.2616,13.6252
13200,11.0,-0.007563,0.000568,-0.309792,-0.000407,0.002350,-0.003408,-4.1876,-1.6228,0.0004,0.00165574,-0.00032831,-0.00008331,-0.00556861,0.01211939,-0.01955623,-0.2844,0.6119,-9.7577,0.025768,-0.005348,-0.005735,26.4981,16.5023,34.4958,-3.4878,0.3110,112,0,0,-0.009837,0.011416,-0.309867,0.000008,0.090412,0.004356,1.6565,-3.2417,13.7917
13211,11.0,-0.007557,0.000610,-0.309743,-0.000188,0.001604,-0.003809,-4.1703,-1.6270,-0.0001,0.00164314,-0.00032234,-0.00008254,-0.00558325,0.01214685,-0.01995842,-0.2775,0.6494,-9.9456,0.026594,-0.005389,-0.009967,26.4981,16.5023,34.4958,-3.4878,0.3110,103,0,0,-0.009842,0.011506,-0.309823,0.000203,0.089136,0.005403,1.6269,-3.2315,13.8532
13223,12.0,-0.007638,0.000627,-0.309940,-0.001183,0.001575,-0.006942,-4.1641,-1.6114,-0.0009,0.00164469,-0.00036872,-0.00008567,-0.00555322,0.01210187,-0.01938038,-0.2978,0.7339,-9.9235,0.010447,0.016068,-0.014481,26.8933,16.1421,32.8412,-3.4878,0.3110,110,0,0,-0.009903,0.011647,-0.310029,-0.000158,0.088268,0.001423,1.6093,-3.2177,13.9963
13234,11.0,-0.007770,0.000595,-0.309941,-0.001698,0.001744,-0.005698,-4.1830,-1.5837,-0.0007,0.00167657,-0.00044240,-0.00009161,-0.00555147,0.01212895,-0.01969067,-0.2015,0.7913,-9.7639,-0.022862,0.030901,-0.005858,26.8933,16.1421,32.8412,-3.4878,0.3110,109,0,0,-0.009992,0.011667,-0.309927,-0.001247,0.088549,0.002622,1.6162,-3.2060,14.0849
13245,11.0,-0.007861,0.000584,-0.309991,-0.002001,0.002108,-0.003425,-4.1911,-1.5653,-0.0006,0.00169761,-0.00048822,-0.00009528,-0.00554939,0.01212378,-0.01969168,-0.2210,0.7802,-9.5902,-0.007211,0.020128,0.008105,26.8933,16.1421,32.8412,-3.4878,0.3110,119,0,0,-0.010101,0.011666,-0.309901,-0.001940,0.088003,0.003725,1.5464,-3.1667,14.1443
13256,11.0,-0.007851,0.000595,-0.310524,-0.001239,0.002544,-0.006505,-4.1881,-1.5692,0.0000,0.00170684,-0.00047118,-0.00009426,-0.00548847,0.01198130,-0.01762901,-0.2274,0.7658,-9.5393,0.008288,-0.004279,0.009728,26.8933,16.1421,32.8412,-3.4878,0.3120,119,0,0,-0.010199,0.011674,-0.309854,-0.002505,0.088156,0.006343,1.5469,-3.1532,14.2410
