timestamp_ms,dt_ms,pos_x,pos_y,pos_z,vel_x,vel_y,vel_z,roll_deg,pitch_deg,yaw_deg,gyro_bias_x,gyro_bias_y,gyro_bias_z,accel_bias_x,accel_bias_y,accel_bias_z,raw_accel_x,raw_accel_y,raw_accel_z,raw_gyro_x,raw_gyro_y,raw_gyro_z,raw_baro_alt,raw_tof,raw_flow_squal,raw_flow_dx,raw_flow_dy,dev_pos_x,dev_pos_y,dev_pos_z,dev_vel_x,dev_vel_y,dev_vel_z,dev_roll_deg,dev_pitch_deg,dev_yaw_deg
11023,10.0,0.000007,-0.000015,-0.032968,0.000462,-0.001285,0.073698,-0.0004,-0.0003,0.0007,0.00000000,0.00000000,-0.00184470,-0.00001364,-0.00008669,0.00000000,-0.1566,0.1526,-9.7277,-0.002055,-0.001463,-0.002257,36.4687,0.0330,88,1,0,0.000158,0.000221,-0.032411,-0.000184,0.002859,-0.008445,-0.9492,-0.8688,0.2740
11035,12.0,-0.000007,-0.000088,-0.031727,-0.001055,-0.003221,0.133046,-0.0028,-0.0003,0.0009,0.00000000,-0.00000000,-0.00184470,-0.00001232,-0.00008026,0.00000000,-0.1499,0.1733,-9.7293,-0.002773,-0.000891,-0.004440,36.4687,0.0330,95,3,1,0.000166,0.000205,-0.032492,-0.000255,0.002560,-0.007706,-0.9498,-0.8688,0.2739
11046,11.0,0.000005,-0.000091,-0.029067,-0.001427,-0.001108,0.204776,-0.0023,-0.0025,0.0005,-0.00000000,0.00000000,-0.00184470,-0.00001697,-0.00008414,-0.00002774,-0.1636,0.1642,-9.7313,-0.000983,-0.001629,-0.002837,36.4687,0.0310,93,0,0,0.000106,0.000120,-0.032585,-0.000696,0.002076,-0.005735,-0.9524,-0.8682,0.2740
11057,11.0,-0.000000,-0.000073,-0.030941,-0.001112,-0.000497,0.085703,-0.4722,-0.4562,0.0014,0.00000360,0.00000348,-0.00184470,-0.00002008,-0.00008940,0.00007476,-0.1633,0.1679,-9.7409,-0.002868,-0.000320,-0.003564,36.4687,0.0310,93,0,0,0.000113,0.000127,-0.031521,-0.000669,0.002049,0.006889,-0.9544,-0.8739,0.2740
11068,11.0,0.000010,-0.000046,-0.029937,-0.001483,0.001005,0.087941,-0.4716,-0.4589,0.0005,0.00000359,0.00000349,-0.00184470,-0.00002743,-0.00009655,0.00005419,-0.1579,0.1768,-9.7532,-0.001261,-0.002716,-0.001708,36.4687,0.0310,81,-1,0,0.000126,0.000167,-0.031368,-0.000691,0.002075,0.008419,-0.9612,-0.8782,0.2735
11079,11.0,0.000036,-0.000003,-0.028966,-0.000751,0.001421,0.088671,-0.6487,-0.6209,0.0018,0.00000629,0.00000591,-0.00184470,-0.00003966,-0.00010781,0.00005421,-0.1606,0.1843,-9.7302,-0.004032,-0.002243,-0.000136,36.4687,0.0320,89,-1,-1,0.000133,0.000197,-0.031239,-0.000738,0.002293,0.009565,-0.9601,-0.8776,0.2733
11090,11.0,0.000072,0.000001,-0.031276,-0.000674,0.001946,0.029775,-0.6560,-0.6295,0.0020,0.00000629,0.00000592,-0.00184470,-0.00005239,-0.00010756,0.00201733,-0.1637,0.1887,-9.7114,-0.003170,-0.001770,-0.000552,36.4687,0.0320,91,0,-1,0.000164,0.000230,-0.031667,-0.000542,0.002396,0.004564,-0.9669,-0.8839,0.1861
11101,11.0,0.000101,0.000043,-0.030944,-0.000195,0.002144,0.030579,-0.7573,-0.7140,0.0030,0.00000895,0.00000809,-0.00184469,-0.00006487,-0.00011977,0.00201715,-0.1752,0.1796,-9.7288,-0.004902,-0.001027,-0.003950,36.4687,0.0320,94,-1,-1,0.000227,0.000245,-0.031531,-0.000436,0.002450,0.006528,-0.9706,-0.8898,0.1873
11112,11.0,0.000111,0.000049,-0.030589,-0.000506,0.002506,0.031668,-0.7613,-0.7158,0.0031,0.00000897,0.00000810,-0.00184469,-0.00007207,-0.00010930,0.00199370,-0.1580,0.1795,-9.7321,-0.004225,-0.000266,-0.001807,36.5268,0.0310,87,0,0,0.000260,0.000277,-0.031461,-0.000480,0.002568,0.007309,-0.9711,-0.8903,0.1863
11123,11.0,0.000114,0.000062,-0.030771,-0.000389,0.002334,0.025147,-0.8227,-0.7668,0.0034,0.00001135,0.00001012,-0.00184469,-0.00006488,-0.00011473,0.00302636,-0.1626,0.1737,-9.7267,-0.003448,-0.003318,-0.004178,36.5268,0.0310,80,0,0,0.000274,0.000292,-0.031028,-0.000489,0.002292,0.011679,-0.9733,-0.8938,0.1866
11134,11.0,0.000123,0.000068,-0.030482,-0.000565,0.002554,0.026072,-0.8265,-0.7692,0.0043,0.00001137,0.00001013,-0.00184473,-0.00007391,-0.00010172,0.00300389,-0.1416,0.1817,-9.7300,-0.002497,-0.004544,-0.002733,36.5268,0.0310,90,0,0,0.000280,0.000299,-0.030900,-0.000475,0.002254,0.012557,-0.9773,-0.8999,0.1864
11145,11.0,0.000074,0.000080,-0.030191,-0.000936,0.002410,0.026907,-0.8625,-0.7913,0.0046,0.00001340,0.00001152,-0.00184474,-0.00004300,-0.00009752,0.00300337,-0.1630,0.1708,-9.7230,-0.003050,-0.001391,-0.000811,36.5268,0.0320,84,0,2,0.000287,0.000306,-0.030770,-0.000373,0.002322,0.013334,-0.9774,-0.9012,0.1864
11156,11.0,0.000082,0.000088,-0.031204,-0.000981,0.002467,0.011835,-0.8694,-0.7976,0.0041,0.00001338,0.00001151,-0.00184474,-0.00000506,-0.00013790,0.00825892,-0.1626,0.1596,-9.7401,-0.003113,-0.001969,-0.003773,36.5268,0.0320,91,0,0,0.000251,0.000320,-0.031401,-0.000467,0.002319,0.005507,-0.9799,-0.9038,0.1877
11167,11.0,0.000088,0.000099,-0.031069,-0.000860,0.002346,0.012592,-0.8892,-0.8165,0.0040,0.00001485,0.00001295,-0.00184474,-0.00001151,-0.00013125,0.00825864,-0.1627,0.1685,-9.7269,-0.002984,0.000796,-0.002456,36.5268,0.0320,89,0,0,0.000258,0.000327,-0.031342,-0.000448,0.002260,0.006158,-0.9794,-0.9072,0.1873
11178,11.0,0.000097,0.000106,-0.030918,-0.000975,0.002404,0.013490,-0.8924,-0.8184,0.0039,0.00001488,0.00001298,-0.00184474,-0.00002743,-0.00011567,0.00820634,-0.1635,0.1795,-9.7177,-0.003476,-0.001675,-0.000948,36.5268,0.0320,89,0,0,0.000266,0.000335,-0.031267,-0.000519,0.002204,0.006991,-0.9806,-0.9066,0.1870
11189,11.0,0.000102,0.000090,-0.031480,-0.000844,0.002081,0.005921,-0.9099,-0.8341,0.0041,0.00001616,0.00001438,-0.00184474,0.00001800,-0.00014216,0.01276576,-0.1433,0.1685,-9.7321,-0.002290,-0.001165,-0.002104,36.5268,0.0320,85,1,0,0.000281,0.000351,-0.031652,-0.000570,0.002106,0.003066,-0.9868,-0.9070,0.3870
11201,12.0,0.000082,0.000100,-0.031398,-0.001040,0.002174,0.006792,-0.9130,-0.8340,0.0038,0.00001620,0.00001436,-0.00184475,0.00002487,-0.00012712,0.01271615,-0.1426,0.1719,-9.7372,-0.003704,-0.000712,-0.004264,36.5268,0.0320,93,0,1,0.000288,0.000334,-0.031610,-0.000515,0.001985,0.003799,-0.9889,-0.9049,0.3863
11212,11.0,0.000089,0.000110,-0.031319,-0.000927,0.002102,0.007546,-0.9284,-0.8408,0.0035,0.00001814,0.00001511,-0.00184474,0.00001165,-0.00012484,0.01271588,-0.1538,0.1905,-9.7163,-0.001137,-0.001745,-0.002131,36.5268,0.0330,89,0,0,0.000270,0.000341,-0.031569,-0.000471,0.002054,0.004401,-0.9901,-0.9035,0.3850
11223,11.0,0.000097,0.000118,-0.032226,-0.000858,0.002223,-0.003331,-0.9330,-0.8449,0.0032,0.00001814,0.00001512,-0.00184474,0.00010016,-0.00022298,0.02106886,-0.1640,0.1996,-9.7186,-0.001308,-0.003288,-0.001210,36.5268,0.0330,95,0,0,0.000286,0.000357,-0.032452,-0.000481,0.001998,-0.004315,-0.9952,-0.9026,0.3845
11234,11.0,0.000160,0.000156,-0.032259,-0.000406,0.002337,-0.002678,-0.9457,-0.8543,0.0026,0.00002028,0.00001606,-0.00184472,0.00003290,-0.00024930,0.02106863,-0.1483,0.1638,-9.7346,-0.004831,-0.002037,0.000968,36.5268,0.0330,83,-1,-2,0.000293,0.000365,-0.032492,-0.000477,0.001999,-0.003589,-0.9986,-0.9056,0.3852
11245,11.0,0.000223,0.000164,-0.032277,-0.000131,0.002420,-0.001887,-0.9504,-0.8576,0.1295,0.00002036,0.00001631,-0.00185012,-0.00004068,-0.00023113,0.02098805,-0.1573,0.1763,-9.7238,-0.003944,-0.000632,0.000001,36.5268,0.0320,90,0,-2,0.000407,0.000406,-0.032208,-0.000076,0.001993,0.001461,-0.9968,-0.9105,0.3841
11256,11.0,0.000230,0.000173,-0.032126,-0.000099,0.002344,0.000769,-0.9597,-0.8636,0.1305,0.00002186,0.00001735,-0.00185012,-0.00006554,-0.00019801,0.01936498,-0.1543,0.1639,-9.7267,-0.004655,-0.003028,-0.001871,36.4343,0.0320,93,0,0,0.000415,0.000413,-0.032155,-0.000056,0.002010,0.002587,-0.9978,-0.9102,0.3849
11267,11.0,0.000212,0.000155,-0.032080,-0.000304,0.002125,0.001836,-0.9644,-0.8639,0.1316,0.00002206,0.00001728,-0.00185014,-0.00005205,-0.00014367,0.01902189,-0.1649,0.1690,-9.7276,-0.000073,-0.002130,-0.003092,36.4343,0.0320,85,1,1,0.000405,0.000426,-0.032089,-0.000212,0.002228,0.003961,-0.9978,-0.9100,0.3840
11278,11.0,0.000191,0.000163,-0.032056,-0.000434,0.002056,0.002545,-0.9680,-0.8688,0.1320,0.00002243,0.00001850,-0.00185015,-0.00002300,-0.00012930,0.01902144,-0.1579,0.1625,-9.7168,-0.002148,-0.001939,-0.003100,36.4343,0.0340,94,0,1,0.000387,0.000408,-0.033193,-0.000287,0.002113,-0.008228,-0.9994,-0.9097,0.3839
11290,12.0,0.000170,0.000174,-0.033099,-0.000611,0.001983,-0.009495,-0.9716,-0.8707,0.1322,0.00002252,0.00001841,-0.00185016,0.00014966,-0.00028346,0.02995762,-0.1508,0.1764,-9.7171,-0.001774,-0.003268,0.000224,36.4343,0.0340,94,0,1,0.000368,0.000415,-0.033272,-0.000359,0.002034,-0.007592,-0.9990,-0.9098,0.3479
11301,11.0,0.000206,0.000212,-0.033201,-0.000382,0.002098,-0.008896,-0.9739,-0.8772,0.1314,0.00002317,0.00001961,-0.00185014,0.00010565,-0.00030772,0.02995748,-0.1525,0.1795,-9.7297,-0.002285,-0.000412,-0.003847,36.4343,0.0340,88,-1,-1,0.000331,0.000430,-0.033361,-0.000475,0.002138,-0.005806,-0.9989,-0.9072,0.3499
11312,11.0,0.000215,0.000220,-0.033251,-0.000387,0.002116,-0.007733,-0.9761,-0.8791,0.1312,0.00002326,0.00001970,-0.00185014,0.00008297,-0.00028109,0.02949244,-0.1651,0.1830,-9.7200,-0.002014,-0.001937,-0.001915,36.4343,0.0330,88,0,0,0.000364,0.000464,-0.033160,-0.000346,0.002210,-0.002407,-0.9998,-0.9064,0.3484
11323,11.0,0.000223,0.000230,-0.033143,-0.000340,0.002082,-0.004846,-0.9839,-0.8820,0.1312,0.00002565,0.00002044,-0.00185014,0.00004483,-0.00025105,0.02756507,-0.1526,0.1937,-9.7165,-0.002817,0.001172,-0.001932,36.4343,0.0330,93,0,0,0.000379,0.000479,-0.033156,-0.000366,0.002314,-0.000704,-1.0037,-0.9074,0.3481
11334,11.0,0.000231,0.000237,-0.033176,-0.000307,0.002203,-0.004016,-0.9863,-0.8829,0.1308,0.00002577,0.00002053,-0.00185014,0.00002686,-0.00022762,0.02739212,-0.1435,0.1902,-9.7245,-0.002876,-0.000095,-0.002425,36.4924,0.0330,90,0,0,0.000387,0.000486,-0.033133,-0.000344,0.002471,0.000219,-1.0040,-0.9065,0.3483
11345,11.0,0.000239,0.000191,-0.033217,-0.000266,0.001850,-0.003363,-0.9972,-0.8862,0.1313,0.00002901,0.00002158,-0.00185016,0.00002014,-0.00015794,0.02739243,-0.1687,0.1788,-9.7198,-0.001163,-0.003135,-0.001076,36.4924,0.0340,93,2,0,0.000395,0.000494,-0.033128,-0.000284,0.002464,0.000802,-1.0071,-0.9045,0.3478
11356,11.0,0.000247,0.000199,-0.033648,-0.000235,0.001907,-0.007510,-0.9997,-0.8876,0.1495,0.00002915,0.00002170,-0.00185135,0.00006348,-0.00020854,0.03133372,-0.1492,0.1669,-9.7417,-0.001880,-0.003896,-0.003771,36.4924,0.0340,89,0,0,0.000411,0.000456,-0.033714,-0.000340,0.002293,-0.003965,-1.0102,-0.9065,0.3482
11367,11.0,0.000255,0.000236,-0.033728,-0.000195,0.002023,-0.007055,-1.0027,-0.8905,0.1490,0.00003034,0.00002242,-0.00185134,0.00005500,-0.00024064,0.03133309,-0.1624,0.1810,-9.7516,-0.002519,-0.000661,-0.001680,36.4924,0.0330,86,-1,0,0.000392,0.000464,-0.033752,-0.000373,0.002104,-0.003647,-1.0092,-0.9074,0.3478
11379,12.0,0.000263,0.000245,-0.033787,-0.000239,0.002023,-0.006292,-1.0044,-0.8930,0.1492,0.00003049,0.00002253,-0.00185134,0.00003633,-0.00021674,0.03111121,-0.1622,0.1835,-9.7270,0.000164,-0.003527,-0.000176,36.4924,0.0330,82,0,0,0.000406,0.000530,-0.033308,-0.000272,0.002315,0.002181,-1.0091,-0.9074,0.3477
11391,12.0,0.000271,0.000256,-0.033369,-0.000206,0.001995,-0.000024,-1.0088,-0.8962,0.1493,0.00003214,0.00002323,-0.00185134,-0.00004455,-0.00013148,0.02647270,-0.1531,0.1925,-9.7246,-0.003293,-0.002177,-0.001236,36.5849,0.0330,86,0,0,0.000414,0.000538,-0.033283,-0.000308,0.002234,0.002710,-1.0099,-0.9081,0.4148
11402,11.0,0.000280,0.000292,-0.033377,-0.000220,0.002193,0.000336,-1.0101,-0.8981,0.1495,0.00003200,0.00002336,-0.00185132,-0.00005843,-0.00015104,0.02657306,-0.1608,0.1765,-9.7418,-0.006164,-0.001976,-0.001210,36.5849,0.0330,91,-1,0,0.000421,0.000545,-0.033269,-0.000258,0.002362,0.003085,-1.0107,-0.9082,0.4150
11413,11.0,0.000287,0.000329,-0.033371,-0.000191,0.002315,0.000880,-1.0151,-0.9014,0.1496,0.00003446,0.00002468,-0.00185130,-0.00006185,-0.00019269,0.02657204,-0.1650,0.1947,-9.7302,-0.003144,0.000678,-0.002243,36.5849,0.0330,94,-1,0,0.000437,0.000610,-0.033074,-0.000400,0.002744,0.005526,-1.0147,-0.9107,0.4134
11424,11.0,0.000296,0.000309,-0.033162,-0.000218,0.002214,0.003748,-1.0198,-0.9023,0.1498,0.00003500,0.00002480,-0.00185132,-0.00010585,-0.00009624,0.02478868,-0.1674,0.1810,-9.7234,-0.003462,0.000610,-0.003711,36.5849,0.0330,90,1,0,0.000444,0.000644,-0.033016,-0.000421,0.002844,0.006127,-1.0175,-0.9119,0.4129
11435,11.0,0.000304,0.000290,-0.033117,-0.000191,0.002004,0.004310,-1.0250,-0.9048,0.1499,0.00003597,0.00002629,-0.00185135,-0.00010805,-0.00003839,0.02478930,-0.1521,0.1566,-9.7294,-0.005090,-0.001248,-0.002866,36.5849,0.0330,88,1,0,0.000452,0.000626,-0.032951,-0.000567,0.002781,0.006767,-1.0183,-0.9119,0.4129
11446,11.0,0.000313,0.000298,-0.033080,-0.000198,0.002008,0.004747,-1.0279,-0.9057,0.1496,0.00003617,0.00002644,-0.00185135,-0.00012178,-0.00002033,0.02491345,-0.1562,0.1947,-9.7272,-0.002521,-0.002732,-0.000922,36.5849,0.0330,87,0,0,0.000443,0.000565,-0.032880,-0.000748,0.002549,0.007348,-1.0182,-0.9102,0.4105
11457,11.0,0.000321,0.000307,-0.033006,-0.000170,0.001957,0.005613,-1.0313,-0.9082,0.1491,0.00003667,0.00002765,-0.00185135,-0.00012905,-0.00000052,0.02474955,-0.1654,0.1790,-9.7140,-0.004315,-0.002123,-0.003656,36.5849,0.0330,87,0,0,0.000450,0.000572,-0.032816,-0.000718,0.002582,0.007809,-1.0214,-0.9110,0.4107
11468,11.0,0.000385,0.000371,-0.032951,0.000134,0.002256,0.006141,-1.0326,-0.9116,0.2134,0.00003604,0.00002866,-0.00185703,-0.00023213,-0.00007046,0.02484271,-0.1509,0.2091,-9.7205,-0.002269,-0.003320,-0.003604,36.5849,0.0330,89,-2,-2,0.000465,0.000587,-0.032648,-0.000698,0.002533,0.009061,-1.0213,-0.9134,0.4112
11479,11.0,0.000449,0.000408,-0.032879,0.000453,0.002388,0.006818,-1.0371,-0.9155,0.2126,0.00003905,0.00002947,-0.00185696,-0.00032465,-0.00011859,0.02484291,-0.1502,0.1827,-9.7202,-0.002818,-0.000953,0.002530,36.6087,0.0330,87,-1,-2,0.000523,0.000644,-0.032849,-0.000441,0.002961,0.006493,-1.0208,-0.9153,0.4103
11490,11.0,0.000457,0.000416,-0.032918,0.000450,0.002458,0.006072,-1.0397,-0.9170,0.2134,0.00003941,0.00002955,-0.00185697,-0.00031392,-0.00010840,0.02584455,-0.1660,0.1977,-9.7385,-0.001760,-0.002493,0.001033,36.6087,0.0330,88,0,0,0.000583,0.000679,-0.032781,-0.000322,0.002956,0.007163,-1.0247,-0.9130,0.5643
11501,11.0,0.000466,0.000425,-0.032849,0.000467,0.002433,0.006632,-1.0447,-0.9182,0.2139,0.00004303,0.00002922,-0.00185697,-0.00032292,-0.00011418,0.02584429,-0.1553,0.1800,-9.7410,-0.000887,-0.002110,-0.003433,36.6087,0.0330,99,0,0,0.000597,0.000694,-0.032653,-0.000260,0.003056,0.007987,-1.0263,-0.9131,0.5670
11511,10.0,0.000446,0.000431,-0.032802,0.000351,0.002386,0.006780,-1.0465,-0.9184,0.2153,0.00004338,0.00002877,-0.00185701,-0.00028387,-0.00009049,0.02603335,-0.1509,0.1716,-9.7587,-0.002179,-0.002052,-0.001721,36.6087,0.0330,91,0,1,0.000605,0.000702,-0.032827,-0.000331,0.002975,0.005701,-1.0262,-0.9132,0.5670
11522,11.0,0.000454,0.000440,-0.032869,0.000383,0.002319,0.005533,-1.0488,-0.9193,0.2156,0.00004445,0.00002798,-0.00185701,-0.00027998,-0.00009370,0.02723424,-0.1432,0.1797,-9.7150,-0.001577,-0.002421,-0.001421,36.6087,0.0330,90,0,0,0.000595,0.000717,-0.032727,-0.000380,0.002816,0.006236,-1.0265,-0.9135,0.5680
11533,11.0,0.000462,0.000421,-0.032806,0.000483,0.002045,0.006029,-1.0514,-0.9209,0.2159,0.00004533,0.00002805,-0.00185705,-0.00028474,-0.00002881,0.02723901,-0.1484,0.1663,-9.7236,-0.000895,-0.003148,-0.002282,36.5506,0.0330,94,1,0,0.000602,0.000699,-0.032663,-0.000333,0.002661,0.006784,-1.0257,-0.9136,0.5679
11544,11.0,0.000444,0.000429,-0.032737,0.000434,0.001965,0.006490,-1.0520,-0.9187,0.2160,0.00004471,0.00002281,-0.00185707,-0.00029604,0.00000184,0.02723998,-0.1151,0.1885,-9.7558,-0.000276,-0.005901,-0.001609,36.5506,0.0330,89,0,1,0.000610,0.000681,-0.032832,-0.000290,0.002489,0.004694,-1.0251,-0.9145,0.5678
11555,11.0,0.000424,0.000438,-0.032843,0.000449,0.001844,0.005018,-1.0531,-0.9197,0.2158,0.00004503,0.00002227,-0.00185711,-0.00023453,-0.00000650,0.02869441,-0.1665,0.1616,-9.6847,-0.000982,-0.000414,-0.006806,36.5506,0.0330,92,0,1,0.000574,0.000696,-0.032732,-0.000413,0.002431,0.005440,-1.0282,-0.9122,0.5666
11566,11.0,0.000378,0.000445,-0.032784,0.000250,0.001759,0.005649,-1.0529,-0.9173,0.2157,0.00004342,0.00001688,-0.00185716,-0.00020016,0.00003074,0.02869487,-0.1373,0.1769,-9.7214,-0.001261,-0.004415,-0.000900,36.5506,0.0330,89,0,2,0.000582,0.000704,-0.032673,-0.000474,0.002356,0.006190,-1.0277,-0.9139,0.5648
11577,11.0,0.000330,0.000454,-0.032718,0.000100,0.001681,0.006349,-1.0554,-0.9155,0.3258,0.00004370,0.00001562,-0.00186932,-0.00014693,0.00002489,0.02869902,-0.1444,0.1966,-9.6953,-0.002756,0.001088,-0.002874,36.5506,0.0340,89,0,2,0.000537,0.000710,-0.032610,-0.000497,0.002354,0.006726,-1.0273,-0.9147,0.5654
11588,11.0,0.000339,0.000463,-0.033384,0.000160,0.001650,-0.001535,-1.0567,-0.9151,0.3242,0.00004404,0.00001363,-0.00186932,-0.00008586,-0.00006938,0.03451842,-0.1479,0.1881,-9.6983,-0.001365,-0.000839,-0.005939,36.5506,0.0340,89,0,0,0.000553,0.000725,-0.033509,-0.000645,0.002537,-0.002228,-1.0295,-0.9162,0.4459
11599,11.0,0.000375,0.000472,-0.033397,0.000571,0.001676,-0.000853,-1.0583,-0.9169,0.3236,0.00004430,0.00001446,-0.00186929,-0.00013397,-0.00005450,0.03452154,-0.1034,0.1844,-9.7273,-0.002090,0.000116,-0.000334,36.5506,0.0340,94,0,-1,0.000561,0.000734,-0.033528,-0.000620,0.002552,-0.001653,-1.0302,-0.9163,0.4436
11610,11.0,0.000384,0.000480,-0.033403,0.000693,0.001644,-0.000222,-1.0600,-0.9134,0.3226,0.00004465,0.00000794,-0.00186927,-0.00020270,-0.00004084,0.03452300,-0.1404,0.1578,-9.7411,-0.002487,-0.000980,-0.001286,36.4924,0.0330,92,0,0,0.000593,0.000742,-0.033543,-0.000151,0.002622,-0.001202,-1.0301,-0.9157,0.4438
11621,11.0,0.000391,0.000489,-0.033163,0.000968,0.001552,0.003073,-1.0618,-0.9140,0.3223,0.00004486,0.00000791,-0.00186928,-0.00022887,0.00000698,0.03268512,-0.1286,0.1747,-9.7543,-0.003078,-0.001989,-0.002440,36.4924,0.0330,94,0,0,0.000608,0.000757,-0.033162,-0.000177,0.002457,0.003465,-1.0288,-0.9158,0.4427
11632,11.0,0.000401,0.000498,-0.033127,0.001098,0.001482,0.003547,-1.0622,-0.9105,0.3224,0.00004291,-0.00000017,-0.00186927,-0.00030528,0.00004170,0.03268717,-0.1460,0.1815,-9.7048,-0.000317,-0.001868,0.000094,36.4924,0.0330,92,0,0,0.000616,0.000765,-0.033125,-0.000065,0.002404,0.003770,-1.0293,-0.9144,0.4423
11643,11.0,0.000436,0.000479,-0.033064,0.001355,0.001217,0.004290,-1.0647,-0.9119,0.3228,0.00004392,0.00000051,-0.00186927,-0.00034157,0.00009550,0.03252226,-0.1553,0.1761,-9.7226,-0.002866,0.000731,-0.001701,36.4924,0.0330,86,1,-1,0.000623,0.000772,-0.033058,-0.000069,0.002494,0.004567,-1.0284,-0.9146,0.4440
11654,11.0,0.000446,0.000487,-0.033001,0.001383,0.001173,0.004966,-1.0656,-0.9109,0.3232,0.00004242,-0.00000320,-0.00186928,-0.00036900,0.00012138,0.03242476,-0.1492,0.1764,-9.7279,-0.003322,-0.002669,-0.000381,36.4924,0.0330,87,0,0,0.000665,0.000763,-0.032927,0.000012,0.002106,0.005781,-1.0301,-0.9148,0.4437
11665,11.0,0.000455,0.000496,-0.032927,0.001370,0.001114,0.005779,-1.0670,-0.9118,0.3238,0.00004255,-0.00000340,-0.00186929,-0.00036132,0.00013006,0.03229911,-0.1643,0.1782,-9.7204,-0.001303,-0.003203,-0.002779,36.4924,0.0330,90,0,0,0.000672,0.000770,-0.032866,0.000017,0.002059,0.006283,-1.0305,-0.9151,0.4434
11676,11.0,0.000490,0.000530,-0.032860,0.001463,0.001220,0.006311,-1.0678,-0.9137,0.3234,0.00004095,-0.00000274,-0.00186924,-0.00039108,0.00010604,0.03229919,-0.1567,0.1900,-9.7346,-0.004131,-0.003155,-0.002657,36.4924,0.0320,89,-1,-1,0.000680,0.000777,-0.032801,0.000035,0.002089,0.006829,-1.0310,-0.9160,0.4427
11687,11.0,0.000471,0.000538,-0.032338,0.001330,0.001195,0.012133,-1.0690,-0.9150,0.2909,0.00004112,-0.00000376,-0.00186479,-0.00038162,0.00018568,0.02898472,-0.1478,0.1815,-9.7290,-0.000041,-0.002236,0.003117,36.4924,0.0320,84,0,1,0.000694,0.000840,-0.032146,0.000132,0.002294,0.012818,-1.0300,-0.9179,0.3326
11698,11.0,0.000480,0.000519,-0.032201,0.001292,0.001067,0.012679,-1.0719,-0.9164,0.2919,0.00004325,-0.00000385,-0.00186483,-0.00037199,0.00022279,0.02898513,-0.1602,0.1961,-9.7295,-0.003965,-0.000961,-0.001280,36.4924,0.0320,84,1,0,0.000659,0.000854,-0.031857,0.000043,0.002404,0.014084,-1.0303,-0.9172,0.3345
11709,11.0,0.000489,0.000527,-0.032038,0.001262,0.001019,0.013466,-1.0739,-0.9177,0.2925,0.00004337,-0.00000403,-0.00186484,-0.00036673,0.00023073,0.02882879,-0.1628,0.1523,-9.7253,-0.003411,-0.002754,-0.003419,36.4924,0.0330,90,0,0,0.000666,0.000836,-0.032480,0.000049,0.002323,0.006010,-1.0321,-0.9170,0.3349
11720,11.0,0.000498,0.000507,-0.032492,0.001223,0.000834,0.006831,-1.0754,-0.9188,0.2934,0.00004188,-0.00000411,-0.00186490,-0.00028962,0.00021853,0.03319594,-0.1613,0.1758,-9.7489,-0.003380,-0.002042,-0.004033,36.4924,0.0330,90,1,0,0.000674,0.000844,-0.032401,0.000000,0.002074,0.006641,-1.0323,-0.9177,0.3343
11731,11.0,0.000507,0.000515,-0.032399,0.001153,0.000763,0.007486,-1.0777,-0.9198,0.2928,0.00004190,-0.00000426,-0.00186491,-0.00028567,0.00022153,0.03307653,-0.1620,0.1854,-9.7250,-0.003943,-0.001125,-0.002712,36.4924,0.0330,86,0,0,0.000690,0.000833,-0.032261,-0.000080,0.001982,0.007479,-1.0323,-0.9189,0.3331
11742,11.0,0.000516,0.000549,-0.032313,0.001126,0.000814,0.008008,-1.0774,-0.9206,0.2927,0.00003608,-0.00000435,-0.00186490,-0.00027923,0.00022959,0.03307673,-0.1452,0.1707,-9.7077,-0.002197,-0.000051,0.000869,36.4924,0.0320,89,-1,0,0.000698,0.000841,-0.032054,-0.000086,0.001958,0.009432,-1.0336,-0.9187,0.3327
11753,11.0,0.000524,0.000557,-0.032075,0.001124,0.000739,0.010222,-1.0790,-0.9217,0.2923,0.00003610,-0.00000449,-0.00186491,-0.00028982,0.00024989,0.03203472,-0.1541,0.1773,-9.7409,-0.000714,-0.003940,-0.004366,36.4581,0.0320,89,0,0,0.000704,0.000873,-0.031957,0.000003,0.001964,0.010054,-1.0334,-0.9175,0.3336
11764,11.0,0.000533,0.000592,-0.031960,0.001100,0.000804,0.010765,-1.0784,-0.9227,0.2924,0.00003067,-0.00000466,-0.00186490,-0.00028488,0.00025116,0.03203480,-0.1705,0.1584,-9.7296,-0.002599,-0.001900,-0.001083,36.4581,0.0330,89,-1,0,0.000719,0.000913,-0.031710,0.000047,0.001857,0.011219,-1.0326,-0.9178,0.3337
11775,11.0,0.000570,0.000629,-0.031805,0.001135,0.000775,0.011768,-1.0789,-0.9244,0.2919,0.00002947,-0.00000359,-0.00186482,-0.00032419,0.00021534,0.03179304,-0.1907,0.1689,-9.7060,-0.002461,-0.001110,-0.002761,36.4581,0.0330,88,-1,-1,0.000752,0.000946,-0.032411,0.000087,0.001860,0.002652,-1.0315,-0.9189,0.3340
11786,11.0,0.000578,0.000636,-0.032395,0.001047,0.000679,0.003828,-1.0782,-0.9268,0.2920,0.00002342,-0.00000031,-0.00186487,-0.00020757,0.00017787,0.03680175,-0.1559,0.1697,-9.7193,-0.001735,-0.002059,-0.003513,36.4581,0.0330,85,0,0,0.000786,0.000980,-0.032381,-0.000101,0.001875,0.003267,-1.0311,-0.9189,0.3335
11797,11.0,0.000589,0.000646,-0.032324,0.000862,0.000489,0.004670,-1.0812,-0.9262,0.4147,0.00002337,-0.00000040,-0.00188426,-0.00025778,0.00013604,0.03661718,-0.1621,0.1818,-9.7348,-0.004369,-0.001201,-0.001488,36.4581,0.0330,93,0,0,0.000802,0.001021,-0.032263,-0.000165,0.001916,0.004667,-1.0330,-0.9179,0.5045
11808,11.0,0.000597,0.000653,-0.032270,0.000807,0.000461,0.005179,-1.0819,-0.9280,0.4149,0.00002050,0.00000207,-0.00188429,-0.00023346,0.00015834,0.03661723,-0.1528,0.1917,-9.7363,-0.001533,-0.002252,-0.000807,36.4343,0.0320,91,0,0,0.000810,0.001028,-0.032080,-0.000162,0.001911,0.006606,-1.0349,-0.9181,0.5045
11819,11.0,0.000605,0.000635,-0.032065,0.000856,0.000254,0.007354,-1.0846,-0.9291,0.4151,0.00002162,0.00000200,-0.00188432,-0.00024832,0.00020941,0.03562682,-0.1437,0.1602,-9.7251,-0.005601,-0.001343,-0.002002,36.4343,0.0320,93,1,0,0.000824,0.001043,-0.031902,-0.000023,0.001958,0.007827,-1.0360,-0.9165,0.5053
11831,12.0,0.000615,0.000615,-0.031974,0.000853,0.000129,0.007747,-1.0872,-0.9300,0.4154,0.00002110,0.00000167,-0.00188436,-0.00024991,0.00025462,0.03562765,-0.1754,0.1946,-9.7585,-0.003497,-0.001149,-0.003382,36.4343,0.0320,85,1,0,0.000831,0.001025,-0.031822,0.000105,0.001794,0.008182,-1.0370,-0.9165,0.5054
11842,11.0,0.000623,0.000596,-0.031843,0.000891,-0.000006,0.008659,-1.0897,-0.9311,0.4157,0.00002215,0.00000160,-0.00188440,-0.00025340,0.00028949,0.03532859,-0.1482,0.1835,-9.7252,-0.001475,-0.002770,-0.001130,36.4343,0.0330,91,1,0,0.000839,0.001007,-0.031671,0.000055,0.001779,0.009125,-1.0391,-0.9178,0.5046
11853,11.0,0.000632,0.000603,-0.032435,0.000953,0.000014,0.000926,-1.0914,-0.9308,0.4152,0.00002003,-0.00000244,-0.00188436,-0.00021319,0.00020787,0.03989749,-0.1299,0.1934,-9.7588,-0.004853,0.000520,-0.002380,36.4343,0.0330,89,0,0,0.000854,0.000996,-0.032459,0.000173,0.001714,0.000552,-1.0397,-0.9185,0.5036
11864,11.0,0.000586,0.000582,-0.032390,0.000741,-0.000036,0.001586,-1.0936,-0.9306,0.4154,0.00002112,-0.00000543,-0.00188450,-0.00013811,0.00024055,0.03967171,-0.1621,0.1927,-9.7313,-0.001072,-0.003871,-0.004060,36.4343,0.0330,93,1,2,0.000861,0.001003,-0.032453,0.000370,0.001821,0.000686,-1.0411,-0.9177,0.5033
11875,11.0,0.000622,0.000590,-0.032371,0.000926,0.000012,0.001959,-1.0949,-0.9317,0.4146,0.00002090,-0.00000759,-0.00188442,-0.00020832,0.00022847,0.03967260,-0.1628,0.1820,-9.7184,-0.001432,-0.002979,-0.001369,36.4343,0.0330,92,0,-1,0.000851,0.000992,-0.032740,0.000374,0.001816,-0.001746,-1.0430,-0.9186,0.5029
11886,11.0,0.000630,0.000597,-0.032675,0.001020,0.000045,-0.001444,-1.0966,-0.9332,0.4143,0.00002046,-0.00000768,-0.00188441,-0.00016949,0.00017832,0.04180990,-0.1430,0.1786,-9.7014,-0.004662,-0.003304,-0.001158,36.4343,0.0330,89,0,0,0.000858,0.001024,-0.032755,0.000386,0.001903,-0.001318,-1.0422,-0.9201,0.4707
11897,11.0,0.000639,0.000604,-0.032689,0.001017,0.000057,-0.001012,-1.0976,-0.9351,0.4142,0.00001844,-0.00000883,-0.00188440,-0.00017502,0.00018394,0.04181011,-0.1631,0.1828,-9.7525,-0.002627,-0.003836,-0.001807,36.5162,0.0330,89,0,0,0.000865,0.001031,-0.032750,0.000485,0.001899,-0.000519,-1.0427,-0.9210,0.4714
11908,11.0,0.000647,0.000612,-0.032685,0.001018,0.000046,-0.000389,-1.0994,-0.9368,0.4212,0.00001804,-0.00000898,-0.00188565,-0.00017615,0.00017314,0.04172880,-0.1636,0.1909,-9.7157,-0.002874,-0.001504,-0.002499,36.5162,0.0330,89,0,0,0.000932,0.001071,-0.032908,0.000619,0.001916,-0.001476,-1.0411,-0.9235,0.4709
11919,11.0,0.000656,0.000619,-0.032853,0.001039,0.000009,-0.001870,-1.1001,-0.9382,0.4212,0.00001292,-0.00001157,-0.00188565,-0.00017663,0.00018459,0.04279313,-0.1504,0.1579,-9.7227,-0.002593,-0.004424,-0.003012,36.5162,0.0330,94,0,0,0.000939,0.001079,-0.032908,0.000598,0.001944,-0.000857,-1.0424,-0.9236,0.4711
11931,12.0,0.000638,0.000571,-0.032863,0.000982,-0.000338,-0.001401,-1.1028,-0.9395,0.4220,0.00001569,-0.00001342,-0.00188579,-0.00013644,0.00024802,0.04273022,-0.1359,0.1767,-9.7496,-0.001712,-0.001445,0.000477,36.5162,0.0330,90,2,1,0.000947,0.001087,-0.032914,0.000678,0.001790,-0.000421,-1.0425,-0.9247,0.4708
11942,11.0,0.000592,0.000550,-0.032877,0.000784,-0.000506,-0.001018,-1.1032,-0.9389,0.4230,0.00001084,-0.00002127,-0.00188594,-0.00009764,0.00031966,0.04273096,-0.1544,0.1775,-9.7309,-0.001714,-0.002488,-0.001002,36.5162,0.0330,83,1,2,0.000911,0.000998,-0.032957,0.000697,0.001347,-0.000113,-1.0420,-0.9248,0.4713
11953,11.0,0.000600,0.000558,-0.032931,0.000900,-0.000645,-0.001220,-1.1043,-0.9405,0.4231,0.00000993,-0.00002135,-0.00188591,-0.00009131,0.00029481,0.04301006,-0.1569,0.1667,-9.7397,-0.002851,-0.002236,-0.002893,36.4924,0.0330,90,0,0,0.000868,0.000980,-0.032956,0.000571,0.001222,0.000271,-1.0412,-0.9243,0.4720
11964,11.0,0.000581,0.000565,-0.032943,0.000839,-0.000714,-0.000916,-1.1035,-0.9404,0.4237,0.00000066,-0.00002769,-0.00188596,-0.00009236,0.00034626,0.04301107,-0.1570,0.1614,-9.7266,-0.001304,-0.002895,-0.002584,36.4924,0.0320,87,0,1,0.000857,0.000995,-0.032913,0.000615,0.000966,0.001363,-1.0412,-0.9237,0.4740
11975,11.0,0.000589,0.000572,-0.032929,0.000889,-0.000823,-0.000250,-1.1045,-0.9420,0.4235,-0.00000040,-0.00002778,-0.00188593,-0.00009267,0.00032737,0.04287463,-0.1535,0.1813,-9.7112,-0.002449,-0.003054,-0.001849,36.4924,0.0320,88,0,0,0.000864,0.001002,-0.032293,0.000646,0.000888,0.008204,-1.0408,-0.9237,0.4734
11985,10.0,0.000676,0.000634,-0.032419,0.001290,-0.000629,0.006119,-1.1024,-0.9445,0.4221,-0.00001373,-0.00002622,-0.00188567,-0.00027613,0.00037251,0.03971335,-0.1476,0.1691,-9.7329,-0.001224,-0.003655,-0.002508,36.4924,0.0320,85,-2,-3,0.000872,0.001009,-0.032209,0.000680,0.000909,0.008703,-1.0408,-0.9236,0.4734
11996,11.0,0.000738,0.000668,-0.032333,0.001573,-0.000607,0.006763,-1.1029,-0.9473,0.4214,-0.00001652,-0.00002309,-0.00188549,-0.00033826,0.00032032,0.03961189,-0.1621,0.1792,-9.7357,-0.003388,-0.002437,0.000064,36.4924,0.0320,90,-1,-2,0.001010,0.001098,-0.031997,0.001156,0.001069,0.009930,-1.0396,-0.9255,0.4478
12007,11.0,0.000747,0.000675,-0.032256,0.001602,-0.000621,0.007248,-1.1032,-0.9478,0.4213,-0.00002273,-0.00002816,-0.00188548,-0.00036453,0.00034584,0.03961280,-0.1478,0.1813,-9.7140,-0.003216,-0.001127,-0.004053,36.4924,0.0330,91,0,0,0.001018,0.001106,-0.032564,0.001212,0.000973,0.003197,-1.0399,-0.9256,0.4475
12018,11.0,0.000728,0.000683,-0.032607,0.001506,-0.000676,0.002542,-1.1051,-0.9484,0.4298,-0.00002391,-0.00003077,-0.00188716,-0.00027907,0.00027250,0.04224684,-0.1638,0.1801,-9.7494,-0.005745,-0.001937,0.001828,36.4924,0.0330,94,0,1,0.001033,0.001120,-0.032473,0.001293,0.000970,0.004074,-1.0402,-0.9253,0.4465
12029,11.0,0.000710,0.000690,-0.032577,0.001358,-0.000652,0.002940,-1.1065,-0.9489,0.4308,-0.00002796,-0.00003411,-0.00188722,-0.00024203,0.00027854,0.04224637,-0.1689,0.1920,-9.7149,-0.002327,-0.002743,-0.000887,36.4924,0.0330,93,0,1,0.001016,0.001127,-0.032431,0.001189,0.001005,0.004301,-1.0419,-0.9260,0.4486
12040,11.0,0.000718,0.000697,-0.032522,0.001337,-0.000667,0.003559,-1.1089,-0.9499,0.4314,-0.00002902,-0.00003455,-0.00188720,-0.00023631,0.00026221,0.04211624,-0.1656,0.1729,-9.7475,-0.005249,-0.001851,-0.000132,36.4924,0.0320,93,0,0,0.000999,0.001133,-0.032135,0.001013,0.001186,0.007492,-1.0418,-0.9259,0.4495
12051,11.0,0.000700,0.000703,-0.032212,0.001175,-0.000644,0.007051,-1.1105,-0.9505,0.4330,-0.00003282,-0.00003609,-0.00188727,-0.00021566,0.00029747,0.04051056,-0.1591,0.1921,-9.7231,-0.001635,-0.000339,-0.000924,36.4924,0.0320,93,0,1,0.000990,0.001146,-0.031959,0.000823,0.001271,0.008367,-1.0426,-0.9260,0.4508
12062,11.0,0.000709,0.000684,-0.032116,0.001177,-0.000760,0.007720,-1.1127,-0.9517,0.4337,-0.00003192,-0.00003642,-0.00188730,-0.00021179,0.00031443,0.04041272,-0.1475,0.1786,-9.7073,-0.003844,-0.002883,-0.002103,36.4924,0.0320,85,1,0,0.000972,0.001153,-0.031873,0.000716,0.001307,0.008733,-1.0431,-0.9261,0.4513
12074,12.0,0.000719,0.000690,-0.032020,0.001215,-0.000782,0.008216,-1.1140,-0.9516,0.4341,-0.00003890,-0.00004035,-0.00188729,-0.00023462,0.00034056,0.04041357,-0.1508,0.1730,-9.7238,-0.004497,0.000819,-0.001924,36.4924,0.0320,90,0,0,0.000980,0.001135,-0.031907,0.000784,0.001250,0.007916,-1.0438,-0.9267,0.4515
12085,11.0,0.000674,0.000671,-0.031949,0.001018,-0.000968,0.008499,-1.1163,-0.9510,0.4345,-0.00003817,-0.00004486,-0.00188744,-0.00015991,0.00034973,0.04054287,-0.1686,0.1652,-9.7154,-0.003846,-0.000568,-0.003855,36.4924,0.0320,93,1,2,0.000946,0.001125,-0.031721,0.000585,0.000977,0.009044,-1.0459,-0.9245,0.5646
12095,10.0,0.000708,0.000679,-0.031862,0.001179,-0.001000,0.008974,-1.1165,-0.9510,0.4339,-0.00004841,-0.00004748,-0.00188737,-0.00022443,0.00039691,0.04054477,-0.1490,0.1782,-9.7303,-0.002211,-0.000028,-0.002572,36.5506,0.0320,92,0,-1,0.000979,0.001132,-0.031630,0.000654,0.000928,0.009445,-1.0458,-0.9240,0.5638
12106,11.0,0.000716,0.000687,-0.031761,0.001222,-0.001080,0.009462,-1.1178,-0.9513,0.4336,-0.00004996,-0.00004787,-0.00188734,-0.00021816,0.00037265,0.04054988,-0.1577,0.1853,-9.7155,0.000065,-0.002685,-0.000655,36.5506,0.0320,90,0,0,0.001011,0.001140,-0.031534,0.000820,0.000934,0.009785,-1.0460,-0.9233,0.5633
12117,11.0,0.000724,0.000720,-0.031836,0.001266,-0.000983,0.007879,-1.1171,-0.9513,0.4335,-0.00006109,-0.00005312,-0.00188726,-0.00023173,0.00035404,0.04160181,-0.1388,0.1791,-9.7055,-0.002886,-0.002446,0.000175,36.5506,0.0320,95,-1,0,0.001050,0.001154,-0.031730,0.000921,0.000861,0.006799,-1.0458,-0.9239,0.5642
12128,11.0,0.000733,0.000728,-0.031748,0.001374,-0.001069,0.008386,-1.1189,-0.9509,0.5242,-0.00006261,-0.00005372,-0.00190842,-0.00028028,0.00028145,0.04160561,-0.1419,0.1679,-9.7237,-0.003072,-0.000610,-0.001448,36.5506,0.0320,91,0,0,0.001058,0.001186,-0.031659,0.000994,0.000909,0.007273,-1.0455,-0.9235,0.5647
12139,11.0,0.000741,0.000735,-0.031652,0.001432,-0.001080,0.008955,-1.1183,-0.9511,0.5247,-0.00007086,-0.00006051,-0.00190840,-0.00031963,0.00031003,0.04160675,-0.1653,0.1824,-9.7109,0.000704,-0.003005,-0.001989,36.5506,0.0320,91,0,0,0.001065,0.001194,-0.031586,0.001063,0.000774,0.007597,-1.0452,-0.9230,0.5657
12150,11.0,0.000749,0.000742,-0.031791,0.001531,-0.001124,0.006646,-1.1190,-0.9524,0.5253,-0.00007262,-0.00006125,-0.00190837,-0.00028686,0.00026011,0.04296969,-0.1542,0.1858,-9.7395,-0.001458,-0.003579,0.000227,36.5506,0.0320,92,0,0,0.001081,0.001208,-0.031749,0.000883,0.000884,0.005812,-1.0442,-0.9219,0.5656
12161,11.0,0.000757,0.000776,-0.031716,0.001558,-0.001001,0.007012,-1.1179,-0.9527,0.5258,-0.00008206,-0.00006653,-0.00190830,-0.00031104,0.00024696,0.04296980,-0.1567,0.1881,-9.7496,-0.000058,-0.000580,-0.000028,36.5506,0.0320,93,-1,0,0.001088,0.001215,-0.031690,0.000848,0.000923,0.006231,-1.0447,-0.9223,0.5666
12172,11.0,0.000792,0.000783,-0.031638,0.001647,-0.000973,0.007336,-1.1183,-0.9541,0.5261,-0.00008363,-0.00006506,-0.00190821,-0.00033108,0.00022538,0.04297556,-0.1707,0.1889,-9.7332,-0.003833,-0.000124,-0.002179,36.5506,0.0310,90,0,-1,0.001096,0.001246,-0.031626,0.000811,0.000993,0.006490,-1.0433,-0.9226,0.5675
12183,11.0,0.000800,0.000790,-0.031246,0.001647,-0.000977,0.011271,-1.1184,-0.9542,0.5265,-0.00009074,-0.00006877,-0.00190821,-0.00037019,0.00028009,0.04124891,-0.1501,0.1609,-9.7192,-0.003011,-0.000865,-0.003475,36.5506,0.0310,88,0,0,0.001158,0.001260,-0.031112,0.001068,0.001062,0.011149,-1.0427,-0.9233,0.5672
12194,11.0,0.000782,0.000797,-0.031122,0.001527,-0.001052,0.011560,-1.1200,-0.9539,0.5266,-0.00009244,-0.00007192,-0.00190826,-0.00032834,0.00025736,0.04125309,-0.1632,0.1696,-9.7523,-0.005546,-0.000390,-0.002330,36.5506,0.0310,89,0,1,0.001165,0.001268,-0.030997,0.001121,0.000949,0.011673,-1.0422,-0.9213,0.6031
12205,11.0,0.000764,0.000804,-0.030993,0.001409,-0.001117,0.011888,-1.1202,-0.9534,0.5268,-0.00010442,-0.00007736,-0.00190834,-0.00030521,0.00031029,0.04125365,-0.1521,0.1727,-9.7398,-0.001414,-0.001181,-0.001363,36.5506,0.0320,93,0,1,0.001131,0.001281,-0.031496,0.001036,0.000891,0.004139,-1.0445,-0.9196,0.6021
12216,11.0,0.000799,0.000812,-0.031478,0.001590,-0.001240,0.004977,-1.1218,-0.9544,0.5266,-0.00010663,-0.00007578,-0.00190824,-0.00027093,0.00021998,0.04465122,-0.1511,0.1827,-9.7365,-0.003148,-0.002518,0.000238,36.5506,0.0320,91,0,-1,0.001163,0.001289,-0.031454,0.001188,0.000842,0.004382,-1.0444,-0.9201,0.6026
12227,11.0,0.000808,0.000793,-0.031422,0.001610,-0.001398,0.005218,-1.1226,-0.9548,0.5274,-0.00011556,-0.00008070,-0.00190830,-0.00029052,0.00029440,0.04465289,-0.1580,0.1757,-9.7341,-0.003353,-0.003622,-0.001375,36.5506,0.0310,91,1,0,0.001228,0.001304,-0.031362,0.001343,0.000761,0.004797,-1.0466,-0.9199,0.6038
12238,11.0,0.000791,0.000774,-0.031351,0.001562,-0.001627,0.005630,-1.1246,-0.9546,0.5724,-0.00011535,-0.00008407,-0.00191995,-0.00028129,0.00027106,0.04458700,-0.1480,0.1614,-9.7415,-0.002299,0.000901,-0.002045,36.5162,0.0310,91,1,1,0.001236,0.001286,-0.031113,0.001321,0.000663,0.007273,-1.0473,-0.9204,0.6045
12249,11.0,0.000799,0.000781,-0.031125,0.001607,-0.001702,0.007805,-1.1240,-0.9545,0.5731,-0.00013034,-0.00009055,-0.00191995,-0.00032673,0.00035072,0.04370647,-0.1561,0.1594,-9.7411,-0.002321,-0.000265,-0.000735,36.5162,0.0310,95,0,0,0.001220,0.001270,-0.031039,0.001305,0.000433,0.007504,-1.0476,-0.9188,0.6046
12260,11.0,0.000807,0.000788,-0.031029,0.001651,-0.001892,0.008202,-1.1250,-0.9550,0.5729,-0.00013303,-0.00009149,-0.00191991,-0.00031622,0.00031953,0.04365645,-0.1604,0.1588,-9.7329,-0.001456,-0.001902,-0.003969,36.5162,0.0310,91,0,0,0.001234,0.001285,-0.030868,0.001339,0.000152,0.008387,-1.0464,-0.9178,0.6052
12271,11.0,0.000815,0.000795,-0.030937,0.001680,-0.002003,0.008466,-1.1237,-0.9544,0.5731,-0.00015190,-0.00009726,-0.00191992,-0.00033981,0.00040216,0.04365828,-0.1552,0.1764,-9.7436,-0.004262,-0.000774,-0.001604,36.5162,0.0310,88,0,0,0.001242,0.001291,-0.030907,0.001322,0.000088,0.007322,-1.0455,-0.9177,0.6049
12282,11.0,0.000824,0.000802,-0.030916,0.001706,-0.002083,0.007904,-1.1246,-0.9549,0.5729,-0.00015493,-0.00009831,-0.00191987,-0.00032143,0.00036047,0.04405053,-0.1561,0.1972,-9.7275,-0.000897,-0.001329,-0.002318,36.5162,0.0310,93,0,0,0.001249,0.001298,-0.030823,0.001317,0.000029,0.007716,-1.0464,-0.9171,0.6051
12293,11.0,0.000832,0.000809,-0.030827,0.001709,-0.002109,0.008372,-1.1241,-0.9554,0.5731,-0.00016883,-0.00010288,-0.00191986,-0.00033530,0.00040458,0.04405150,-0.1578,0.1611,-9.6786,-0.003931,-0.003775,0.000287,36.5162,0.0310,93,0,0,0.001263,0.001312,-0.030649,0.001474,0.000072,0.008251,-1.0456,-0.9176,0.5122
12304,11.0,0.000892,0.000868,-0.030721,0.001960,-0.001880,0.008964,-1.1246,-0.9570,0.5727,-0.00017706,-0.00009878,-0.00191954,-0.00038129,0.00031440,0.04398854,-0.1560,0.1867,-9.7372,-0.002123,-0.000730,-0.000733,36.5162,0.0310,93,-2,-2,0.001271,0.001318,-0.030819,0.001457,0.000034,0.005965,-1.0451,-0.9186,0.5127
12315,11.0,0.000900,0.000874,-0.030822,0.001950,-0.001823,0.007137,-1.1247,-0.9577,0.5735,-0.00018468,-0.00010383,-0.00191951,-0.00037510,0.00029753,0.04505092,-0.1607,0.1927,-9.7127,-0.001598,-0.003779,0.000352,36.5162,0.0310,93,0,0,0.001325,0.001373,-0.030760,0.001720,0.000209,0.005901,-1.0452,-0.9186,0.5123
12326,11.0,0.000883,0.000854,-0.030731,0.001824,-0.001972,0.007757,-1.1265,-0.9586,0.5743,-0.00018485,-0.00010779,-0.00191961,-0.00033330,0.00029638,0.04500292,-0.1656,0.1709,-9.7330,-0.004147,-0.001372,-0.004435,36.5162,0.0310,92,1,1,0.001341,0.001362,-0.030621,0.001600,0.000144,0.006948,-1.0454,-0.9200,0.5117
12337,11.0,0.000866,0.000834,-0.030644,0.001704,-0.002046,0.008146,-1.1274,-0.9586,0.5748,-0.00019137,-0.00011462,-0.00191973,-0.00031334,0.00033715,0.04500331,-0.1542,0.1788,-9.7236,-0.004517,-0.000829,-0.002020,36.5162,0.0310,92,1,1,0.001325,0.001344,-0.030813,0.001479,0.000037,0.004299,-1.0453,-0.9202,0.5104
12348,11.0,0.000874,0.000841,-0.030784,0.001693,-0.002090,0.005875,-1.1283,-0.9598,0.5396,-0.00019475,-0.00011572,-0.00190950,-0.00025523,0.00030453,0.04620317,-0.1671,0.1603,-9.7182,-0.001296,-0.000121,-0.000285,36.5162,0.0310,89,0,0,0.001292,0.001333,-0.030708,0.001253,-0.000062,0.005214,-1.0463,-0.9191,0.5103
12359,11.0,0.000883,0.000847,-0.030718,0.001695,-0.002133,0.006262,-1.1282,-0.9595,0.5398,-0.00021042,-0.00012013,-0.00190949,-0.00026747,0.00035709,0.04620425,-0.1477,0.1785,-9.7286,-0.004101,-0.000430,-0.001164,36.5162,0.0310,90,0,0,0.001300,0.001340,-0.030639,0.001194,-0.000167,0.005818,-1.0457,-0.9185,0.5103
12371,12.0,0.000893,0.000853,-0.030641,0.001717,-0.002261,0.006663,-1.1297,-0.9599,0.5402,-0.00021389,-0.00012125,-0.00190944,-0.00025586,0.00032190,0.04621077,-0.1648,0.1647,-9.7345,-0.002285,-0.002409,-0.001187,36.5506,0.0310,89,0,0,0.001307,0.001347,-0.030580,0.001222,-0.000198,0.006145,-1.0456,-0.9172,0.5110
12382,11.0,0.000901,0.000859,-0.030800,0.001727,-0.002334,0.004350,-1.1284,-0.9601,0.5409,-0.00023282,-0.00012655,-0.00190944,-0.00025299,0.00036810,0.04739738,-0.1504,0.1675,-9.7156,-0.000776,-0.003032,-0.002273,36.5506,0.0310,89,0,0,0.001322,0.001360,-0.030793,0.001141,-0.000281,0.003379,-1.0429,-0.9198,0.5099
12393,11.0,0.000935,0.000892,-0.030751,0.001874,-0.002292,0.004715,-1.1288,-0.9613,0.5402,-0.00023933,-0.00012493,-0.00190923,-0.00026844,0.00030422,0.04740178,-0.1625,0.1828,-9.7233,-0.002116,-0.001370,-0.004283,36.5506,0.0310,86,-1,-1,0.001329,0.001367,-0.030756,0.001226,-0.000332,0.003962,-1.0416,-0.9206,0.4516
12404,11.0,0.000943,0.000899,-0.030697,0.001912,-0.002283,0.005060,-1.1284,-0.9612,0.5400,-0.00025229,-0.00013295,-0.00190919,-0.00030011,0.00033357,0.04740274,-0.1365,0.1954,-9.7403,-0.004247,0.000376,-0.001037,36.5506,0.0310,84,0,0,0.001367,0.001404,-0.030866,0.001290,-0.000335,0.002597,-1.0406,-0.9208,0.4518
12415,11.0,0.000925,0.000905,-0.030832,0.001855,-0.002280,0.003128,-1.1296,-0.9613,0.5397,-0.00025607,-0.00013734,-0.00190922,-0.00024244,0.00028071,0.04836370,-0.1682,0.1765,-9.7479,-0.004381,-0.000822,-0.002111,36.5506,0.0310,88,0,1,0.001351,0.001411,-0.030840,0.001279,-0.000258,0.002763,-1.0411,-0.9188,0.4523
12426,11.0,0.000934,0.000886,-0.030796,0.001871,-0.002307,0.003395,-1.1310,-0.9606,0.5393,-0.00026076,-0.00014344,-0.00190923,-0.00026178,0.00030163,0.04836436,-0.1593,0.1931,-9.7259,-0.003287,0.001028,-0.002412,36.5506,0.0310,95,1,0,0.001334,0.001417,-0.030812,0.001120,-0.000219,0.002903,-1.0417,-0.9182,0.4519
12437,11.0,0.000968,0.000918,-0.030759,0.001999,-0.002130,0.003584,-1.1327,-0.9612,0.5387,-0.00026733,-0.00014190,-0.00190902,-0.00027561,0.00024067,0.04837020,-0.1675,0.1831,-9.7458,-0.005038,-0.003945,-0.002893,36.5506,0.0310,92,-1,-1,0.001350,0.001406,-0.030875,0.001061,-0.000181,0.002375,-1.0434,-0.9169,0.4521
12448,11.0,0.000977,0.000925,-0.030866,0.001929,-0.002120,0.002137,-1.1330,-0.9621,0.5386,-0.00027978,-0.00014254,-0.00190903,-0.00024439,0.00025359,0.04910246,-0.1696,0.1653,-9.7129,-0.000381,-0.002546,-0.002779,36.5506,0.0310,86,0,0,0.001381,0.001436,-0.030850,0.001083,-0.000131,0.002613,-1.0439,-0.9186,0.4519
12459,11.0,0.000985,0.000932,-0.030842,0.001926,-0.002204,0.002480,-1.1342,-0.9630,0.5211,-0.00028343,-0.00014400,-0.00190366,-0.00021713,0.00023260,0.04910666,-0.1452,0.1518,-9.7184,-0.004168,-0.000961,-0.003142,36.5506,0.0310,86,0,0,0.001396,0.001451,-0.030791,0.001027,-0.000300,0.003391,-1.0431,-0.9169,0.4510
12469,10.0,0.000940,0.000914,-0.030816,0.001695,-0.002386,0.002771,-1.1334,-0.9629,0.5214,-0.00030101,-0.00015488,-0.00190392,-0.00017418,0.00033784,0.04910778,-0.1552,0.1660,-9.7394,-0.001583,-0.001869,-0.002797,36.5506,0.0310,92,1,2,0.001404,0.001458,-0.030905,0.000989,-0.000355,0.002116,-1.0432,-0.9163,0.4515
12480,11.0,0.000949,0.000895,-0.030895,0.001740,-0.002644,0.001833,-1.1345,-0.9639,0.5209,-0.00030217,-0.00015615,-0.00190393,-0.00015391,0.00031774,0.04965683,-0.1559,0.1833,-9.7257,-0.003303,-0.002053,-0.002659,36.5506,0.0310,94,1,0,0.001363,0.001440,-0.030884,0.000832,-0.000446,0.002277,-1.0423,-0.9167,0.4513
12491,11.0,0.000957,0.000901,-0.030874,0.001777,-0.002739,0.002121,-1.1337,-0.9639,0.5207,-0.00032472,-0.00016366,-0.00190392,-0.00018381,0.00039925,0.04965867,-0.1638,0.1579,-9.7426,-0.004728,-0.002106,-0.001860,36.5506,0.0310,91,0,0,0.001371,0.001422,-0.030860,0.000883,-0.000501,0.002430,-1.0428,-0.9170,0.4306
12503,12.0,0.000993,0.000932,-0.030848,0.001928,-0.002705,0.002360,-1.1343,-0.9655,0.5199,-0.00033234,-0.00016195,-0.00190368,-0.00019796,0.00033390,0.04966417,-0.1545,0.1894,-9.7377,-0.000893,-0.002245,-0.002366,36.5506,0.0310,87,-1,-1,0.001386,0.001435,-0.030920,0.000730,-0.000571,0.001639,-1.0424,-0.9167,0.4310
12514,11.0,0.001053,0.000991,-0.030913,0.002166,-0.002525,0.001538,-1.1327,-0.9663,0.5193,-0.00035754,-0.00016308,-0.00190334,-0.00026721,0.00032917,0.05011124,-0.1505,0.1531,-9.7301,-0.001728,-0.001073,-0.001265,36.5506,0.0310,92,-2,-2,0.001417,0.001466,-0.030902,0.000808,-0.000459,0.001847,-1.0418,-0.9159,0.4307
12525,11.0,0.001061,0.000997,-0.030896,0.002196,-0.002610,0.001770,-1.1341,-0.9674,0.5194,-0.00036187,-0.00016497,-0.00190328,-0.00025117,0.00029276,0.05011512,-0.1581,0.1886,-9.7297,-0.006016,-0.003203,-0.000927,36.5506,0.0310,90,0,0,0.001480,0.001529,-0.030862,0.001005,-0.000554,0.002251,-1.0402,-0.9160,0.4310
12536,11.0,0.001070,0.001004,-0.030875,0.002201,-0.002596,0.002055,-1.1336,-0.9673,0.5196,-0.00037638,-0.00017226,-0.00190325,-0.00027019,0.00032229,0.05011585,-0.1653,0.1808,-9.7270,-0.000740,0.000541,-0.001615,36.5506,0.0310,96,0,0,0.001487,0.001535,-0.030930,0.000983,-0.000471,0.001522,-1.0412,-0.9159,0.4310
12547,11.0,0.001078,0.001010,-0.030927,0.002244,-0.002646,0.001468,-1.1344,-0.9683,0.5195,-0.00038091,-0.00017427,-0.00190320,-0.00024770,0.00027900,0.05047737,-0.1476,0.1789,-9.7312,-0.001566,-0.004654,-0.003718,36.5506,0.0310,91,0,0,0.001502,0.001548,-0.030895,0.000878,-0.000447,0.002189,-1.0420,-0.9172,0.4297
12558,11.0,0.001061,0.001016,-0.030910,0.002126,-0.002582,0.001749,-1.1348,-0.9687,0.5202,-0.00039174,-0.00018403,-0.00190324,-0.00023538,0.00028511,0.05047715,-0.1636,0.1880,-9.7360,-0.003799,-0.003099,0.002132,36.5506,0.0310,94,0,1,0.001510,0.001554,-0.030873,0.000888,-0.000425,0.002482,-1.0416,-0.9177,0.4286
12569,11.0,0.001018,0.001022,-0.030890,0.001938,-0.002614,0.001998,-1.1353,-0.9692,0.5258,-0.00039616,-0.00019218,-0.00190504,-0.00017446,0.00024566,0.05048153,-0.1538,0.1635,-9.7360,-0.001061,-0.002841,-0.001549,36.5506,0.0300,89,0,2,0.001494,0.001559,-0.030337,0.000784,-0.000316,0.008272,-1.0417,-0.9184,0.4304
12580,11.0,0.001026,0.001028,-0.030388,0.001941,-0.002667,0.007737,-1.1339,-0.9706,0.5263,-0.00041486,-0.00019813,-0.00190504,-0.00022776,0.00034648,0.04824397,-0.1717,0.1536,-9.7657,-0.000540,-0.003860,-0.003007,36.5506,0.0300,90,0,0,0.001414,0.001571,-0.030169,0.000528,-0.000309,0.008509,-1.0384,-0.9177,0.4301
12591,11.0,0.001060,0.001010,-0.030277,0.001988,-0.002881,0.008294,-1.1345,-0.9721,0.5270,-0.00041640,-0.00019655,-0.00190496,-0.00024199,0.00033664,0.04812293,-0.1778,0.1738,-9.7056,-0.001157,0.000516,0.000020,36.4581,0.0300,91,1,-1,0.001421,0.001577,-0.030082,0.000478,-0.000428,0.008835,-1.0350,-0.9196,0.3809
12602,11.0,0.001069,0.001016,-0.030184,0.001937,-0.002956,0.008593,-1.1324,-0.9730,0.5274,-0.00043913,-0.00019870,-0.00190499,-0.00023303,0.00040991,0.04812398,-0.1599,0.1737,-9.7202,-0.003248,-0.001830,-0.003380,36.4581,0.0310,92,0,0,0.001452,0.001561,-0.029940,0.000390,-0.000569,0.009811,-1.0347,-0.9187,0.3819
12613,11.0,0.001078,0.000997,-0.030560,0.001859,-0.003165,0.003532,-1.1329,-0.9739,0.5275,-0.00044152,-0.00020039,-0.00190497,-0.00018439,0.00035383,0.05030595,-0.1656,0.1734,-9.6810,-0.001267,-0.002676,-0.000442,36.4581,0.0310,88,1,0,0.001467,0.001551,-0.030531,0.000226,-0.000658,0.003113,-1.0333,-0.9189,0.3817
12624,11.0,0.001086,0.001003,-0.030518,0.001813,-0.003131,0.004044,-1.1321,-0.9746,0.5278,-0.00045761,-0.00020266,-0.00190494,-0.00017840,0.00038106,0.05030622,-0.1593,0.1875,-9.7340,-0.003077,-0.002882,-0.003227,36.4581,0.0310,96,0,0,0.001475,0.001533,-0.030497,0.000134,-0.000695,0.003710,-1.0329,-0.9200,0.3828
12635,11.0,0.001069,0.001034,-0.030439,0.001694,-0.003007,0.004864,-1.1323,-0.9756,0.5276,-0.00046608,-0.00020737,-0.00190485,-0.00014537,0.00032011,0.05014989,-0.1677,0.1842,-9.7364,-0.001384,-0.002912,-0.001132,36.4581,0.0300,89,-1,1,0.001483,0.001538,-0.030458,0.000065,-0.000528,0.003999,-1.0328,-0.9204,0.3838
12647,12.0,0.001053,0.001037,-0.030164,0.001572,-0.003037,0.007758,-1.1312,-0.9761,0.5279,-0.00048444,-0.00021408,-0.00190492,-0.00014165,0.00038290,0.04918102,-0.1626,0.1470,-9.7386,-0.002063,0.000226,-0.002750,36.5162,0.0300,89,0,1,0.001473,0.001574,-0.030064,-0.000032,-0.000386,0.007199,-1.0339,-0.9205,0.3835
12658,11.0,0.001036,0.001043,-0.030069,0.001480,-0.003126,0.008080,-1.1318,-0.9765,0.5278,-0.00048985,-0.00021857,-0.00190491,-0.00010928,0.00034384,0.04913938,-0.1593,0.1607,-9.7436,-0.002620,-0.000708,-0.001057,36.5162,0.0300,89,0,1,0.001441,0.001588,-0.029903,-0.000214,-0.000611,0.007844,-1.0342,-0.9186,0.3838
12669,11.0,0.001070,0.001050,-0.029979,0.001606,-0.003166,0.008322,-1.1301,-0.9772,0.5277,-0.00051158,-0.00022032,-0.00190478,-0.00015199,0.00040457,0.04914105,-0.1542,0.1820,-9.7258,-0.001574,-0.003365,-0.003697,36.5162,0.0310,89,0,-1,0.001472,0.001619,-0.030522,-0.000101,-0.000632,0.000337,-1.0323,-0.9181,0.3845
12680,11.0,0.001104,0.001084,-0.030483,0.001770,-0.003175,0.001665,-1.1304,-0.9779,0.5489,-0.00052141,-0.00021832,-0.00191274,-0.00014103,0.00027031,0.05181528,-0.1544,0.1754,-9.7241,-0.002772,-0.001519,-0.003214,36.5162,0.0310,95,-1,-1,0.001503,0.001625,-0.030508,0.000027,-0.000575,0.000681,-1.0318,-0.9192,0.3836
12691,11.0,0.001112,0.001090,-0.030463,0.001813,-0.003186,0.001956,-1.1293,-0.9780,0.5487,-0.00054113,-0.00022690,-0.00191268,-0.00017399,0.00031788,0.05181652,-0.1585,0.1683,-9.7225,-0.002444,-0.002470,-0.000843,36.5162,0.0310,88,0,0,0.001541,0.001662,-0.030490,0.000194,-0.000350,0.001120,-1.0338,-0.9184,0.3917
12702,11.0,0.001120,0.001096,-0.030429,0.001826,-0.003168,0.002387,-1.1296,-0.9792,0.5482,-0.00054672,-0.00022845,-0.00191258,-0.00016373,0.00027932,0.05176385,-0.1791,0.1892,-9.7412,-0.001216,-0.002203,-0.002057,36.5162,0.0310,85,0,0,0.001548,0.001668,-0.030776,0.000195,-0.000347,-0.001848,-1.0330,-0.9193,0.3921
12713,11.0,0.001129,0.001076,-0.030722,0.001830,-0.003214,-0.001051,-1.1294,-0.9797,0.5482,-0.00055775,-0.00023432,-0.00191259,-0.00015440,0.00029106,0.05318803,-0.1529,0.1877,-9.7248,-0.002391,-0.001968,-0.002163,36.5162,0.0310,95,1,0,0.001556,0.001674,-0.030794,0.000034,-0.000220,-0.001685,-1.0322,-0.9197,0.3922
12724,11.0,0.001138,0.001056,-0.030724,0.001839,-0.003296,-0.000740,-1.1301,-0.9808,0.5483,-0.00055994,-0.00023590,-0.00191258,-0.00014405,0.00027655,0.05314766,-0.1588,0.1732,-9.7521,-0.001856,-0.002322,-0.001973,36.5162,0.0310,90,1,0,0.001571,0.001638,-0.030810,0.000046,-0.000147,-0.001145,-1.0312,-0.9199,0.3926
12735,11.0,0.001146,0.001062,-0.030731,0.001864,-0.003211,-0.000557,-1.1293,-0.9809,0.5482,-0.00057268,-0.00024333,-0.00191248,-0.00016835,0.00027989,0.05314797,-0.1455,0.1806,-9.7306,-0.001000,-0.000664,-0.001111,36.5744,0.0310,96,0,0,0.001578,0.001645,-0.030929,0.000057,-0.000104,-0.002154,-1.0311,-0.9201,0.3926
12746,11.0,0.001154,0.001068,-0.030880,0.001955,-0.003167,-0.002043,-1.1299,-0.9817,0.5478,-0.00057855,-0.00024514,-0.00191238,-0.00014514,0.00022899,0.05377846,-0.1608,0.1829,-9.7386,-0.004477,-0.002223,-0.004003,36.5744,0.0310,90,0,0,0.001584,0.001651,-0.030949,0.000163,-0.000029,-0.001864,-1.0303,-0.9196,0.3929
12757,11.0,0.001162,0.001074,-0.030901,0.002038,-0.003127,-0.001781,-1.1294,-0.9815,0.5473,-0.00059443,-0.00025789,-0.00191227,-0.00019855,0.00025333,0.05377960,-0.1409,0.1743,-9.6972,-0.002978,-0.004011,-0.002197,36.5744,0.0310,89,0,0,0.001598,0.001689,-0.030993,0.000230,0.000111,-0.001316,-1.0298,-0.9188,0.3915
12768,11.0,0.001143,0.001080,-0.030929,0.002021,-0.003088,-0.001560,-1.1300,-0.9821,0.5471,-0.00060007,-0.00026348,-0.00191229,-0.00016019,0.00021455,0.05382317,-0.1682,0.1858,-9.7229,-0.001605,-0.001014,-0.002033,36.5744,0.0310,90,0,1,0.001605,0.001695,-0.030996,0.000310,0.000130,-0.000802,-1.0297,-0.9190,0.3907
12779,11.0,0.001152,0.001086,-0.030969,0.002050,-0.003086,-0.001456,-1.1290,-0.9824,0.5465,-0.00061884,-0.00027247,-0.00191223,-0.00018850,0.00025476,0.05393170,-0.1600,0.1502,-9.7118,-0.000380,-0.002634,-0.003421,36.5744,0.0310,87,0,0,0.001571,0.001708,-0.031016,0.000201,0.000100,-0.000310,-1.0277,-0.9189,0.3903
12790,11.0,0.001160,0.001093,-0.030990,0.002080,-0.003097,-0.001136,-1.1301,-0.9833,0.6015,-0.00062450,-0.00027454,-0.00193445,-0.00022842,0.00016961,0.05396505,-0.1632,0.2003,-9.7307,-0.004207,-0.004464,-0.002170,36.5744,0.0300,88,0,0,0.001579,0.001716,-0.031018,0.000178,-0.000105,-0.000023,-1.0277,-0.9185,0.4505
12801,11.0,0.001168,0.001123,-0.031001,0.002060,-0.002932,-0.000767,-1.1291,-0.9840,0.6011,-0.00064200,-0.00028010,-0.00193431,-0.00023673,0.00016166,0.05396485,-0.1609,0.1856,-9.7126,-0.002314,-0.001751,-0.002351,36.5744,0.0300,94,-1,0,0.001586,0.001721,-0.030412,0.000155,0.000018,0.006835,-1.0296,-0.9203,0.4502
12812,11.0,0.001176,0.001130,-0.030458,0.002081,-0.002922,0.006022,-1.1294,-0.9856,0.6004,-0.00064693,-0.00028189,-0.00193423,-0.00026343,0.00017146,0.05162109,-0.1585,0.1801,-9.7091,-0.000745,-0.003089,-0.003393,36.5744,0.0300,90,0,0,0.001600,0.001757,-0.030277,0.000043,0.000251,0.007476,-1.0295,-0.9211,0.4506
12823,11.0,0.001209,0.001135,-0.030390,0.002184,-0.002829,0.006433,-1.1293,-0.9864,0.6000,-0.00065778,-0.00028542,-0.00193406,-0.00030274,0.00017086,0.05162161,-0.1626,0.1738,-9.7195,-0.002280,-0.000132,-0.000650,36.5744,0.0300,94,0,-1,0.001607,0.001763,-0.030200,0.000007,0.000345,0.007946,-1.0284,-0.9220,0.4493
12834,11.0,0.001242,0.001142,-0.030328,0.002363,-0.002790,0.006564,-1.1297,-0.9878,0.6000,-0.00066306,-0.00028425,-0.00193389,-0.00030932,0.00013627,0.05166589,-0.1409,0.1890,-9.7882,-0.003165,-0.003795,-0.000440,36.5744,0.0300,94,0,-1,0.001637,0.001769,-0.030043,0.000079,0.000374,0.009161,-1.0288,-0.9218,0.4494
12845,11.0,0.001250,0.001147,-0.030112,0.002405,-0.002726,0.007815,-1.1302,-0.9885,0.5998,-0.00067405,-0.00029496,-0.00193381,-0.00035314,0.00015155,0.05104860,-0.1650,0.1949,-9.9692,-0.006893,-0.006752,-0.003043,36.5744,0.0300,90,0,0,0.001674,0.001780,-0.029842,0.000204,0.000707,0.009245,-1.0291,-0.9241,0.4492
12856,11.0,0.001258,0.001154,-0.030036,0.002470,-0.002766,0.007390,-1.1317,-0.9900,0.5999,-0.00067932,-0.00029757,-0.00193375,-0.00033592,0.00011761,0.05108229,-0.1607,0.1475,-9.6674,-0.003087,-0.001456,-0.002321,36.5744,0.0310,90,0,0,0.001682,0.001786,-0.029767,0.000143,0.000785,0.008246,-1.0305,-0.9251,0.4489
12867,11.0,0.001267,0.001159,-0.029957,0.002510,-0.002776,0.007006,-1.1317,-0.9911,0.6002,-0.00069640,-0.00030869,-0.00193371,-0.00036982,0.00015574,0.05108336,-0.1609,0.1717,-9.7392,-0.001762,-0.004189,-0.000283,36.5744,0.0310,91,0,0,0.001696,0.001775,-0.030452,0.000258,0.000611,0.001407,-1.0305,-0.9259,0.4479
12878,11.0,0.001276,0.001140,-0.030465,0.002512,-0.002939,0.000093,-1.1331,-0.9928,0.6003,-0.00069853,-0.00031172,-0.00193374,-0.00031140,0.00009743,0.05352214,-0.1650,0.1840,-9.6877,-0.001513,-0.001137,-0.001776,36.4581,0.0310,91,1,0,0.001703,0.001782,-0.030404,0.000309,0.000625,0.001962,-1.0304,-0.9262,0.4481
12889,11.0,0.001259,0.001120,-0.030462,0.002388,-0.003080,0.000582,-1.1322,-0.9928,0.6014,-0.00071606,-0.00032310,-0.00193395,-0.00030260,0.00017806,0.05352331,-0.1630,0.1776,-9.7427,-0.003110,-0.002377,0.000368,36.4581,0.0310,90,1,1,0.001710,0.001764,-0.030382,0.000345,0.000703,0.002329,-1.0294,-0.9270,0.3763
12900,11.0,0.001267,0.001126,-0.030420,0.002375,-0.003129,0.001381,-1.1326,-0.9944,0.5693,-0.00072187,-0.00032560,-0.00191964,-0.00025559,0.00017422,0.05338297,-0.1711,0.1566,-9.6969,-0.004823,-0.003110,0.000259,36.4581,0.0300,91,0,0,0.001677,0.001729,-0.030092,0.000357,0.000553,0.004987,-1.0302,-0.9267,0.3777
12911,11.0,0.001250,0.001132,-0.030178,0.002235,-0.003129,0.004376,-1.1319,-0.9946,0.5697,-0.00074083,-0.00033459,-0.00191974,-0.00025304,0.00023507,0.05245576,-0.1637,0.1766,-9.7504,-0.002451,-0.001679,-0.006041,36.4581,0.0300,93,0,1,0.001684,0.001735,-0.030040,0.000306,0.000524,0.005372,-1.0303,-0.9280,0.3791
12922,11.0,0.001233,0.001163,-0.030103,0.002125,-0.003084,0.004917,-1.1322,-0.9951,0.5696,-0.00075040,-0.00034048,-0.00191966,-0.00021878,0.00017883,0.05234768,-0.1608,0.1792,-9.7415,-0.000355,-0.001231,-0.002498,36.4581,0.0300,90,-1,1,0.001668,0.001742,-0.029951,0.000224,0.000534,0.005889,-1.0301,-0.9277,0.3779
12933,11.0,0.001268,0.001197,-0.030048,0.002210,-0.003020,0.005121,-1.1306,-0.9966,0.5686,-0.00077690,-0.00034157,-0.00191946,-0.00024677,0.00021934,0.05234868,-0.1695,0.1605,-9.7562,-0.003911,-0.005657,-0.005724,36.5162,0.0320,90,-1,-1,0.001684,0.001804,-0.031136,0.000107,0.000672,-0.007615,-1.0287,-0.9269,0.3767
12944,11.0,0.001304,0.001203,-0.031073,0.002327,-0.003034,-0.007374,-1.1313,-0.9982,0.5671,-0.00078370,-0.00034052,-0.00191925,-0.00017995,0.00009966,0.05675048,-0.1627,0.1903,-9.7422,-0.005007,-0.002124,-0.001098,36.5162,0.0320,91,0,-1,0.001716,0.001836,-0.031212,0.000085,0.000712,-0.007646,-1.0288,-0.9297,0.3751
12955,11.0,0.001287,0.001209,-0.031153,0.002231,-0.002994,-0.007285,-1.1306,-0.9985,0.5670,-0.00079869,-0.00035257,-0.00191930,-0.00017990,0.00012110,0.05675069,-0.1544,0.1877,-9.7290,0.000322,-0.002335,-0.000099,36.5162,0.0290,96,0,1,0.001748,0.001842,-0.031289,0.000246,0.000704,-0.007693,-1.0296,-0.9306,0.3758
12966,11.0,0.001271,0.001190,-0.031221,0.002222,-0.003070,-0.007011,-1.1318,-0.9995,0.5670,-0.00080083,-0.00035858,-0.00191941,-0.00014511,0.00010905,0.05670184,-0.1379,0.1850,-9.7246,-0.003653,-0.001280,-0.001635,36.5162,0.0290,85,1,1,0.001740,0.001853,-0.029999,-0.000002,0.001119,0.007186,-1.0304,-0.9308,0.3765
12977,11.0,0.001254,0.001171,-0.030040,0.002196,-0.003056,0.007867,-1.1326,-0.9982,0.5671,-0.00080562,-0.00037488,-0.00191947,-0.00026308,0.00021558,0.05164668,-0.1622,0.1894,-9.7061,-0.003695,0.000840,-0.003184,36.5162,0.0290,85,1,1,0.001724,0.001837,-0.029915,0.000031,0.001143,0.007605,-1.0328,-0.9296,0.3759
12988,11.0,0.001262,0.001177,-0.029943,0.002317,-0.002996,0.008342,-1.1329,-0.9987,0.5674,-0.00081145,-0.00037734,-0.00191939,-0.00024913,0.00018199,0.05161050,-0.1578,0.1721,-9.7263,-0.001689,-0.003003,-0.000171,36.5162,0.0310,88,0,0,0.001709,0.001820,-0.029836,-0.000081,0.001097,0.008142,-1.0330,-0.9289,0.3739
13000,12.0,0.001272,0.001180,-0.029841,0.002418,-0.002954,0.008728,-1.1328,-0.9974,0.5671,-0.00082619,-0.00039199,-0.00191928,-0.00030514,0.00020121,0.05161159,-0.1518,0.1749,-9.7365,-0.002810,-0.000288,-0.002870,36.4581,0.0310,91,0,0,0.001724,0.001834,-0.030467,-0.000246,0.001066,0.000541,-1.0338,-0.9298,0.3587
13011,11.0,0.001333,0.001187,-0.030409,0.002736,-0.002945,0.001404,-1.1338,-0.9984,0.5697,-0.00083259,-0.00038760,-0.00192031,-0.00028949,0.00011422,0.05424991,-0.1431,0.1789,-9.7124,-0.004807,-0.002953,-0.001462,36.4581,0.0310,84,0,-2,0.001786,0.001848,-0.030375,-0.000079,0.001036,0.001777,-1.0343,-0.9299,0.3600
13022,11.0,0.001365,0.001193,-0.030392,0.002886,-0.002905,0.001704,-1.1334,-0.9983,0.5695,-0.00084783,-0.00039836,-0.00192013,-0.00035599,0.00013877,0.05425129,-0.1638,0.1916,-9.7273,-0.002557,-0.002786,-0.002351,36.4581,0.0290,87,0,-1,0.001838,0.001855,-0.029545,0.000173,0.001028,0.011098,-1.0351,-0.9294,0.3600
13033,11.0,0.001348,0.001175,-0.030339,0.002853,-0.002969,0.002365,-1.1346,-0.9982,0.5695,-0.00084989,-0.00040543,-0.00192028,-0.00031759,0.00012915,0.05411703,-0.1638,0.1843,-9.7373,-0.002216,0.000821,-0.002123,36.4581,0.0290,90,1,1,0.001867,0.001860,-0.029433,0.000232,0.001145,0.011366,-1.0351,-0.9300,0.3597
13044,11.0,0.001332,0.001156,-0.029589,0.002753,-0.002976,0.010995,-1.1355,-0.9975,0.5699,-0.00085658,-0.00041914,-0.00192041,-0.00036999,0.00020281,0.05128833,-0.1681,0.1908,-9.7369,-0.003840,-0.001803,-0.000106,36.4581,0.0290,94,1,1,0.001836,0.001828,-0.029166,0.000029,0.000960,0.012187,-1.0360,-0.9319,0.3586
13055,11.0,0.001341,0.001162,-0.029443,0.002745,-0.002944,0.011493,-1.1362,-0.9979,0.5703,-0.00086238,-0.00042228,-0.00192035,-0.00035361,0.00017162,0.05118672,-0.1582,0.1618,-9.7486,-0.002649,-0.002439,0.000185,36.4581,0.0310,90,0,0,0.001843,0.001834,-0.029043,0.000018,0.000964,0.012328,-1.0360,-0.9326,0.3595
13066,11.0,0.001323,0.001169,-0.029315,0.002625,-0.002908,0.011712,-1.1359,-0.9968,0.5706,-0.00087788,-0.00043493,-0.00192043,-0.00034836,0.00019629,0.05118689,-0.1577,0.1814,-9.7209,-0.004076,0.000050,-0.004808,36.4581,0.0310,91,0,1,0.001850,0.001841,-0.030237,0.000061,0.000865,-0.001421,-1.0357,-0.9328,0.3602
13077,11.0,0.001332,0.001176,-0.030161,0.002636,-0.002949,0.000657,-1.1370,-0.9966,0.5705,-0.00088443,-0.00043865,-0.00192037,-0.00026613,0.00008890,0.05497774,-0.1629,0.1666,-9.7160,-0.003843,0.001373,-0.002823,36.5162,0.0310,91,0,0,0.001815,0.001879,-0.030249,0.000113,0.000870,-0.000770,-1.0361,-0.9320,0.3590
13089,12.0,0.001367,0.001180,-0.030152,0.002770,-0.003020,0.000946,-1.1362,-0.9955,0.5704,-0.00090688,-0.00044634,-0.00192027,-0.00031687,0.00015326,0.05497957,-0.1529,0.1669,-9.7276,-0.003168,0.000335,-0.000852,36.5162,0.0290,93,0,-1,0.001822,0.001886,-0.030255,0.000178,0.000878,-0.000509,-1.0341,-0.9331,0.2166
13100,11.0,0.001399,0.001211,-0.030128,0.002927,-0.002978,0.001381,-1.1369,-0.9954,0.5695,-0.00091649,-0.00044615,-0.00192001,-0.00031836,0.00010049,0.05493340,-0.1523,0.1776,-9.7356,-0.002526,-0.002158,-0.003145,36.5162,0.0290,92,-1,-1,0.001880,0.001899,-0.029401,0.000333,0.000603,0.008136,-1.0338,-0.9337,0.2169
13111,11.0,0.001456,0.001219,-0.029495,0.003158,-0.003006,0.008768,-1.1357,-0.9947,0.5689,-0.00093681,-0.00045173,-0.00191978,-0.00043548,0.00020197,0.05257400,-0.1539,0.1750,-9.7399,-0.001133,-0.002295,-0.003056,36.5162,0.0290,89,0,-2,0.001909,0.001928,-0.029319,0.000440,0.000770,0.008370,-1.0334,-0.9344,0.2167
