timestamp_ms,dt_ms,pos_x,pos_y,pos_z,vel_x,vel_y,vel_z,roll_deg,pitch_deg,yaw_deg,gyro_bias_x,gyro_bias_y,gyro_bias_z,accel_bias_x,accel_bias_y,accel_bias_z,raw_accel_x,raw_accel_y,raw_accel_z,raw_gyro_x,raw_gyro_y,raw_gyro_z,raw_mag_x,raw_mag_y,raw_mag_z,raw_baro_alt,raw_tof,raw_flow_squal,raw_flow_dx,raw_flow_dy,dev_pos_x,dev_pos_y,dev_pos_z,dev_vel_x,dev_vel_y,dev_vel_z,dev_roll_deg,dev_pitch_deg,dev_yaw_deg
12285,10.0,0.000011,0.000060,-0.031011,0.000156,0.006882,0.000676,-0.0001,-0.0024,0.0000,0.00000000,0.00000000,0.00000000,0.00011337,-0.00013081,0.00000000,-0.1956,0.1726,-9.7347,-0.002229,-0.003305,-0.002109,-16.5693,24.4294,42.3937,27.0833,0.0310,69,0,1,-0.000060,0.000037,-0.029960,-0.001991,0.001865,0.005225,-0.8482,-1.0182,-0.0591
12296,11.0,0.000018,0.000131,-0.030999,-0.000743,0.007671,0.001507,-0.1201,-0.1368,0.0000,0.00000042,0.00000048,0.00000000,0.00010315,-0.00012159,0.00000000,-0.1855,0.1646,-9.7329,-0.002520,-0.002155,0.000389,-16.5693,24.4294,42.3937,27.0833,0.0300,69,0,1,-0.000083,0.000036,-0.029905,-0.002221,0.001962,0.005759,-0.8489,-1.0191,-0.0586
12307,11.0,0.000029,0.000131,-0.031313,-0.001516,0.005957,-0.012409,-0.1716,-0.1555,0.0000,0.00000057,0.00000052,0.00000000,0.00007187,-0.00002127,0.00000933,-0.1834,0.1531,-9.7322,-0.003293,-0.005134,-0.002202,-16.5693,24.4294,42.3937,27.0833,0.0300,72,0,0,-0.000085,0.000037,-0.029886,-0.002239,0.001868,0.005835,-0.8635,-1.0293,-0.0582
12318,11.0,0.000031,0.000066,-0.030020,-0.002115,0.003238,0.031147,-0.3484,-0.2783,0.0000,0.00000159,0.00000141,0.00000000,0.00002501,0.00019680,-0.00002589,-0.1961,0.1629,-9.7134,-0.002897,-0.003293,-0.002423,-16.5693,24.4294,42.3937,27.0833,0.0300,68,0,-1,-0.000064,0.000036,-0.029769,-0.001954,0.001946,0.007101,-0.8686,-1.0383,-0.0588
12329,11.0,0.000040,-0.000004,-0.029694,-0.002739,0.001538,0.031428,-0.4529,-0.3193,0.0000,0.00000216,0.00000162,0.00000000,-0.00005888,0.00042650,-0.00001739,-0.1979,0.1620,-9.7306,-0.004943,-0.006245,-0.002244,-16.5693,24.4294,42.3937,27.0833,0.0310,63,0,-1,-0.000042,0.000037,-0.030483,-0.001766,0.001860,-0.001037,-0.8741,-1.0465,-0.0598
12340,11.0,0.000103,0.000066,-0.029343,-0.001348,0.003340,0.032424,-0.4560,-0.4908,0.0000,0.00000247,0.00000326,0.00000000,-0.00030271,0.00030554,-0.00001699,-0.1878,0.1658,-9.7157,-0.004359,-0.000574,-0.003915,-16.5693,24.4294,42.3937,27.0833,0.0310,66,1,1,-0.000018,0.000036,-0.030499,-0.001762,0.001902,-0.000563,-0.8755,-1.0487,-0.0599
12351,11.0,0.000106,0.000069,-0.030667,-0.001777,0.003295,0.002364,-0.5063,-0.5260,0.0000,0.00000288,0.00000353,0.00000000,-0.00036593,0.00041108,0.00093904,-0.1781,0.1609,-9.7216,-0.003019,-0.003909,-0.000290,-16.5693,24.4294,42.3937,27.0833,0.0310,71,0,0,-0.000043,0.000013,-0.030512,-0.001758,0.001779,0.000444,-0.8841,-1.0493,-0.0606
12362,11.0,0.000040,0.000076,-0.030638,-0.003421,0.003111,0.003011,-0.5846,-0.5238,0.0000,0.00000404,0.00000391,0.00000000,-0.00022668,0.00050405,0.00093878,-0.1844,0.1701,-9.7473,-0.003772,-0.001884,-0.002457,-16.5693,24.4294,42.3937,27.0833,0.0300,72,-1,0,-0.000067,0.000013,-0.030504,-0.001806,0.001713,0.001062,-0.8851,-1.0514,-0.0598
12373,11.0,-0.000022,0.000080,-0.030620,-0.004941,0.003085,0.003506,-0.6274,-0.5031,0.0000,0.00000459,0.00000361,0.00000000,-0.00016372,0.00061717,0.00097101,-0.1856,0.1733,-9.7341,-0.002130,-0.003297,-0.003594,-16.5693,24.4294,42.3937,27.0833,0.0300,72,-1,0,-0.000067,0.000036,-0.030162,-0.001798,0.001901,0.005084,-0.8853,-1.0512,-0.0604
12384,11.0,0.000085,0.000088,-0.030166,-0.001692,0.002717,0.009838,-0.6763,-0.7328,0.0000,0.00000556,0.00000764,0.00000000,-0.00071276,0.00070969,0.00020483,-0.1859,0.1493,-9.7484,-0.002028,-0.001856,-0.000348,-16.5634,22.7890,43.4248,27.0833,0.0300,68,2,0,-0.000044,0.000060,-0.030061,-0.001732,0.001847,0.005861,-0.8906,-1.0499,0.0611
12395,11.0,0.000084,0.000093,-0.030043,-0.001916,0.002582,0.010673,-0.7103,-0.7606,0.0000,0.00000616,0.00000812,0.00000000,-0.00079134,0.00080696,0.00017261,-0.1957,0.1654,-9.7446,-0.002647,-0.002751,-0.000563,-16.5634,22.7890,43.4248,27.0252,0.0310,72,0,0,-0.000045,0.000015,-0.029984,-0.001679,0.001595,0.006466,-0.8921,-1.0514,0.0618
12406,11.0,0.000080,0.000099,-0.029922,-0.001838,0.002320,0.011381,-0.7521,-0.7985,0.0000,0.00000725,0.00000923,0.00000000,-0.00083651,0.00087296,0.00017360,-0.1818,0.1636,-9.7419,-0.004617,-0.001629,-0.001065,-16.5634,22.7890,43.4248,27.0252,0.0310,71,0,0,-0.000045,0.000014,-0.030582,-0.001819,0.001660,-0.000380,-0.8926,-1.0517,0.0620
12417,11.0,0.000078,0.000104,-0.030540,-0.001805,0.002083,0.003101,-0.7824,-0.8300,0.0000,0.00000789,0.00000988,0.00000000,-0.00087394,0.00091422,0.00311139,-0.1874,0.1604,-9.7357,-0.003901,-0.004066,-0.002109,-16.5634,22.7890,43.4248,27.0252,0.0310,71,0,0,-0.000045,0.000014,-0.030567,-0.001764,0.001719,0.000805,-0.8988,-1.0533,0.0603
12428,11.0,0.000016,0.000110,-0.030503,-0.003211,0.001800,0.003595,-0.8056,-0.8065,0.0000,0.00000868,0.00000958,0.00000000,-0.00070862,0.00096600,0.00311025,-0.2027,0.1530,-9.7589,-0.001344,-0.000996,0.000222,-16.5634,22.7890,43.4248,27.0252,0.0300,68,-1,0,-0.000046,0.000014,-0.030557,-0.001722,0.001673,0.001301,-0.9015,-1.0567,0.0601
12439,11.0,0.000068,0.000113,-0.030447,-0.001685,0.001633,0.004500,-0.8238,-0.8926,0.0000,0.00000925,0.00001257,0.00000000,-0.00100262,0.00102337,0.00303544,-0.1917,0.1597,-9.7350,-0.003167,-0.002791,-0.003730,-16.5634,22.7890,43.4248,27.0252,0.0300,76,1,0,-0.000046,0.000015,-0.030142,-0.001832,0.001598,0.005952,-0.9049,-1.0570,0.0612
12450,11.0,0.000064,0.000178,-0.030743,-0.001606,0.002744,0.001233,-0.7906,-0.9178,0.0000,0.00000790,0.00001379,0.00000000,-0.00099438,0.00084107,0.00524136,-0.1923,0.1539,-9.7303,-0.001956,-0.001269,0.000821,-16.5634,22.7890,43.4248,27.0622,0.0310,67,0,1,-0.000069,0.000014,-0.030081,-0.001981,0.001623,0.006437,-0.9054,-1.0566,0.0609
12461,11.0,0.000183,0.000184,-0.030727,0.001002,0.002465,0.002006,-0.8125,-1.0318,0.0000,0.00000890,0.00001916,0.00000000,-0.00141030,0.00091805,0.00525906,-0.2018,0.1620,-9.7280,-0.001737,-0.003017,0.001263,-16.5634,22.7890,43.4248,27.0622,0.0310,71,2,0,-0.000094,0.000014,-0.030552,-0.002026,0.001566,0.000747,-0.9052,-1.0590,0.0613
12472,11.0,0.000188,0.000190,-0.030702,0.000715,0.002109,0.002601,-0.8308,-1.0338,0.0000,0.00000999,0.00001930,0.00000000,-0.00137964,0.00097104,0.00525907,-0.1976,0.1521,-9.7474,-0.000526,-0.004100,-0.003417,-16.5634,22.7890,43.4248,27.0622,0.0310,71,0,0,-0.000095,-0.000034,-0.030529,-0.002101,0.001351,0.001668,-0.9058,-1.0642,0.0633
12483,11.0,0.000069,0.000195,-0.030852,-0.002188,0.001695,0.001096,-0.8446,-0.9467,0.0000,0.00001079,0.00001370,0.00000000,-0.00100878,0.00099742,0.00678320,-0.2005,0.1398,-9.7445,-0.001054,0.001090,-0.001885,-15.3331,23.6097,43.4216,27.0622,0.0310,75,-2,0,-0.000096,-0.000035,-0.030511,-0.002059,0.001316,0.002035,-0.9026,-1.0672,-0.0659
12494,11.0,-0.000057,0.000199,-0.030835,-0.004711,0.001534,0.001896,-0.8588,-0.8895,0.0000,0.00001184,0.00000987,0.00000000,-0.00070489,0.00102675,0.00678108,-0.2141,0.1631,-9.7274,-0.002875,-0.001007,-0.004053,-15.3331,23.6097,43.4216,27.0622,0.0310,75,-2,0,-0.000097,0.000013,-0.030488,-0.002023,0.001416,0.002450,-0.8976,-1.0693,-0.0669
12505,11.0,-0.000064,0.000141,-0.030814,-0.004487,0.000071,0.002385,-0.9063,-0.9212,0.0000,0.00001572,0.00001239,0.00000000,-0.00082782,0.00121587,0.00680625,-0.2218,0.1526,-9.7522,-0.002994,-0.003087,-0.000211,-15.3331,23.6097,43.4216,27.0622,0.0310,73,0,-1,-0.000121,0.000060,-0.030810,-0.002268,0.001520,-0.000499,-0.8948,-1.0743,-0.0664
12516,11.0,-0.000073,0.000141,-0.030899,-0.004014,0.000005,0.001832,-0.9085,-0.9518,0.0000,0.00001565,0.00001553,0.00000000,-0.00087637,0.00120598,0.00792432,-0.1983,0.1501,-9.7250,-0.003132,-0.002630,0.000977,-15.3331,23.6097,43.4216,27.0622,0.0310,73,0,0,-0.000097,0.000060,-0.030816,-0.002332,0.001449,-0.000135,-0.8957,-1.0751,-0.0663
12527,11.0,-0.000079,0.000078,-0.030877,-0.003444,-0.001222,0.002471,-0.9438,-0.9757,0.0000,0.00001928,0.00001783,0.00000000,-0.00096778,0.00135019,0.00794374,-0.1802,0.1533,-9.7390,-0.003882,-0.004724,-0.000804,-15.3331,23.6097,43.4216,27.0622,0.0310,70,0,-1,-0.000074,0.000060,-0.030921,-0.002298,0.001326,-0.000554,-0.8967,-1.0782,-0.0645
12538,11.0,-0.000085,0.000075,-0.030846,-0.003263,-0.000996,0.003199,-0.9410,-0.9961,0.0000,0.00001875,0.00002076,0.00000000,-0.00100467,0.00132441,0.00794293,-0.2136,0.1659,-9.7321,-0.002771,-0.000172,-0.002208,-15.3331,23.6097,43.4216,26.9697,0.0310,67,0,0,-0.000050,0.000059,-0.030898,-0.002151,0.001275,0.000203,-0.8963,-1.0799,-0.0646
12549,11.0,-0.000091,0.000072,-0.030891,-0.002989,-0.000786,0.002682,-0.9410,-1.0123,0.0000,0.00001828,0.00002291,0.00000000,-0.00105854,0.00129623,0.00877873,-0.2008,0.1689,-9.7563,-0.005055,-0.001261,-0.000516,-15.3331,23.6097,43.4216,26.9697,0.0310,67,0,0,-0.000050,0.000059,-0.030893,-0.002293,0.001325,0.000660,-0.8964,-1.0794,-0.0649
12561,12.0,-0.000097,0.000069,-0.030855,-0.002779,-0.000579,0.003322,-0.9393,-1.0319,0.0000,0.00001804,0.00002584,0.00000000,-0.00109556,0.00127513,0.00877784,-0.2079,0.1704,-9.7442,-0.000490,-0.004718,-0.001004,-15.3331,23.6097,43.4216,26.9697,0.0310,68,0,0,-0.000051,0.000058,-0.030927,-0.002225,0.001485,0.000512,-0.9007,-1.0814,-0.0655
12572,11.0,-0.000101,0.000068,-0.030781,-0.002535,-0.000599,0.004367,-0.9377,-1.0438,0.0000,0.00001759,0.00002788,0.00000000,-0.00115688,0.00126881,0.00842269,-0.1989,0.1496,-9.7407,-0.001472,-0.000972,-0.003033,-15.3331,23.6097,43.4216,26.9697,0.0310,73,0,0,-0.000052,0.000058,-0.030920,-0.002207,0.001488,0.000885,-0.9033,-1.0856,-0.0656
12583,11.0,-0.000104,0.000066,-0.030876,-0.002397,-0.000534,0.003186,-0.9380,-1.0580,0.0000,0.00001717,0.00003071,0.00000000,-0.00114850,0.00123775,0.00990608,-0.2123,0.1590,-9.7472,-0.003406,-0.002246,-0.002012,-17.3846,24.4280,42.3980,26.9697,0.0310,66,0,0,-0.000051,0.000058,-0.030876,-0.002323,0.001413,0.001654,-0.9034,-1.0853,-0.0667
12594,11.0,-0.000107,0.000064,-0.030828,-0.002047,-0.000299,0.004011,-0.9382,-1.0679,0.0000,0.00001694,0.00003262,0.00000000,-0.00119319,0.00123421,0.00981151,-0.1854,0.1778,-9.7319,-0.001954,-0.002098,0.001342,-17.3846,24.4280,42.3980,27.0252,0.0320,73,0,0,-0.000052,0.000057,-0.030817,-0.002317,0.001580,0.002450,-0.9043,-1.0881,-0.0015
12606,12.0,-0.000245,0.000064,-0.030774,-0.003935,-0.000484,0.004907,-0.9349,-1.0318,0.0000,0.00001579,0.00002299,0.00000000,-0.00098849,0.00125601,0.00981169,-0.1834,0.1360,-9.7230,-0.000079,-0.003729,-0.002463,-17.3846,24.4280,42.3980,27.0252,0.0320,68,-2,0,-0.000053,0.000107,-0.031627,-0.002267,0.001731,-0.004979,-0.9064,-1.0881,-0.0007
12617,11.0,-0.000183,0.000064,-0.031426,-0.002513,-0.000622,-0.003097,-0.9340,-1.0689,0.0000,0.00001523,0.00003283,0.00000000,-0.00103496,0.00113385,0.01678327,-0.2087,0.1390,-9.7628,-0.001510,-0.001730,-0.000466,-17.3846,24.4280,42.3980,27.0252,0.0320,66,1,0,-0.000054,0.000156,-0.031662,-0.002213,0.001803,-0.004457,-0.9031,-1.0890,-0.0014
12628,11.0,-0.000186,0.000062,-0.031457,-0.002450,-0.000462,-0.002555,-0.9341,-1.0792,0.0000,0.00001499,0.00003613,0.00000000,-0.00104710,0.00111828,0.01678235,-0.2188,0.1685,-9.7401,-0.001900,-0.000700,-0.001474,-17.3846,24.4280,42.3980,27.0252,0.0310,69,0,0,-0.000054,0.000131,-0.031705,-0.002314,0.001608,-0.004279,-0.9032,-1.0890,-0.0004
12639,11.0,-0.000122,0.000060,-0.031471,-0.001243,-0.000313,-0.002007,-0.9366,-1.1079,0.0000,0.00001476,0.00004519,0.00000000,-0.00119733,0.00111651,0.01666267,-0.2075,0.1706,-9.7531,-0.004988,-0.002520,-0.003936,-17.3846,24.4280,42.3980,27.0252,0.0310,65,1,0,-0.000055,0.000107,-0.031262,-0.002348,0.001513,0.001485,-0.9042,-1.0933,-0.0001
12650,11.0,-0.000122,0.000058,-0.031212,-0.001000,-0.000093,0.001899,-0.9399,-1.1134,0.0000,0.00001527,0.00004640,0.00000000,-0.00127575,0.00113670,0.01402407,-0.1862,0.1815,-9.7335,-0.003968,-0.003389,-0.002701,-17.3846,24.4280,42.3980,27.0252,0.0310,70,0,0,-0.000055,0.000107,-0.031245,-0.002300,0.001555,0.001724,-0.9092,-1.0941,-0.0011
12662,12.0,-0.000122,0.000126,-0.031177,-0.000784,0.000746,0.002575,-0.9236,-1.1188,0.0000,0.00000763,0.00004762,0.00000000,-0.00129472,0.00103091,0.01393288,-0.1875,0.1405,-9.7464,-0.003827,-0.003338,-0.001478,-17.3846,24.4280,42.3980,27.0252,0.0320,74,0,1,-0.000056,0.000106,-0.031638,-0.002235,0.001765,-0.002529,-0.9100,-1.0946,-0.0014
12673,11.0,-0.000122,0.000127,-0.031145,-0.000669,0.000625,0.003111,-0.9266,-1.1221,0.0000,0.00000839,0.00004863,0.00000000,-0.00130582,0.00104303,0.01393303,-0.1933,0.1571,-9.7442,-0.001980,-0.001604,-0.001751,-16.1543,22.7895,42.9091,27.0252,0.0320,69,0,0,-0.000082,0.000105,-0.031672,-0.002252,0.001503,-0.001722,-0.9091,-1.0979,0.0011
12684,11.0,-0.000122,0.000128,-0.031593,-0.000444,0.000598,-0.002057,-0.9290,-1.1253,0.0000,0.00000919,0.00004951,0.00000000,-0.00122592,0.00098105,0.01836049,-0.1811,0.1655,-9.7417,-0.001216,-0.002035,0.000559,-16.1543,22.7895,42.9091,27.0252,0.0320,73,0,0,-0.000082,0.000105,-0.031687,-0.002220,0.001417,-0.001404,-0.9094,-1.0974,0.0494
12695,11.0,-0.000122,0.000128,-0.031613,-0.000318,0.000538,-0.001465,-0.9318,-1.1275,0.0000,0.00001002,0.00004995,0.00000000,-0.00123895,0.00098655,0.01836070,-0.1878,0.1621,-9.7347,-0.001855,-0.002002,-0.000162,-16.1543,22.7895,42.9091,27.0252,0.0300,73,0,0,-0.000082,0.000105,-0.031699,-0.002150,0.001378,-0.001034,-0.9090,-1.0981,0.0502
12706,11.0,-0.000121,0.000130,-0.031613,-0.000202,0.000264,-0.000545,-0.9332,-1.1300,0.0000,0.00001041,0.00005045,0.00000000,-0.00124662,0.00099258,0.01825039,-0.1876,0.1385,-9.7186,-0.001149,-0.002418,-0.000236,-16.1543,22.7895,42.9091,27.0252,0.0300,65,0,0,-0.000083,0.000128,-0.030484,-0.002039,0.001389,0.011958,-0.9087,-1.0980,0.0500
12717,11.0,-0.000120,0.000130,-0.030716,-0.000193,0.000374,0.010776,-0.9356,-1.1326,0.0000,0.00001141,0.00005096,0.00000000,-0.00140539,0.00110985,0.01033911,-0.1981,0.1762,-9.7248,-0.001446,-0.002925,-0.002428,-16.1543,22.7895,42.9091,27.0252,0.0300,66,0,0,-0.000084,0.000127,-0.030350,-0.001994,0.001296,0.012692,-0.9063,-1.0987,0.0505
12728,11.0,-0.000118,0.000129,-0.030595,-0.000171,0.000404,0.011387,-0.9381,-1.1348,0.0000,0.00001206,0.00005146,0.00000000,-0.00140991,0.00111593,0.01035587,-0.1970,0.1693,-9.7387,-0.002338,-0.002239,-0.001972,-16.1543,22.7895,42.9091,27.0622,0.0310,74,0,0,-0.000084,0.000126,-0.030639,-0.002040,0.001334,0.007770,-0.9063,-1.1007,0.0519
12739,11.0,-0.000116,0.000129,-0.030466,-0.000078,0.000329,0.012173,-0.9412,-1.1378,0.0000,0.00001259,0.00005186,0.00000000,-0.00141989,0.00112381,0.01035613,-0.1905,0.1590,-9.7250,-0.003583,-0.003728,-0.001775,-16.1543,22.7895,42.9091,27.0622,0.0310,75,0,0,-0.000084,0.000126,-0.030561,-0.002064,0.001384,0.008207,-0.9064,-1.1006,0.0520
12750,11.0,-0.000046,0.000130,-0.030695,0.000876,0.000261,0.008341,-0.9437,-1.1547,0.0000,0.00001310,0.00006221,0.00000000,-0.00144848,0.00107730,0.01347230,-0.1990,0.1596,-9.7516,-0.002921,-0.004888,-0.002001,-16.1543,22.7895,42.9091,27.0622,0.0310,74,1,0,-0.000085,0.000125,-0.030477,-0.002032,0.001393,0.008695,-0.9086,-1.1019,0.0516
12761,11.0,-0.000041,0.000129,-0.030597,0.000706,0.000243,0.009408,-0.9463,-1.1568,0.0000,0.00001363,0.00006183,0.00000000,-0.00143306,0.00107963,0.01347208,-0.2073,0.1635,-9.6960,-0.003073,-0.004062,0.000365,-16.1543,22.7895,42.9091,27.0622,0.0300,69,0,0,-0.000085,0.000100,-0.030114,-0.002136,0.001349,0.011443,-0.9105,-1.1070,0.0500
12772,11.0,0.000027,0.000129,-0.030493,0.001454,0.000279,0.010005,-0.9496,-1.1692,0.0000,0.00001423,0.00007122,0.00000000,-0.00150675,0.00108403,0.01349396,-0.2062,0.1702,-9.7359,-0.004237,-0.002290,-0.000647,-16.1543,22.7895,42.9091,27.0622,0.0300,67,1,0,-0.000085,0.000075,-0.029996,-0.002289,0.001328,0.012152,-0.9109,-1.1088,0.0516
12783,11.0,0.000029,0.000130,-0.030164,0.001305,0.000156,0.013243,-0.9494,-1.1672,0.0000,0.00001413,0.00006890,0.00000000,-0.00152923,0.00112629,0.01172101,-0.1968,0.1530,-9.7294,0.000339,-0.000676,-0.000474,-15.7392,23.6087,42.6536,27.0622,0.0300,70,0,0,-0.000085,0.000052,-0.029746,-0.002358,0.001278,0.012995,-0.9115,-1.1095,-0.0091
12794,11.0,-0.000033,-0.000073,-0.030017,0.000289,-0.002404,0.013925,-0.9877,-1.1570,0.0000,0.00004798,0.00005634,0.00000000,-0.00143883,0.00136893,0.01174077,-0.1986,0.1826,-9.7304,-0.005439,-0.004195,-0.003222,-15.7392,23.6087,42.6536,27.0622,0.0310,64,-1,-3,-0.000086,0.000052,-0.030443,-0.002324,0.001243,0.004196,-0.9118,-1.1101,-0.0092
12805,11.0,-0.000097,-0.000077,-0.029860,-0.000593,-0.002147,0.014562,-0.9866,-1.1473,0.0000,0.00004407,0.00004468,0.00000000,-0.00136198,0.00134716,0.01173945,-0.1952,0.1655,-9.7370,-0.004199,-0.002450,-0.003193,-15.7392,23.6087,42.6536,27.0622,0.0310,72,-1,0,-0.000014,0.000074,-0.030399,-0.002099,0.001506,0.004613,-0.9130,-1.1122,-0.0106
12816,11.0,-0.000165,-0.000080,-0.030402,-0.001437,-0.002021,0.006726,-0.9829,-1.1383,0.0000,0.00004030,0.00003416,0.00000000,-0.00117963,0.00122773,0.01741062,-0.2001,0.1544,-9.7507,0.000396,-0.001131,-0.001305,-15.7392,23.6087,42.6536,27.0252,0.0310,69,-1,0,-0.000014,0.000122,-0.030285,-0.002146,0.001490,0.005538,-0.9146,-1.1145,-0.0122
12827,11.0,-0.000165,0.000047,-0.030324,-0.001163,-0.000100,0.007379,-0.9599,-1.1421,0.0000,0.00001323,0.00003643,0.00000000,-0.00120556,0.00106347,0.01740817,-0.1872,0.1627,-9.7301,-0.000454,-0.002770,-0.000325,-15.7392,23.6087,42.6536,27.0252,0.0300,73,0,2,-0.000014,0.000145,-0.030085,-0.002113,0.001481,0.007420,-0.9124,-1.1149,-0.0116
12838,11.0,-0.000165,0.000111,-0.030227,-0.000901,0.000895,0.008397,-0.9515,-1.1465,0.0000,0.00000134,0.00003875,0.00000000,-0.00122135,0.00099344,0.01731442,-0.1864,0.1776,-9.7093,-0.001967,-0.003839,-0.002849,-15.7392,23.6087,42.6536,27.0252,0.0300,76,0,1,-0.000062,0.000145,-0.030000,-0.002186,0.001464,0.007958,-0.9115,-1.1145,-0.0106
12849,11.0,-0.000036,0.000112,-0.030054,0.001099,0.000753,0.009711,-0.9538,-1.1674,0.0000,0.00000283,0.00006420,0.00000000,-0.00140988,0.00101683,0.01670201,-0.1789,0.1603,-9.7544,-0.001791,-0.001881,-0.000694,-15.7392,23.6087,42.6536,27.0252,0.0300,70,2,0,-0.000085,0.000097,-0.029828,-0.002252,0.001335,0.009061,-0.9139,-1.1153,-0.0104
12860,11.0,0.000035,0.000112,-0.029935,0.001860,0.000712,0.010362,-0.9567,-1.1773,0.0000,0.00000443,0.00007567,0.00000000,-0.00147496,0.00102698,0.01663371,-0.2007,0.1694,-9.7402,-0.002745,-0.002424,-0.001968,-15.7392,23.6087,42.6536,27.0252,0.0310,64,1,0,-0.000086,0.000049,-0.030483,-0.002167,0.001157,0.000924,-0.9143,-1.1152,-0.0098
12871,11.0,0.000039,0.000113,-0.029817,0.001725,0.000606,0.011166,-0.9595,-1.1754,0.0000,0.00000579,0.00007181,0.00000000,-0.00146620,0.00103677,0.01663379,-0.1929,0.1623,-9.7171,-0.003046,-0.001031,-0.004983,-15.7392,23.6087,42.6536,27.0622,0.0310,64,0,0,-0.000086,0.000024,-0.030472,-0.002137,0.001169,0.001135,-0.9144,-1.1150,-0.0090
12883,12.0,0.000046,0.000115,-0.030409,0.001575,0.000388,0.003061,-0.9602,-1.1775,0.0000,0.00000669,0.00006911,0.00000000,-0.00134227,0.00094678,0.02220256,-0.2003,0.1510,-9.7524,-0.000057,-0.005627,0.001933,-15.3301,23.6092,42.6521,27.0622,0.0310,72,0,0,-0.000088,0.000022,-0.030443,-0.002015,0.001444,0.001855,-0.9147,-1.1181,-0.1037
12894,11.0,0.000051,0.000115,-0.030371,0.001329,0.000260,0.003748,-0.9623,-1.1774,0.0000,0.00000708,0.00006676,0.00000000,-0.00132062,0.00095949,0.02220237,-0.2095,0.1564,-9.7219,-0.002992,-0.002209,-0.001899,-15.3301,23.6092,42.6521,27.0622,0.0300,72,0,0,-0.000088,0.000021,-0.030424,-0.002003,0.001390,0.001995,-0.9142,-1.1201,-0.1024
12905,11.0,0.000054,0.000115,-0.030330,0.001154,0.000287,0.004272,-0.9627,-1.1769,0.0000,0.00000774,0.00006427,0.00000000,-0.00130841,0.00096232,0.02222179,-0.2044,0.1709,-9.7339,0.000125,-0.001479,-0.001953,-15.3301,23.6092,42.6521,27.0622,0.0300,67,0,0,-0.000088,0.000020,-0.030080,-0.002141,0.001387,0.005857,-0.9152,-1.1228,-0.1018
12917,12.0,-0.000008,0.000116,-0.030116,0.000090,0.000192,0.006669,-0.9645,-1.1691,0.0000,0.00000810,0.00004809,0.00000000,-0.00124491,0.00099067,0.02103404,-0.2115,0.1597,-9.7397,-0.002396,-0.002017,-0.001847,-15.3301,23.6092,42.6521,27.0622,0.0300,67,-1,0,-0.000088,0.000020,-0.030022,-0.002151,0.001414,0.006220,-0.9145,-1.1230,-0.1018
12928,11.0,-0.000074,0.000115,-0.030042,-0.000584,0.000230,0.007097,-0.9669,-1.1643,0.0000,0.00000881,0.00003284,0.00000000,-0.00117754,0.00099349,0.02104832,-0.1845,0.1725,-9.7446,-0.003131,-0.005485,-0.005503,-15.3301,23.6092,42.6521,27.0622,0.0310,72,-1,0,-0.000089,0.000066,-0.030564,-0.002117,0.001656,-0.000292,-0.9133,-1.1237,-0.1013
12939,11.0,-0.000074,0.000115,-0.029962,-0.000320,0.000197,0.007424,-0.9702,-1.1658,0.0000,0.00000956,0.00003322,0.00000000,-0.00120477,0.00099590,0.02104891,-0.1816,0.1666,-9.7562,-0.004598,-0.001905,-0.000483,-15.3301,23.6092,42.6521,27.0622,0.0310,74,0,0,-0.000090,0.000089,-0.030567,-0.002059,0.001745,-0.000001,-0.9149,-1.1253,-0.1029
12950,11.0,-0.000138,0.000116,-0.029953,-0.000907,-0.000020,0.007040,-0.9710,-1.1619,0.0000,0.00000957,0.00001868,0.00000000,-0.00113385,0.00098660,0.02159913,-0.1832,0.1467,-9.7408,-0.001316,-0.005272,-0.000922,-15.3301,23.6092,42.6521,27.1177,0.0300,68,-1,0,-0.000090,0.000089,-0.030566,-0.001946,0.001779,0.000153,-0.9158,-1.1252,-0.1025
12961,11.0,-0.000137,0.000115,-0.029872,-0.000768,-0.000044,0.007690,-0.9726,-1.1656,0.0000,0.00000946,0.00002140,0.00000000,-0.00114517,0.00098946,0.02159940,-0.1991,0.1640,-9.7260,-0.002598,-0.003896,-0.002876,-15.3301,23.6092,42.6521,27.1177,0.0300,69,0,0,-0.000091,0.000111,-0.030224,-0.001729,0.001888,0.004142,-0.9172,-1.1263,-0.1029
12973,12.0,-0.000136,0.000048,-0.029800,-0.000619,-0.000942,0.007990,-0.9833,-1.1689,0.0000,0.00002587,0.00002375,0.00000000,-0.00115070,0.00104965,0.02177990,-0.1971,0.1605,-9.7359,-0.004631,-0.003147,-0.001370,-15.3301,23.6092,42.6521,27.1177,0.0300,67,0,-1,-0.000068,0.000111,-0.030181,-0.001654,0.001854,0.004540,-0.9180,-1.1280,-0.1034
12984,11.0,-0.000003,-0.000021,-0.029865,0.001311,-0.001756,0.006663,-0.9909,-1.1850,0.0000,0.00003961,0.00005751,0.00000000,-0.00128683,0.00109867,0.02289538,-0.1801,0.1583,-9.7408,-0.002446,-0.002007,-0.001216,-15.7422,24.0191,42.9091,27.1177,0.0300,77,2,-1,-0.000045,0.000111,-0.030161,-0.001516,0.001796,0.004618,-0.9186,-1.1282,-0.1039
12995,11.0,0.000001,0.000045,-0.029807,0.001381,-0.000688,0.006979,-0.9840,-1.1856,0.0000,0.00001784,0.00005430,0.00000000,-0.00127249,0.00101722,0.02302728,-0.1829,0.1720,-9.7352,-0.003635,-0.003153,0.000526,-15.7422,24.0191,42.9091,27.1177,0.0310,68,0,1,-0.000023,0.000063,-0.030670,-0.001287,0.001648,-0.001625,-0.9193,-1.1295,-0.1738
13006,11.0,0.000003,0.000044,-0.029728,0.001420,-0.000677,0.007411,-0.9851,-1.1851,0.0000,0.00001572,0.00004973,0.00000000,-0.00128322,0.00101917,0.02302751,-0.1841,0.1620,-9.7447,-0.003042,-0.002081,-0.002308,-15.7422,24.0191,42.9091,27.0252,0.0310,66,0,0,-0.000048,0.000062,-0.030697,-0.001095,0.001732,-0.001048,-0.9222,-1.1289,-0.1727
13018,12.0,0.000008,0.000041,-0.029825,0.001521,-0.000405,0.005984,-0.9868,-1.1857,0.0000,0.00001467,0.00004587,0.00000000,-0.00124389,0.00099332,0.02436407,-0.1798,0.1873,-9.7166,-0.003121,-0.003062,-0.003125,-15.7422,24.0191,42.9091,27.0252,0.0300,66,0,0,-0.000048,0.000062,-0.030301,-0.001060,0.001660,0.003834,-0.9222,-1.1284,-0.1728
13029,11.0,0.000011,0.000040,-0.029757,0.001351,-0.000302,0.006316,-0.9889,-1.1859,0.0000,0.00001427,0.00004246,0.00000000,-0.00123046,0.00098393,0.02436362,-0.2049,0.1760,-9.7517,-0.003518,-0.002348,-0.001986,-15.7422,24.0191,42.9091,27.0252,0.0300,66,0,0,-0.000049,0.000061,-0.030260,-0.000902,0.001828,0.004333,-0.9224,-1.1286,-0.1733
13040,11.0,-0.000053,0.000040,-0.029674,0.000352,-0.000354,0.006999,-0.9890,-1.1790,0.0000,0.00001323,0.00002074,0.00000000,-0.00116165,0.00098186,0.02428200,-0.2074,0.1606,-9.7323,-0.000796,-0.001486,-0.007054,-15.7422,24.0191,42.9091,27.0252,0.0300,68,-1,0,-0.000048,0.000084,-0.030156,-0.001101,0.001835,0.005033,-0.9247,-1.1289,-0.1743
13051,11.0,-0.000051,0.000040,-0.030362,0.000397,-0.000514,-0.001444,-0.9884,-1.1802,0.0000,0.00001048,0.00001947,0.00000000,-0.00106578,0.00091277,0.02957511,-0.1950,0.1483,-9.7317,-0.000547,-0.002675,-0.002485,-15.7422,24.0191,42.9091,27.0252,0.0310,66,0,0,-0.000048,0.000084,-0.030103,-0.001145,0.001732,0.005463,-0.9230,-1.1296,-0.1758
13062,11.0,-0.000049,0.000039,-0.030366,0.000595,-0.000498,-0.000738,-0.9907,-1.1822,0.0000,0.00000917,0.00001850,0.00000000,-0.00106399,0.00090979,0.02951311,-0.1802,0.1656,-9.7228,-0.004295,-0.003685,-0.005231,-15.7422,24.0191,42.9091,27.0252,0.0310,72,0,0,-0.000048,0.000085,-0.030641,-0.001080,0.001536,-0.000566,-0.9227,-1.1293,-0.1763
13073,11.0,-0.000047,0.000040,-0.030373,0.000542,-0.000790,-0.000458,-0.9896,-1.1825,0.0000,0.00000461,0.00001704,0.00000000,-0.00105990,0.00094784,0.02951361,-0.2023,0.1334,-9.7521,-0.000793,-0.001190,-0.002912,-16.5752,24.4303,42.9045,27.0252,0.0310,69,0,0,-0.000049,0.000084,-0.030635,-0.000875,0.001481,0.000059,-0.9232,-1.1289,-0.1785
13084,11.0,0.000023,0.000038,-0.030157,0.001358,-0.000734,0.002507,-0.9899,-1.1907,0.0000,0.00000236,0.00003582,0.00000000,-0.00114344,0.00096635,0.02803282,-0.1976,0.1664,-9.7412,-0.001682,-0.003450,-0.004858,-16.5752,24.4303,42.9045,27.0252,0.0300,73,1,0,-0.000049,0.000084,-0.030633,-0.000888,0.001330,0.000223,-0.9205,-1.1291,-0.1934
13095,11.0,0.000093,0.000037,-0.030127,0.002014,-0.000779,0.002901,-0.9919,-1.1970,0.0000,-0.00000060,0.00005244,0.00000000,-0.00119069,0.00097425,0.02803401,-0.2047,0.1571,-9.7428,-0.004575,-0.001906,-0.003997,-16.5752,24.4303,42.9045,26.9697,0.0300,73,1,0,-0.000049,0.000061,-0.030240,-0.000966,0.001235,0.004661,-0.9198,-1.1293,-0.1951
13106,11.0,0.000097,0.000036,-0.030061,0.001831,-0.000674,0.003596,-0.9926,-1.1966,0.0000,-0.00000272,0.00004682,0.00000000,-0.00117935,0.00097202,0.02781300,-0.2022,0.1723,-9.7504,-0.002124,-0.001989,-0.003271,-16.5752,24.4303,42.9045,26.9697,0.0300,69,0,0,-0.000096,-0.000010,-0.030113,-0.001199,0.001014,0.005479,-0.9212,-1.1300,-0.1955
13117,11.0,0.000034,0.000034,-0.030003,0.000956,-0.000609,0.004200,-0.9953,-1.1901,0.0000,-0.00000448,0.00002017,0.00000000,-0.00112276,0.00096950,0.02769941,-0.1938,0.1701,-9.7419,-0.005220,-0.001976,-0.004717,-16.5752,24.4303,42.9045,26.9697,0.0300,66,-1,0,-0.000096,-0.000011,-0.030016,-0.001197,0.001036,0.006126,-0.9221,-1.1307,-0.1961
13128,11.0,0.000037,0.000034,-0.029930,0.000773,-0.000779,0.004918,-0.9954,-1.1906,0.0000,-0.00000708,0.00001798,0.00000000,-0.00112021,0.00096539,0.02753190,-0.2132,0.1464,-9.7408,-0.001236,-0.001781,0.000650,-16.5752,24.4303,42.9045,26.9697,0.0320,72,0,0,-0.000096,0.000012,-0.031255,-0.001197,0.001090,-0.007719,-0.9210,-1.1290,-0.1977
13139,11.0,0.000039,-0.000038,-0.029875,0.000849,-0.001795,0.005131,-1.0018,-1.1912,0.0000,0.00001084,0.00001475,0.00000000,-0.00113321,0.00105131,0.02753382,-0.1895,0.1441,-9.7603,-0.002473,-0.002438,-0.003832,-16.5752,24.4303,42.9045,26.9697,0.0320,65,0,-1,-0.000095,0.000012,-0.031304,-0.001268,0.000997,-0.007211,-0.9207,-1.1286,-0.1972
13151,12.0,-0.000029,-0.000041,-0.031019,-0.000101,-0.001828,-0.008696,-1.0022,-1.1861,0.0000,0.00000413,-0.00001088,0.00000000,-0.00091245,0.00090544,0.03537302,-0.2069,0.1501,-9.7546,-0.003206,-0.002438,-0.000806,-16.5752,24.4303,42.9045,27.0622,0.0320,74,-1,0,-0.000071,0.000037,-0.031449,-0.001077,0.000840,-0.007093,-0.9184,-1.1293,-0.1976
13162,11.0,-0.000093,-0.000108,-0.031112,-0.000873,-0.002630,-0.008316,-1.0082,-1.1819,0.0000,0.00001761,-0.00003120,0.00000000,-0.00085714,0.00097176,0.03537300,-0.2067,0.1470,-9.7369,-0.004036,-0.001778,-0.002394,-16.5752,24.4303,42.9045,27.0622,0.0290,69,-1,-1,-0.000071,0.000037,-0.029975,-0.001161,0.000746,0.009643,-0.9175,-1.1309,-0.1970
13173,11.0,-0.000158,-0.000178,-0.031204,-0.001419,-0.002966,-0.008072,-1.0133,-1.1781,0.0000,0.00003142,-0.00005009,0.00000000,-0.00081121,0.00100488,0.03538704,-0.1920,0.1867,-9.7464,-0.002576,-0.001643,-0.001860,-16.5752,24.4303,42.9045,27.0622,0.0290,69,-1,-1,-0.000048,0.000059,-0.029877,-0.001162,0.000685,0.009942,-0.9175,-1.1306,-0.1975
13184,11.0,-0.000094,-0.000181,-0.030025,-0.000336,-0.002818,0.007182,-1.0119,-1.1864,0.0000,0.00002040,-0.00002397,0.00000000,-0.00105808,0.00113489,0.02731466,-0.1876,0.1544,-9.7312,-0.002231,-0.002950,-0.002793,-16.9813,23.6097,42.6506,27.0622,0.0290,72,1,0,-0.000003,0.000081,-0.029677,-0.000987,0.000908,0.010421,-0.9203,-1.1293,-0.1313
13195,11.0,-0.000020,-0.000113,-0.029946,0.000778,-0.001761,0.007648,-1.0050,-1.1952,0.0000,-0.00001391,0.00000203,0.00000000,-0.00111833,0.00105481,0.02732756,-0.1825,0.1634,-9.7350,-0.002091,-0.004124,-0.001095,-16.9813,23.6097,42.6506,27.0622,0.0320,70,1,1,-0.000003,0.000056,-0.031024,-0.000939,0.000791,-0.005152,-0.9199,-1.1290,-0.1315
13206,11.0,-0.000018,-0.000115,-0.029859,0.000896,-0.001752,0.008086,-1.0044,-1.1957,0.0000,-0.00002175,-0.00000198,0.00000000,-0.00113676,0.00106447,0.02732795,-0.1855,0.1528,-9.7400,-0.002108,-0.002419,-0.003653,-16.9813,23.6097,42.6506,27.0622,0.0320,66,0,0,-0.000029,0.000030,-0.031074,-0.000912,0.000743,-0.004861,-0.9198,-1.1298,-0.1307
13217,11.0,-0.000018,-0.000117,-0.029334,0.000821,-0.001642,0.013824,-1.0052,-1.1946,0.0000,-0.00002766,-0.00000509,0.00000000,-0.00118450,0.00109440,0.02461211,-0.2018,0.1636,-9.7185,-0.003324,0.000559,-0.001270,-16.9813,23.6097,42.6506,27.0252,0.0290,70,0,0,-0.000029,0.000029,-0.029976,-0.000829,0.000800,0.009207,-0.9189,-1.1297,-0.1307
13228,11.0,-0.000077,-0.000120,-0.029179,-0.000040,-0.001554,0.014276,-1.0072,-1.1931,0.0000,-0.00003390,-0.00002907,0.00000000,-0.00112384,0.00109148,0.02461050,-0.2112,0.1633,-9.7408,-0.005483,-0.006044,-0.000776,-16.9813,23.6097,42.6506,27.0252,0.0290,74,-1,0,-0.000029,0.000029,-0.029882,-0.000850,0.000794,0.009723,-0.9194,-1.1291,-0.1301
13239,11.0,-0.000076,-0.000057,-0.029009,0.000063,-0.000735,0.014892,-1.0018,-1.1947,0.0000,-0.00006318,-0.00002867,0.00000000,-0.00112601,0.00102912,0.02453984,-0.1963,0.1617,-9.7379,-0.001688,-0.002411,-0.002769,-16.9813,23.6097,42.6506,27.0252,0.0290,66,0,1,-0.000051,0.000050,-0.029669,-0.001044,0.000743,0.010484,-0.9194,-1.1297,-0.1292
13250,11.0,-0.000074,0.000086,-0.030565,0.000074,0.000847,-0.004754,-0.9907,-1.1959,0.0000,-0.00012070,-0.00002878,0.00000000,-0.00091180,0.00075690,0.03517196,-0.2045,0.1547,-9.7311,-0.002157,-0.002023,-0.000484,-16.9813,23.6097,42.6506,27.0252,0.0320,67,0,2,-0.000095,0.000050,-0.029563,-0.001232,0.000800,0.010754,-0.9192,-1.1288,-0.1293
13261,11.0,-0.000145,0.000087,-0.030606,-0.000647,0.000584,-0.004176,-0.9938,-1.1902,0.0000,-0.00011800,-0.00005596,0.00000000,-0.00085599,0.00076338,0.03511514,-0.1931,0.1534,-9.7289,-0.004033,0.000121,-0.002061,-16.9813,23.6097,42.6506,27.0252,0.0320,66,-1,0,-0.000145,0.000050,-0.031060,-0.001396,0.000791,-0.006471,-0.9194,-1.1289,-0.1293
13272,11.0,-0.000145,0.000016,-0.030650,-0.000451,-0.000512,-0.003884,-1.0021,-1.1917,0.0000,-0.00009084,-0.00005411,0.00000000,-0.00087470,0.00084745,0.03511735,-0.1933,0.1505,-9.7453,-0.004599,-0.001902,-0.000972,-16.9813,23.6097,42.6506,27.0252,0.0320,74,0,-1,-0.000120,0.000074,-0.031172,-0.001283,0.000882,-0.005817,-0.9201,-1.1281,-0.1298
13283,11.0,-0.000079,0.000015,-0.029753,0.000542,-0.000521,0.007304,-1.0037,-1.1993,0.0000,-0.00009225,-0.00002730,0.00000000,-0.00104390,0.00093542,0.02942378,-0.1878,0.1660,-9.7554,-0.003036,-0.003578,-0.000414,-16.5604,23.1984,43.1693,27.0252,0.0290,67,1,0,-0.000071,0.000049,-0.031229,-0.001114,0.000670,-0.005615,-0.9222,-1.1280,-0.0785
13294,11.0,-0.000013,0.000015,-0.029671,0.001153,-0.000737,0.007720,-1.0035,-1.2046,0.0000,-0.00009704,-0.00000319,0.00000000,-0.00108086,0.00096118,0.02942515,-0.2145,0.1437,-9.7395,-0.001499,-0.000869,-0.000789,-16.5604,23.1984,43.1693,26.9116,0.0290,67,1,0,-0.000071,0.000026,-0.029886,-0.001040,0.000587,0.009783,-0.9225,-1.1283,-0.0785
13305,11.0,-0.000010,0.000014,-0.029530,0.001104,-0.000690,0.008790,-1.0036,-1.2057,0.0000,-0.00009987,-0.00000704,0.00000000,-0.00108001,0.00096089,0.02909555,-0.2005,0.1686,-9.7384,-0.001108,-0.003051,0.000586,-16.5604,23.1984,43.1693,26.9116,0.0290,74,0,0,-0.000070,0.000025,-0.029637,-0.001294,0.000412,0.010869,-0.9208,-1.1297,-0.0781
13316,11.0,-0.000006,-0.000058,-0.030831,0.001189,-0.001467,-0.007331,-1.0091,-1.2073,0.0000,-0.00007538,-0.00001243,0.00000000,-0.00092432,0.00087941,0.03743650,-0.1887,0.1694,-9.7525,-0.001536,-0.004204,-0.001554,-16.5604,23.1984,43.1693,26.9116,0.0320,69,0,-1,-0.000070,0.000025,-0.029458,-0.001307,0.000420,0.011935,-0.9196,-1.1298,-0.0773
13328,12.0,-0.000002,-0.000133,-0.030873,0.001242,-0.002246,-0.006270,-1.0144,-1.2081,0.0000,-0.00005265,-0.00001705,0.00000000,-0.00092093,0.00092627,0.03717854,-0.1911,0.1626,-9.7236,-0.001775,-0.002529,-0.002971,-16.5604,23.1984,43.1693,26.9116,0.0320,61,0,-1,-0.000021,0.000024,-0.030979,-0.001076,0.000336,-0.004924,-0.9213,-1.1301,-0.0754
13339,11.0,0.000146,-0.000136,-0.030941,0.002870,-0.002141,-0.005996,-1.0140,-1.2205,0.0000,-0.00006293,0.00003646,0.00000000,-0.00103084,0.00092577,0.03718119,-0.1996,0.1593,-9.7447,-0.002477,-0.004173,-0.001471,-16.5604,23.1984,43.1693,26.9116,0.0320,70,2,0,0.000004,0.000023,-0.030972,-0.001001,0.000339,-0.004003,-0.9212,-1.1308,-0.0758
13350,11.0,0.000150,-0.000138,-0.029858,0.002813,-0.002039,0.007775,-1.0149,-1.2201,0.0000,-0.00007111,0.00002508,0.00000000,-0.00114499,0.00101792,0.03049454,-0.1844,0.1605,-9.7336,-0.003755,-0.002612,-0.001581,-16.5604,23.1984,43.1693,26.9116,0.0290,70,0,0,0.000004,-0.000027,-0.031011,-0.001068,0.000203,-0.003787,-0.9216,-1.1318,-0.0756
13361,11.0,0.000155,-0.000076,-0.029770,0.002619,-0.001213,0.008246,-1.0109,-1.2197,0.0000,-0.00010751,0.00001343,0.00000000,-0.00113705,0.00097125,0.03049295,-0.1988,0.1590,-9.7334,-0.003884,-0.002721,-0.001214,-16.5604,23.1984,43.1693,26.9116,0.0290,73,0,1,-0.000018,-0.000028,-0.029677,-0.001203,0.000183,0.010768,-0.9210,-1.1317,-0.0741
13372,11.0,0.000030,-0.000077,-0.029602,0.000919,-0.001321,0.009481,-1.0127,-1.2100,0.0000,-0.00011313,-0.00005089,0.00000000,-0.00103225,0.00096842,0.03004069,-0.2023,0.1495,-9.7465,-0.004584,-0.002210,0.001468,-15.7392,24.0186,42.6536,26.8534,0.0290,69,-2,0,-0.000018,0.000016,-0.029568,-0.001216,0.000303,0.011101,-0.9207,-1.1325,-0.0742
13383,11.0,-0.000039,-0.000078,-0.030864,0.000004,-0.001325,-0.006086,-1.0126,-1.2056,0.0000,-0.00012088,-0.00008459,0.00000000,-0.00081505,0.00084697,0.03788966,-0.2080,0.1583,-9.7407,-0.002205,-0.002130,-0.001909,-15.7392,24.0186,42.6536,26.8534,0.0320,70,-1,0,-0.000018,0.000061,-0.029360,-0.001244,0.000341,0.012433,-0.9201,-1.1331,-0.0729
13394,11.0,-0.000038,-0.000081,-0.030871,0.000196,-0.001302,-0.005071,-1.0149,-1.2075,0.0000,-0.00012644,-0.00008429,0.00000000,-0.00082243,0.00084295,0.03754691,-0.1899,0.1620,-9.7404,-0.005134,-0.002993,-0.002773,-15.7392,24.0186,42.6536,26.8534,0.0320,65,0,0,-0.000068,0.000110,-0.030938,-0.001421,0.000438,-0.005456,-0.9191,-1.1346,-0.1322
13405,11.0,-0.000108,-0.000082,-0.030925,-0.000432,-0.001321,-0.004715,-1.0141,-1.2035,0.0000,-0.00013382,-0.00011750,0.00000000,-0.00079356,0.00085316,0.03754603,-0.1866,0.1571,-9.7371,-0.001034,-0.002513,-0.000429,-15.7392,24.0186,42.6536,26.8534,0.0320,64,-1,0,-0.000068,0.000109,-0.030915,-0.001400,0.000441,-0.004475,-0.9205,-1.1350,-0.1322
13416,11.0,-0.000174,-0.000083,-0.029844,-0.000994,-0.001302,0.008680,-1.0156,-1.1992,0.0000,-0.00013893,-0.00014371,0.00000000,-0.00087822,0.00094732,0.03114356,-0.1933,0.1620,-9.7538,-0.003709,-0.000050,0.000743,-15.7392,24.0186,42.6536,26.8534,0.0290,64,-1,0,-0.000068,0.000133,-0.030959,-0.001302,0.000548,-0.004166,-0.9212,-1.1344,-0.1320
13427,11.0,-0.000173,-0.000085,-0.029747,-0.000795,-0.001270,0.008960,-1.0152,-1.2019,0.0000,-0.00014567,-0.00013932,0.00000000,-0.00089371,0.00094998,0.03114388,-0.1991,0.1629,-9.7500,-0.001284,-0.003366,-0.001338,-15.7392,24.0186,42.6536,26.8878,0.0290,68,0,0,-0.000069,0.000155,-0.029652,-0.001152,0.000539,0.009812,-0.9209,-1.1342,-0.1313
13438,11.0,-0.000174,-0.000086,-0.029586,-0.000564,-0.001199,0.009809,-1.0157,-1.2037,0.0000,-0.00015121,-0.00013583,0.00000000,-0.00090647,0.00094681,0.03078552,-0.1936,0.1678,-9.7664,-0.002366,-0.002118,-0.000462,-15.7392,24.0186,42.6536,26.8878,0.0290,69,0,0,-0.000069,0.000154,-0.029383,-0.001173,0.000588,0.010791,-0.9179,-1.1351,-0.1295
13448,10.0,-0.000102,-0.000156,-0.030840,0.000428,-0.002267,-0.005900,-1.0192,-1.2097,0.0000,-0.00013122,-0.00010347,0.00000000,-0.00082502,0.00092126,0.03836510,-0.1947,0.1300,-9.7579,-0.001295,-0.001923,-0.004239,-15.7392,24.0186,42.6536,26.8878,0.0320,74,1,-1,-0.000044,0.000128,-0.030898,-0.001094,0.000488,-0.007087,-0.9181,-1.1356,-0.1296
13459,11.0,-0.000030,-0.000159,-0.030856,0.001401,-0.002139,-0.005125,-1.0182,-1.2151,0.0000,-0.00014149,-0.00007387,0.00000000,-0.00087712,0.00090950,0.03809217,-0.1876,0.1628,-9.7506,-0.001105,-0.001567,-0.003813,-15.7392,24.0186,42.6536,26.8878,0.0320,71,1,0,-0.000020,0.000104,-0.030918,-0.000995,0.000198,-0.006410,-0.9176,-1.1356,-0.1305
13470,11.0,-0.000027,-0.000090,-0.030911,0.001395,-0.001343,-0.004769,-1.0143,-1.2148,0.0000,-0.00018576,-0.00008109,0.00000000,-0.00088412,0.00087390,0.03809104,-0.1945,0.1494,-9.7365,-0.004726,-0.001451,-0.001233,-16.1572,22.7900,42.3937,26.8878,0.0320,67,0,1,-0.000020,0.000079,-0.030982,-0.000930,0.000132,-0.006329,-0.9171,-1.1354,-0.1317
13481,11.0,-0.000025,-0.000091,-0.030395,0.001448,-0.001481,0.002308,-1.0147,-1.2151,0.0000,-0.00019245,-0.00008719,0.00000000,-0.00093628,0.00091307,0.03497124,-0.1886,0.1451,-9.7301,-0.002302,-0.002026,-0.000184,-16.1572,22.7900,42.3937,26.8878,0.0300,72,0,0,-0.000045,0.000078,-0.031016,-0.000989,0.000029,-0.005010,-0.9183,-1.1342,-0.0937
13492,11.0,-0.000021,-0.000093,-0.030367,0.001326,-0.001495,0.002777,-1.0133,-1.2166,0.0000,-0.00020122,-0.00009272,0.00000000,-0.00092962,0.00092191,0.03497108,-0.2069,0.1554,-9.7290,-0.000301,-0.003757,-0.001630,-16.1572,22.7900,42.3937,26.8191,0.0300,72,0,0,-0.000045,0.000078,-0.030368,-0.000923,-0.000084,0.002632,-0.9181,-1.1341,-0.0935
13503,11.0,-0.000017,-0.000094,-0.030246,0.001178,-0.001445,0.004258,-1.0124,-1.2175,0.0000,-0.00020841,-0.00009773,0.00000000,-0.00093169,0.00091872,0.03447951,-0.2105,0.1620,-9.7329,-0.000380,-0.002689,-0.000769,-16.1572,22.7900,42.3937,26.8191,0.0300,67,0,0,-0.000022,0.000075,-0.030226,-0.000892,0.000205,0.003901,-0.9166,-1.1355,-0.0939
13514,11.0,-0.000014,-0.000023,-0.031175,0.001143,-0.000855,-0.006690,-1.0049,-1.2179,0.0000,-0.00025453,-0.00010415,0.00000000,-0.00082946,0.00082231,0.03977138,-0.2001,0.1333,-9.7267,0.000862,-0.002187,-0.002208,-16.1572,22.7900,42.3937,26.8191,0.0320,70,0,1,-0.000022,0.000075,-0.031137,-0.000905,0.000184,-0.006322,-0.9156,-1.1361,-0.0941
13525,11.0,0.000061,0.000047,-0.031178,0.002070,-0.000077,-0.005345,-1.0017,-1.2252,0.0000,-0.00029228,-0.00007496,0.00000000,-0.00088019,0.00077211,0.03939512,-0.1882,0.1595,-9.7192,-0.003640,-0.005174,-0.000376,-16.1572,22.7900,42.3937,26.8191,0.0320,68,1,1,-0.000047,0.000075,-0.031199,-0.000976,-0.000045,-0.006020,-0.9138,-1.1360,-0.0945
13536,11.0,0.000065,-0.000025,-0.031236,0.002118,-0.000913,-0.005121,-1.0082,-1.2252,0.0000,-0.00025881,-0.00008679,0.00000000,-0.00089647,0.00082480,0.03939665,-0.1841,0.1694,-9.7471,-0.003173,-0.002828,0.000037,-16.1572,22.7900,42.3937,26.8191,0.0320,72,0,-1,-0.000098,0.000025,-0.031209,-0.000958,-0.000317,-0.004407,-0.9124,-1.1355,-0.0931
13547,11.0,0.000071,-0.000093,-0.030528,0.001899,-0.001626,0.003905,-1.0138,-1.2271,0.0000,-0.00023022,-0.00009447,0.00000000,-0.00096624,0.00092775,0.03533439,-0.2128,0.1688,-9.7578,-0.002906,-0.004811,-0.001122,-16.1572,22.7900,42.3937,26.8191,0.0300,66,0,-1,-0.000073,0.000024,-0.031252,-0.000829,-0.000263,-0.004279,-0.9126,-1.1353,-0.0921
13558,11.0,0.000075,-0.000229,-0.030483,0.001796,-0.003035,0.004283,-1.0215,-1.2272,0.0000,-0.00017414,-0.00010372,0.00000000,-0.00096415,0.00101617,0.03533646,-0.2011,0.1672,-9.7368,-0.000199,-0.002466,-0.001578,-16.1572,22.7900,42.3937,26.8191,0.0300,70,0,-2,-0.000049,0.000023,-0.030405,-0.000883,-0.000201,0.005376,-0.9120,-1.1365,-0.0923
13569,11.0,0.000078,-0.000232,-0.030389,0.001652,-0.002871,0.005039,-1.0215,-1.2267,0.0000,-0.00018897,-0.00011193,0.00000000,-0.00095748,0.00099907,0.03508829,-0.2062,0.1587,-9.7524,-0.003363,-0.001028,-0.003306,-16.5663,23.1994,43.4232,26.9327,0.0300,66,0,0,-0.000002,0.000020,-0.030294,-0.000809,-0.000117,0.005697,-0.9106,-1.1413,-0.0926
13580,11.0,0.000081,-0.000093,-0.031236,0.001761,-0.000998,-0.005162,-1.0106,-1.2268,0.0000,-0.00027398,-0.00012307,0.00000000,-0.00088282,0.00081445,0.03982439,-0.1823,0.1682,-9.7385,-0.001250,-0.002810,-0.002789,-16.5663,23.1994,43.4232,26.9327,0.0320,73,0,2,-0.000002,0.000019,-0.030175,-0.000811,-0.000090,0.006542,-0.9111,-1.1416,-0.0934
13591,11.0,0.000085,-0.000024,-0.031256,0.001738,-0.000025,-0.004348,-1.0066,-1.2279,0.0000,-0.00031336,-0.00013096,0.00000000,-0.00087563,0.00076292,0.03963270,-0.1957,0.1788,-9.7313,-0.002245,-0.003574,-0.001883,-16.5663,23.1994,43.4232,26.9327,0.0320,73,0,1,-0.000052,0.000018,-0.031252,-0.000846,0.000016,-0.005643,-0.9111,-1.1408,-0.0498
13602,11.0,0.000088,-0.000024,-0.031302,0.001681,-0.000283,-0.004146,-1.0089,-1.2272,0.0000,-0.00031656,-0.00014039,0.00000000,-0.00087883,0.00079294,0.03963314,-0.1981,0.1467,-9.7489,-0.004824,-0.001097,-0.003444,-16.5663,23.1994,43.4232,26.9327,0.0320,65,0,0,-0.000077,0.000016,-0.031320,-0.000837,0.000114,-0.004863,-0.9112,-1.1407,-0.0515
13613,11.0,0.000092,-0.000024,-0.031670,0.001484,-0.000248,-0.007672,-1.0085,-1.2277,0.0000,-0.00031816,-0.00014776,0.00000000,-0.00083525,0.00076397,0.04129961,-0.2135,0.1734,-9.7442,0.000036,-0.002472,-0.003540,-16.5663,23.1994,43.4232,26.9327,0.0320,65,0,0,-0.000077,0.000016,-0.031309,-0.000826,0.000078,-0.004090,-0.9113,-1.1404,-0.0521
13624,11.0,0.000164,-0.000025,-0.031752,0.002337,-0.000256,-0.007361,-1.0110,-1.2320,0.0000,-0.00031932,-0.00012235,0.00000000,-0.00089716,0.00076614,0.04130120,-0.1885,0.1702,-9.7371,-0.004574,-0.001911,-0.001288,-16.5663,23.1994,43.4232,26.9327,0.0310,69,1,0,-0.000077,-0.000010,-0.031130,-0.001044,0.000181,-0.001088,-0.9106,-1.1403,-0.0525
13635,11.0,0.000100,-0.000026,-0.031799,0.001456,-0.000220,-0.006618,-1.0136,-1.2287,0.0000,-0.00032003,-0.00016786,0.00000000,-0.00084013,0.00076785,0.04112904,-0.1981,0.1751,-9.7330,-0.004598,-0.004236,-0.002821,-16.5663,23.1994,43.4232,26.9697,0.0310,65,-1,0,-0.000077,-0.000011,-0.031112,-0.000975,0.000328,-0.000570,-0.9121,-1.1403,-0.0530
13647,12.0,0.000033,-0.000027,-0.031937,0.000596,-0.000248,-0.006862,-1.0142,-1.2251,0.0000,-0.00032166,-0.00021187,0.00000000,-0.00078636,0.00076602,0.04144041,-0.2013,0.1688,-9.7259,-0.001516,-0.003119,0.000920,-16.5663,23.1994,43.4232,26.9697,0.0320,69,-1,0,-0.000077,0.000035,-0.031603,-0.000995,0.000631,-0.005216,-0.9122,-1.1419,-0.0511
13658,11.0,0.000035,-0.000027,-0.031987,0.000722,-0.000384,-0.006343,-1.0166,-1.2266,0.0000,-0.00032331,-0.00021448,0.00000000,-0.00078563,0.00076609,0.04130935,-0.1933,0.1583,-9.7457,-0.004522,-0.003086,-0.001900,-16.5663,23.1994,43.4232,26.9697,0.0320,73,0,0,-0.000077,0.000060,-0.031629,-0.001005,0.000730,-0.004669,-0.9123,-1.1424,-0.0507
13669,11.0,0.000038,-0.000027,-0.032056,0.000796,-0.000551,-0.006330,-1.0166,-1.2284,0.0000,-0.00032801,-0.00021842,0.00000000,-0.00079635,0.00078662,0.04130982,-0.1981,0.1533,-9.7643,-0.001325,-0.003894,-0.000161,-14.9240,23.6102,42.1353,26.9697,0.0320,73,0,0,-0.000077,0.000059,-0.031675,-0.000961,0.000744,-0.004548,-0.9133,-1.1428,-0.0511
13680,11.0,0.000041,-0.000027,-0.032030,0.000853,-0.000695,-0.004980,-1.0158,-1.2297,0.0000,-0.00033193,-0.00022201,0.00000000,-0.00080135,0.00078968,0.04083934,-0.1981,0.1533,-9.7424,0.000192,-0.003097,0.003239,-14.9240,23.6102,42.1353,26.9697,0.0320,72,0,0,-0.000077,0.000057,-0.031722,-0.000850,0.000721,-0.003894,-0.9116,-1.1454,-0.1451
13692,12.0,0.000044,-0.000098,-0.032086,0.000946,-0.001663,-0.004369,-1.0206,-1.2306,0.0000,-0.00030230,-0.00022774,0.00000000,-0.00081580,0.00085890,0.04084110,-0.1944,0.1504,-9.7153,-0.002269,-0.002618,-0.001679,-14.9240,23.6102,42.1353,26.9697,0.0310,70,0,-1,-0.000053,0.000057,-0.031270,-0.000769,0.000685,0.001560,-0.9109,-1.1456,-0.1432
13703,11.0,0.000047,-0.000099,-0.032099,0.000993,-0.001731,-0.003551,-1.0212,-1.2325,0.0000,-0.00031193,-0.00023174,0.00000000,-0.00081419,0.00084966,0.04067127,-0.1985,0.1497,-9.7280,-0.003088,-0.004038,-0.001168,-14.9240,23.6102,42.1353,26.9697,0.0310,71,0,0,-0.000029,0.000057,-0.031201,-0.000671,0.000494,0.002643,-0.9120,-1.1456,-0.1425
13714,11.0,-0.000023,-0.000101,-0.032054,0.000286,-0.001651,-0.002116,-1.0217,-1.2282,0.0000,-0.00032202,-0.00027658,0.00000000,-0.00079245,0.00085785,0.04026966,-0.1901,0.1639,-9.7217,-0.003124,-0.002326,-0.001446,-14.9240,23.6102,42.1353,26.9327,0.0320,74,-1,0,-0.000030,0.000080,-0.031111,-0.000567,0.000552,0.003620,-0.9117,-1.1470,-0.1425
13725,11.0,-0.000021,-0.000103,-0.032040,0.000451,-0.001613,-0.001405,-1.0215,-1.2301,0.0000,-0.00033116,-0.00027771,0.00000000,-0.00079469,0.00084953,0.04008839,-0.1933,0.1608,-9.7411,-0.001755,-0.003421,-0.001445,-14.9240,23.6102,42.1353,26.9327,0.0320,71,0,0,-0.000030,0.000104,-0.031630,-0.000510,0.000680,-0.002014,-0.9127,-1.1469,-0.1428
13736,11.0,-0.000019,-0.000104,-0.032054,0.000462,-0.001743,-0.001154,-1.0215,-1.2318,0.0000,-0.00034359,-0.00027917,0.00000000,-0.00079710,0.00087322,0.04008869,-0.2076,0.1440,-9.7439,-0.003044,-0.003357,0.000671,-14.9240,23.6102,42.1353,26.9327,0.0320,71,0,0,-0.000030,0.000103,-0.031619,-0.000461,0.000538,-0.001088,-0.9111,-1.1480,-0.1426
13747,11.0,0.000053,-0.000176,-0.031448,0.001288,-0.002485,0.006221,-1.0262,-1.2372,0.0000,-0.00031565,-0.00024359,0.00000000,-0.00090105,0.00095656,0.03709683,-0.2041,0.1611,-9.7485,-0.002553,-0.002005,-0.000994,-14.9240,23.6102,42.1353,26.9327,0.0310,67,1,-1,-0.000029,0.000102,-0.031629,-0.000606,0.000519,-0.000896,-0.9111,-1.1485,-0.1400
13758,11.0,0.000055,-0.000179,-0.031377,0.001325,-0.002399,0.006643,-1.0263,-1.2364,0.0000,-0.00033096,-0.00025232,0.00000000,-0.00091275,0.00096189,0.03709690,-0.1944,0.1572,-9.7315,-0.003475,-0.000915,-0.003521,-14.9240,23.6102,42.1353,26.9327,0.0310,68,0,0,-0.000005,0.000078,-0.031181,-0.000469,0.000364,0.003895,-0.9112,-1.1478,-0.1394
13769,11.0,0.000058,-0.000111,-0.031271,0.001513,-0.001520,0.007287,-1.0214,-1.2385,0.0000,-0.00038168,-0.00025923,0.00000000,-0.00090756,0.00090355,0.03693533,-0.1817,0.1590,-9.7465,-0.002041,-0.004827,-0.001974,-15.7363,23.6083,43.1693,26.9697,0.0310,60,0,1,-0.000029,0.000078,-0.031141,-0.000480,0.000386,0.004086,-0.9121,-1.1467,-0.1402
13780,11.0,0.000060,-0.000114,-0.031624,0.001717,-0.001371,0.002736,-1.0227,-1.2380,0.0000,-0.00038987,-0.00027192,0.00000000,-0.00089774,0.00086205,0.03902986,-0.1755,0.1738,-9.7211,-0.004005,-0.002078,-0.001068,-15.7363,23.6083,43.1693,26.9697,0.0320,76,0,0,-0.000055,0.000076,-0.031563,-0.000421,0.000373,-0.000985,-0.9122,-1.1479,-0.1404
13791,11.0,0.000063,-0.000115,-0.031568,0.001782,-0.001372,0.003374,-1.0234,-1.2377,0.0000,-0.00039766,-0.00028162,0.00000000,-0.00088863,0.00085474,0.03890693,-0.1878,0.1606,-9.7371,-0.002892,-0.001687,-0.002473,-15.7363,23.6083,43.1693,26.9697,0.0320,67,0,0,-0.000055,0.000074,-0.031547,-0.000357,0.000554,-0.000163,-0.9138,-1.1494,-0.1710
13802,11.0,0.000139,-0.000116,-0.031527,0.002662,-0.001407,0.003946,-1.0226,-1.2436,0.0000,-0.00040765,-0.00025385,0.00000000,-0.00095427,0.00086840,0.03890872,-0.1880,0.1560,-9.7161,-0.001179,-0.004791,-0.001494,-15.7363,23.6083,43.1693,26.9697,0.0320,76,1,0,-0.000055,0.000049,-0.031548,-0.000291,0.000451,-0.000024,-0.9141,-1.1480,-0.1715
13813,11.0,0.000213,-0.000117,-0.031194,0.003389,-0.001549,0.007510,-1.0235,-1.2479,0.0000,-0.00041624,-0.00022992,0.00000000,-0.00100919,0.00088034,0.03754037,-0.1919,0.1461,-9.7508,-0.003459,-0.002643,0.000133,-15.7363,23.6083,43.1693,26.9697,0.0310,76,1,0,-0.000055,0.000023,-0.031547,-0.000209,0.000333,0.000306,-0.9137,-1.1491,-0.1715
13825,12.0,0.000222,-0.000121,-0.031101,0.003237,-0.001369,0.007979,-1.0239,-1.2472,0.0000,-0.00042420,-0.00024989,0.00000000,-0.00100823,0.00086965,0.03753985,-0.1946,0.1765,-9.7299,-0.002195,-0.002722,-0.003670,-15.7363,23.6083,43.1693,26.9697,0.0310,69,0,0,-0.000056,-0.000002,-0.031124,-0.000041,0.000089,0.004647,-0.9136,-1.1482,-0.1712
13836,11.0,0.000226,-0.000192,-0.030977,0.003159,-0.002291,0.008915,-1.0299,-1.2463,0.0000,-0.00039424,-0.00026794,0.00000000,-0.00099037,0.00090690,0.03738221,-0.1868,0.1472,-9.7202,-0.004586,-0.002062,-0.001626,-15.7363,23.6083,43.1693,26.9697,0.0310,73,0,-1,-0.000056,-0.000003,-0.031042,-0.000025,0.000182,0.005344,-0.9147,-1.1488,-0.1724
13847,11.0,0.000230,-0.000264,-0.030938,0.003095,-0.003055,0.008653,-1.0336,-1.2454,0.0000,-0.00037143,-0.00028819,0.00000000,-0.00099847,0.00096044,0.03766777,-0.1862,0.1533,-9.7290,-0.002374,-0.002693,-0.004698,-15.7363,23.6083,43.1693,26.9697,0.0310,73,0,-1,-0.000032,-0.000003,-0.030987,0.000157,0.000126,0.005698,-0.9158,-1.1488,-0.1730
13858,11.0,0.000306,-0.000267,-0.030805,0.003653,-0.003054,0.009534,-1.0323,-1.2500,0.0000,-0.00038984,-0.00026542,0.00000000,-0.00102784,0.00094201,0.03749861,-0.2046,0.1431,-9.7278,-0.001594,-0.003498,-0.001581,-15.7363,23.6083,43.1693,26.9327,0.0310,76,1,0,0.000017,-0.000005,-0.030872,0.000379,0.000221,0.006064,-0.9165,-1.1489,-0.1741
13869,11.0,0.000311,-0.000269,-0.030698,0.003490,-0.003011,0.009929,-1.0316,-1.2492,0.0000,-0.00041064,-0.00028737,0.00000000,-0.00103239,0.00095794,0.03749849,-0.1920,0.1472,-9.7337,-0.003378,-0.003166,-0.000936,-16.5722,23.6102,42.1353,26.9327,0.0310,69,0,0,0.000017,-0.000030,-0.030810,0.000332,0.000093,0.006368,-0.9155,-1.1497,-0.1738
13880,11.0,0.000317,-0.000203,-0.030779,0.003303,-0.001998,0.008008,-1.0272,-1.2490,0.0000,-0.00046643,-0.00030635,0.00000000,-0.00099401,0.00088072,0.03837920,-0.1969,0.1670,-9.7407,-0.003341,-0.003301,-0.003141,-16.5722,23.6102,42.1353,26.9327,0.0310,74,0,1,0.000017,-0.000031,-0.030687,0.000300,0.000085,0.007292,-0.9157,-1.1500,-0.1741
13891,11.0,0.000252,-0.000065,-0.030689,0.002355,-0.000194,0.008337,-1.0180,-1.2443,0.0000,-0.00055489,-0.00036466,0.00000000,-0.00094823,0.00077779,0.03837480,-0.1960,0.1778,-9.7381,-0.001487,-0.003331,-0.000716,-16.5722,23.6102,42.1353,26.9327,0.0310,74,-1,2,-0.000054,-0.000008,-0.030785,0.000119,0.000327,0.005481,-0.9169,-1.1491,-0.1498
13902,11.0,0.000258,-0.000065,-0.030550,0.002109,-0.000456,0.009228,-1.0186,-1.2448,0.0000,-0.00055742,-0.00037615,0.00000000,-0.00093941,0.00077828,0.03816012,-0.2146,0.1459,-9.7370,-0.001926,-0.003259,-0.004922,-16.5722,23.6102,42.1353,26.9327,0.0310,70,0,0,-0.000103,0.000014,-0.030620,0.000069,0.000552,0.006366,-0.9176,-1.1488,-0.1488
13913,11.0,0.000261,-0.000064,-0.030742,0.002046,-0.000757,0.006282,-1.0194,-1.2438,0.0000,-0.00056548,-0.00038996,0.00000000,-0.00092036,0.00079689,0.03950329,-0.1968,0.1386,-9.7239,-0.003515,-0.001390,-0.004286,-16.5722,23.6102,42.1353,26.9327,0.0310,70,0,0,-0.000102,0.000014,-0.030785,-0.000005,0.000439,0.004097,-0.9164,-1.1496,-0.1499
13924,11.0,0.000263,-0.000065,-0.030636,0.002072,-0.000931,0.007029,-1.0204,-1.2427,0.0000,-0.00057083,-0.00040227,0.00000000,-0.00090983,0.00079347,0.03933898,-0.1885,0.1491,-9.7381,-0.003199,-0.000704,0.001633,-16.5722,23.6102,42.1353,26.9327,0.0310,71,0,0,-0.000102,0.000063,-0.030743,-0.000028,0.000236,0.004251,-0.9156,-1.1498,-0.1514
13935,11.0,0.000268,-0.000066,-0.030557,0.001949,-0.000994,0.007281,-1.0218,-1.2437,0.0000,-0.00057787,-0.00041308,0.00000000,-0.00090651,0.00080471,0.03933890,-0.2058,0.1589,-9.7443,-0.004115,-0.004046,-0.000095,-16.5722,23.6102,42.1353,26.9327,0.0310,71,0,0,-0.000102,0.000062,-0.030594,0.000089,0.000091,0.005392,-0.9149,-1.1486,-0.1509
13946,11.0,0.000271,-0.000067,-0.030728,0.002017,-0.001059,0.004720,-1.0237,-1.2441,0.0000,-0.00058424,-0.00042444,0.00000000,-0.00087183,0.00078047,0.04047224,-0.1870,0.1582,-9.7329,-0.004768,-0.002940,-0.000932,-16.5722,23.6102,42.1353,26.9327,0.0310,77,0,0,-0.000101,0.000085,-0.030539,0.000027,0.000193,0.005611,-0.9158,-1.1503,-0.1501
13957,11.0,0.000275,-0.000068,-0.030673,0.001852,-0.001182,0.005170,-1.0244,-1.2435,0.0000,-0.00059329,-0.00043559,0.00000000,-0.00086508,0.00079951,0.04047220,-0.2085,0.1513,-9.7253,-0.003436,-0.001449,-0.001936,-16.5722,23.6102,42.1353,26.9327,0.0310,72,0,0,-0.000101,0.000085,-0.030779,0.000073,0.000216,0.002712,-0.9167,-1.1506,-0.1494
13968,11.0,0.000279,-0.000069,-0.030569,0.001684,-0.001271,0.006007,-1.0249,-1.2437,0.0000,-0.00060087,-0.00044492,0.00000000,-0.00085907,0.00079444,0.04026310,-0.2117,0.1538,-9.7396,-0.002640,-0.002419,-0.002029,-16.5722,24.8397,42.6491,26.9327,0.0310,64,0,0,-0.000101,0.000083,-0.030721,0.000042,0.000201,0.002980,-0.9158,-1.1501,-0.1491
13979,11.0,0.000280,-0.000070,-0.030767,0.001828,-0.001222,0.003107,-1.0255,-1.2425,0.0000,-0.00060932,-0.00045897,0.00000000,-0.00086233,0.00077878,0.04143583,-0.1806,0.1671,-9.7501,-0.003096,-0.001283,-0.001088,-16.5722,24.8397,42.6491,26.9327,0.0310,68,0,0,-0.000101,0.000083,-0.030829,-0.000007,0.000175,0.001669,-0.9155,-1.1511,-0.1491
13990,11.0,0.000282,-0.000072,-0.030706,0.001998,-0.001235,0.003798,-1.0263,-1.2420,0.0000,-0.00061668,-0.00047060,0.00000000,-0.00085207,0.00077256,0.04132352,-0.1766,0.1613,-9.7298,-0.003162,-0.001709,-0.002704,-16.5722,24.8397,42.6491,26.9697,0.0310,68,0,0,-0.000101,0.000082,-0.030812,0.000144,0.000235,0.001785,-0.9151,-1.1509,-0.1769
14001,11.0,0.000286,-0.000074,-0.030664,0.001986,-0.001272,0.003869,-1.0285,-1.2417,0.0000,-0.00062547,-0.00048345,0.00000000,-0.00086142,0.00078364,0.04132366,-0.1943,0.1598,-9.7590,-0.005887,-0.002342,-0.002542,-16.5722,24.8397,42.6491,26.9697,0.0310,68,0,0,-0.000101,0.000079,-0.030739,0.000168,0.000390,0.002378,-0.9164,-1.1508,-0.1786
14012,11.0,0.000358,-0.000075,-0.030801,0.002755,-0.001319,0.002149,-1.0284,-1.2452,0.0000,-0.00063382,-0.00045541,0.00000000,-0.00087523,0.00076273,0.04212062,-0.1929,0.1575,-9.7293,-0.001778,-0.001184,-0.003117,-16.5722,24.8397,42.6491,26.9697,0.0310,70,1,0,-0.000100,0.000055,-0.030875,0.000145,0.000293,0.000679,-0.9177,-1.1512,-0.1791
14023,11.0,0.000363,-0.000075,-0.030776,0.002720,-0.001429,0.002472,-1.0277,-1.2452,0.0000,-0.00064516,-0.00047334,0.00000000,-0.00088939,0.00078525,0.04212098,-0.1887,0.1502,-9.7356,-0.001744,-0.003777,0.000189,-16.5722,24.8397,42.6491,26.9697,0.0310,66,0,0,-0.000100,0.000030,-0.030830,0.000186,0.000159,0.001322,-0.9174,-1.1505,-0.1790
14034,11.0,0.000368,-0.000076,-0.030714,0.002660,-0.001556,0.003295,-1.0273,-1.2458,0.0000,-0.00065478,-0.00048836,0.00000000,-0.00087634,0.00077728,0.04197784,-0.1921,0.1473,-9.7249,-0.001645,-0.004065,-0.000816,-16.5722,24.8397,42.6491,26.9697,0.0310,67,0,0,-0.000076,0.000030,-0.030775,0.000366,0.000053,0.002012,-0.9180,-1.1498,-0.1792
14044,10.0,0.000369,-0.000076,-0.030846,0.002589,-0.001518,0.001428,-1.0272,-1.2440,0.0000,-0.00066548,-0.00050643,0.00000000,-0.00087232,0.00077245,0.04269510,-0.1901,0.1621,-9.7584,-0.002682,-0.000866,-0.000807,-16.5722,24.8397,42.6491,26.9697,0.0310,71,0,0,-0.000076,0.000029,-0.030754,0.000418,0.000004,0.002303,-0.9176,-1.1496,-0.1790
14055,11.0,0.000373,-0.000077,-0.030806,0.002394,-0.001722,0.001905,-1.0282,-1.2430,0.0000,-0.00067583,-0.00052071,0.00000000,-0.00085952,0.00076332,0.04258588,-0.2060,0.1394,-9.7475,-0.004076,-0.001333,-0.003358,-16.5722,24.8397,42.6491,26.9697,0.0310,71,0,0,-0.000076,0.000028,-0.030898,0.000449,0.000126,0.000649,-0.9172,-1.1497,-0.1794
14066,11.0,0.000377,-0.000079,-0.030783,0.002392,-0.001780,0.002211,-1.0291,-1.2422,0.0000,-0.00068895,-0.00053698,0.00000000,-0.00087505,0.00078226,0.04258621,-0.1884,0.1517,-9.7367,-0.004464,-0.002339,-0.003200,-15.3271,22.7890,44.4530,26.9697,0.0310,75,0,0,-0.000075,0.000051,-0.030853,0.000460,0.000055,0.000993,-0.9173,-1.1498,-0.1794
14077,11.0,0.000382,-0.000081,-0.030864,0.002399,-0.001734,0.001125,-1.0286,-1.2435,0.0000,-0.00069990,-0.00055022,0.00000000,-0.00085248,0.00076406,0.04303988,-0.1896,0.1619,-9.7503,-0.001760,-0.004816,-0.000043,-15.3271,22.7890,44.4530,26.9697,0.0310,69,0,0,-0.000075,0.000050,-0.030905,0.000513,-0.000006,0.000483,-0.9170,-1.1492,-0.1801
14088,11.0,0.000385,-0.000082,-0.030849,0.002270,-0.001736,0.001561,-1.0246,-1.2422,0.0000,-0.00071313,-0.00056555,0.00000000,-0.00085278,0.00077481,0.04303975,-0.1997,0.1556,-9.7241,0.003233,-0.001178,-0.000296,-15.3271,22.7890,44.4530,26.9697,0.0310,65,0,0,-0.000075,0.000048,-0.030892,0.000591,0.000139,0.000975,-0.9166,-1.1497,-0.1987
14100,12.0,0.000392,-0.000085,-0.030795,0.002162,-0.001800,0.002367,-1.0245,-1.2427,0.0000,-0.00072440,-0.00057795,0.00000000,-0.00084275,0.00076536,0.04289725,-0.2017,0.1521,-9.7291,-0.002314,-0.003188,-0.002778,-15.3271,22.7890,44.4530,26.9697,0.0310,73,0,0,-0.000075,0.000048,-0.030842,0.000544,0.000135,0.001713,-0.9151,-1.1494,-0.1985
14111,11.0,0.000395,-0.000156,-0.030889,0.001961,-0.002682,0.001166,-1.0281,-1.2413,0.0000,-0.00069824,-0.00059055,0.00000000,-0.00082326,0.00082036,0.04340579,-0.2101,0.1458,-9.7456,-0.002406,-0.000607,-0.001493,-15.3271,22.7890,44.4530,26.9697,0.0310,72,0,-1,-0.000074,0.000047,-0.030824,0.000481,0.000227,0.001960,-0.9156,-1.1495,-0.1990
14122,11.0,0.000469,-0.000020,-0.030851,0.002814,-0.000842,0.001631,-1.0183,-1.2474,0.0000,-0.00079543,-0.00056045,0.00000000,-0.00085571,0.00072335,0.04329709,-0.1881,0.1741,-9.7480,-0.001373,-0.005101,0.001649,-15.3271,22.7890,44.4530,26.9697,0.0310,67,1,2,-0.000049,0.000047,-0.030889,0.000501,0.000089,0.001228,-0.9149,-1.1481,-0.1982
14133,11.0,0.000544,0.000120,-0.030831,0.003494,0.000613,0.001975,-1.0088,-1.2520,0.0000,-0.00088520,-0.00053693,0.00000000,-0.00090268,0.00065814,0.04329627,-0.1957,0.1532,-9.7323,-0.001165,-0.004056,-0.000704,-15.3271,22.7890,44.4530,26.9697,0.0310,67,1,2,-0.000098,0.000021,-0.030876,0.000436,0.000112,0.001336,-0.9141,-1.1491,-0.1963
14144,11.0,0.000549,0.000120,-0.030341,0.003436,0.000381,0.007679,-1.0123,-1.2504,0.0000,-0.00088141,-0.00055756,0.00000000,-0.00092006,0.00069101,0.04135955,-0.1831,0.1573,-9.7371,-0.005738,-0.001588,-0.005187,-15.3271,22.7890,44.4530,26.9697,0.0300,68,0,0,-0.000146,-0.000004,-0.030308,0.000405,-0.000105,0.007537,-0.9121,-1.1485,-0.1963
14155,11.0,0.000486,0.000122,-0.030254,0.002543,-0.000024,0.008070,-1.0131,-1.2454,0.0000,-0.00088499,-0.00061927,0.00000000,-0.00088849,0.00073882,0.04135899,-0.1916,0.1363,-9.7304,-0.003139,-0.003170,0.001491,-15.3271,22.7890,44.4530,26.9697,0.0300,67,-1,0,-0.000146,-0.000004,-0.030205,0.000480,-0.000127,0.008087,-0.9127,-1.1473,-0.1976
14166,11.0,0.000490,0.000121,-0.030133,0.002361,0.000059,0.008564,-1.0139,-1.2440,0.0000,-0.00088432,-0.00063401,0.00000000,-0.00087628,0.00074148,0.04122402,-0.2047,0.1827,-9.7543,-0.002021,-0.000833,-0.002565,-16.9784,23.6092,42.3951,26.9697,0.0300,66,0,0,-0.000146,0.000019,-0.030123,0.000528,-0.000238,0.008401,-0.9127,-1.1476,-0.1963
14177,11.0,0.000493,0.000122,-0.030555,0.002462,-0.000227,0.003194,-1.0156,-1.2431,0.0000,-0.00088897,-0.00065281,0.00000000,-0.00086639,0.00074621,0.04335793,-0.1776,0.1450,-9.7063,-0.004752,-0.002778,-0.000239,-16.9784,23.6092,42.3951,26.9697,0.0310,68,0,0,-0.000145,0.000018,-0.030551,0.000430,-0.000239,0.002420,-0.9139,-1.1484,-0.1962
14188,11.0,0.000497,0.000121,-0.030509,0.002411,-0.000315,0.003640,-1.0165,-1.2429,0.0000,-0.00089068,-0.00066706,0.00000000,-0.00085268,0.00074501,0.04332076,-0.1929,0.1631,-9.7323,-0.002571,-0.002663,-0.002343,-16.9784,23.6092,42.3951,27.0252,0.0310,65,0,0,-0.000145,0.000017,-0.030524,0.000477,-0.000324,0.002864,-0.9145,-1.1469,-0.1484
14199,11.0,0.000502,0.000121,-0.030467,0.002319,-0.000373,0.004039,-1.0173,-1.2428,0.0000,-0.00089355,-0.00068184,0.00000000,-0.00085584,0.00075280,0.04332077,-0.1976,0.1651,-9.7270,-0.002666,-0.003199,-0.002763,-16.9784,23.6092,42.3951,27.0252,0.0310,66,0,0,-0.000144,0.000016,-0.030450,0.000548,-0.000258,0.003463,-0.9151,-1.1453,-0.1488
