timestamp_ms,dt_ms,pos_x,pos_y,pos_z,vel_x,vel_y,vel_z,roll_deg,pitch_deg,yaw_deg,gyro_bias_x,gyro_bias_y,gyro_bias_z,accel_bias_x,accel_bias_y,accel_bias_z,raw_accel_x,raw_accel_y,raw_accel_z,raw_gyro_x,raw_gyro_y,raw_gyro_z,raw_mag_x,raw_mag_y,raw_mag_z,raw_baro_alt,raw_tof,raw_flow_squal,raw_flow_dx,raw_flow_dy,dev_pos_x,dev_pos_y,dev_pos_z,dev_vel_x,dev_vel_y,dev_vel_z,dev_roll_deg,dev_pitch_deg,dev_yaw_deg
10865,10.0,-0.000179,-0.000128,-0.262927,-0.012202,-0.011577,-0.001440,-0.0296,0.0340,0.0116,0.00000000,0.00000000,-0.00776300,0.00207922,0.00259878,0.00000000,1.1491,0.2556,-9.8881,-0.046152,0.050004,0.012925,21.3117,-7.9400,14.6585,20.0892,0.2630,131,0,0,-0.000921,0.000000,-0.297173,0.134366,0.014251,-0.319477,-0.1016,-0.0687,0.2878
10875,10.0,-0.000303,-0.005582,-0.262938,-0.004462,-0.284542,-0.000896,-1.6711,0.1147,-0.1730,0.00000270,-0.00000020,-0.00776270,0.00210990,0.00549856,0.00000146,1.0754,0.1425,-9.7414,-0.049781,0.028223,-0.017796,21.3117,-7.9400,14.6585,20.0892,0.2630,133,0,-1,-0.001019,-0.000019,-0.279253,0.141475,0.017136,-0.072745,-0.1273,-0.0441,0.3061
10886,11.0,-0.000362,-0.006020,-0.260891,0.003714,-0.191305,0.094971,-0.0865,0.1556,-0.0169,-0.00000197,-0.00000032,-0.00776318,0.00218937,0.00257429,-0.00011416,0.9827,0.0731,-9.6444,-0.039814,0.003055,-0.028632,21.3117,-7.9400,14.6585,20.0892,0.2630,131,0,0,-0.001228,-0.000355,-0.280484,0.155227,0.017508,-0.049649,-0.1895,0.0209,0.3278
10898,12.0,0.004156,-0.006502,-0.262950,0.140772,-0.139563,0.003145,1.4924,-3.6623,0.0775,-0.00000874,0.00001560,-0.00776386,-0.00496119,-0.00038173,-0.00007766,0.9585,-0.0111,-9.5686,-0.027702,-0.007615,-0.023075,20.9033,-7.1215,15.1697,20.0892,0.2630,131,1,0,-0.001233,-0.000366,-0.280825,0.161294,0.017148,-0.035765,-0.2131,0.0191,0.3222
10909,11.0,0.004297,-0.006674,-0.262771,0.117960,-0.101678,0.008892,3.0047,-2.0004,0.2910,-0.00001724,0.00000623,-0.00776467,-0.00185940,-0.00318023,-0.00018930,0.8957,-0.0526,-9.5929,0.016156,-0.002056,-0.013870,20.9033,-7.1215,15.1697,20.0892,0.2620,131,0,0,-0.001124,-0.000437,-0.281120,0.166922,0.015777,-0.022585,-0.2301,0.0529,0.3185
10920,11.0,0.004444,-0.006733,-0.262686,0.098541,-0.068529,0.008861,4.3395,-0.3145,0.5380,-0.00002619,-0.00000611,-0.00776562,0.00112855,-0.00570164,-0.00022009,0.8149,0.1110,-9.7457,0.060990,0.010714,-0.002998,20.9033,-7.1215,15.1697,20.0892,0.2620,135,0,0,-0.001176,-0.000374,-0.267417,0.175551,0.014398,0.143019,-0.1991,0.0545,0.3150
10931,11.0,0.004597,-0.006782,-0.261424,0.082556,-0.040154,0.029226,5.3428,1.1031,0.7685,-0.00003459,-0.00001860,-0.00776658,0.00383067,-0.00748393,-0.00088150,0.8469,0.2621,-9.9027,0.059675,0.009537,-0.005503,20.9033,-7.1215,15.1697,20.1447,0.2620,127,0,0,-0.001220,-0.000337,-0.265924,0.179351,0.014985,0.155635,-0.1654,0.0603,0.3236
10942,11.0,0.004786,-0.006959,-0.261122,0.069467,-0.021022,0.027353,5.5798,2.3358,0.9358,-0.00003675,-0.00003182,-0.00776721,0.00606187,-0.00805987,-0.00087797,0.9393,0.3740,-9.9570,-0.017696,-0.002656,-0.018512,20.9033,-7.1215,15.1697,20.1447,0.2640,127,0,0,-0.001369,-0.000381,-0.263431,0.186520,0.018445,0.168186,-0.1255,0.1061,0.3499
10953,11.0,0.005023,-0.007281,-0.260754,0.059721,-0.011939,0.027988,5.2591,3.2278,1.0018,-0.00003356,-0.00004318,-0.00776723,0.00776439,-0.00757877,-0.00105142,0.9640,0.2690,-9.8179,-0.103293,-0.028228,-0.034488,20.9033,-7.1215,15.1697,20.1447,0.2640,133,0,0,-0.001429,-0.000504,-0.261661,0.190432,0.020370,0.178985,-0.1569,0.1402,0.3662
10964,11.0,0.005255,-0.007622,-0.261926,0.049838,-0.009140,0.008373,4.6380,4.0592,1.0132,-0.00002532,-0.00005510,-0.00776682,0.00905926,-0.00672734,0.00162439,0.9301,0.1519,-9.6469,-0.135613,-0.023431,-0.059276,20.9033,-7.1215,15.1697,20.1447,0.2640,127,0,0,-0.001357,-0.000563,-0.259813,0.195205,0.022193,0.190654,-0.2159,0.1251,0.3585
10975,11.0,0.005468,-0.007845,-0.261780,0.044197,-0.005569,0.011870,4.3344,4.5968,1.0004,-0.00002104,-0.00006469,-0.00776650,0.01013266,-0.00624821,0.00145738,1.1061,-0.0281,-9.4613,-0.082811,-0.035349,-0.066627,20.9033,-7.1215,15.1697,20.1447,0.2630,128,0,0,-0.001280,-0.000774,-0.255673,0.203277,0.021738,0.218685,-0.3718,0.1328,0.3203
10986,11.0,0.001625,-0.007957,-0.261806,-0.074118,-0.000206,0.009014,4.3093,10.9989,1.5132,-0.00001916,-0.00019387,-0.00776732,0.02242706,-0.00611424,0.00195780,1.2089,-0.0205,-9.4905,-0.002107,-0.012948,-0.058870,21.3190,-7.1225,15.1675,20.1130,0.2630,131,-1,0,-0.001351,-0.000909,-0.259715,0.207702,0.019660,0.166030,-0.4194,0.1725,0.3542
10997,11.0,0.001324,-0.007998,-0.258958,-0.063663,0.007664,0.044969,4.3968,10.0324,1.4085,-0.00002070,-0.00017319,-0.00776735,0.02156673,-0.00613477,-0.00877830,1.1898,-0.0243,-9.5676,0.006764,0.027716,-0.054431,21.3190,-7.1225,15.1675,20.1130,0.2630,128,0,0,-0.001543,-0.000904,-0.257932,0.213681,0.018424,0.181104,-0.4255,0.1653,0.3331
11008,11.0,0.000894,-0.003941,-0.258325,-0.062353,0.123046,0.052119,9.5161,9.5348,1.9980,-0.00015781,-0.00015971,-0.00778398,0.02055962,-0.01595556,-0.00736134,1.0683,0.0417,-9.6818,0.026966,0.071457,-0.020298,21.3190,-7.1225,15.1675,20.1130,0.2640,135,0,1,-0.001846,-0.000781,-0.259641,0.223179,0.016043,0.145505,-0.4188,0.2646,0.3042
11019,11.0,0.000520,-0.003549,-0.257706,-0.064209,0.115343,0.053959,8.2332,9.1853,1.8058,-0.00011686,-0.00014589,-0.00777978,0.01980670,-0.01347142,-0.00836266,0.6013,0.3030,-9.7838,0.038459,0.101079,0.001216,21.3190,-7.1225,15.1675,20.1130,0.2640,137,0,0,-0.002096,-0.000628,-0.258085,0.225563,0.015684,0.157982,-0.4051,0.3480,0.3093
11030,11.0,0.000126,-0.003147,-0.257616,-0.067125,0.108227,0.048935,7.0410,8.8232,1.6905,-0.00007002,-0.00012697,-0.00777655,0.01900522,-0.01163361,-0.00603243,0.4150,0.4216,-9.8067,0.043904,0.107879,0.009771,21.3190,-7.1225,15.1675,20.1130,0.2640,129,0,0,-0.002271,-0.000616,-0.256449,0.225819,0.017091,0.169295,-0.3879,0.4035,0.3220
11042,12.0,0.003646,-0.002741,-0.256972,0.030970,0.102747,0.048093,5.8974,4.4785,0.9187,-0.00002506,0.00006505,-0.00776644,0.01051684,-0.00952695,-0.00848384,0.5519,0.4366,-9.7869,-0.032519,0.006205,-0.007717,21.3190,-7.1225,15.1675,20.1130,0.2620,127,1,0,-0.002617,-0.000667,-0.252771,0.220059,0.022479,0.191876,-0.3674,0.5337,0.3757
11053,11.0,0.007970,-0.002563,-0.256480,0.126385,0.092610,0.045882,4.8257,0.8187,0.3045,0.00002677,0.00024967,-0.00775580,0.00334046,-0.00769228,-0.01018023,0.6794,0.3674,-9.7529,-0.062286,-0.050569,-0.031018,21.3190,-7.1225,15.1675,20.1130,0.2620,127,1,0,-0.002482,-0.000792,-0.257994,0.217755,0.024654,0.123668,-0.3986,0.5847,0.4110
11064,11.0,0.008474,-0.002401,-0.258828,0.113396,0.078085,0.014217,3.7137,1.5582,0.3102,0.00008544,0.00021053,-0.00775325,0.00284054,-0.00594954,0.01250194,0.9414,0.2221,-9.5860,-0.053914,-0.087705,-0.062679,21.3190,-7.1225,15.1675,19.9941,0.2620,128,0,0,-0.002051,-0.000950,-0.255250,0.218327,0.028365,0.146501,-0.4849,0.5552,0.4075
11076,12.0,0.009008,-0.002284,-0.258672,0.101884,0.067243,0.016406,2.9967,2.2033,0.3142,0.00013135,0.00016345,-0.00775104,0.00423848,-0.00463896,0.01189759,0.9645,0.1112,-9.5248,-0.059802,-0.069995,-0.046981,21.3190,-7.1225,15.1675,19.9941,0.2630,130,0,0,-0.001861,-0.000981,-0.253587,0.221341,0.028950,0.160566,-0.5192,0.5064,0.3850
11087,11.0,0.009250,-0.002247,-0.258399,0.088135,0.057043,0.020233,2.4637,2.8575,0.3221,0.00017032,0.00011278,-0.00774866,0.00573544,-0.00356773,0.01040271,0.9313,-0.0036,-9.4673,-0.047254,-0.004296,-0.019249,21.3190,-7.1225,15.1675,19.9941,0.2630,135,0,0,-0.001697,-0.001138,-0.257656,0.225048,0.027210,0.111835,-0.6018,0.4939,0.4352
11098,11.0,0.009415,-0.002044,-0.260582,0.076100,0.049007,-0.006050,1.9420,3.4055,0.3363,0.00021168,0.00006768,-0.00774584,0.00487719,-0.00299808,0.03271549,0.9644,0.0573,-9.5174,0.012973,0.011398,0.019505,21.7310,-7.9421,14.6540,19.9941,0.2630,134,0,0,-0.001763,-0.001209,-0.256369,0.225826,0.025507,0.126190,-0.6248,0.5309,0.4369
11109,11.0,0.009603,-0.001828,-0.260569,0.066454,0.047138,-0.003581,1.7728,3.8133,0.3577,0.00023237,0.00002627,-0.00774442,0.00585084,-0.00254667,0.03161723,0.9550,0.1401,-9.5805,0.052506,-0.009424,0.023717,21.7310,-7.9421,14.6540,19.9941,0.2620,137,0,0,-0.001782,-0.001200,-0.255043,0.228091,0.024451,0.138954,-0.6222,0.5414,0.4606
11120,11.0,0.009873,-0.001701,-0.260612,0.060306,0.043618,-0.001424,1.5453,4.0565,0.3752,0.00025975,-0.00000549,-0.00774221,0.00644317,-0.00207931,0.03131776,0.9594,0.1372,-9.5102,0.014530,-0.055222,0.038289,21.7310,-7.9421,14.6540,19.9941,0.2620,137,0,0,-0.001819,-0.001240,-0.257580,0.230663,0.023001,0.107300,-0.5855,0.5728,0.5213
11131,11.0,0.010180,-0.001517,-0.261479,0.056092,0.041382,-0.010050,1.3397,4.2076,0.4134,0.00028659,-0.00003153,-0.00773997,0.00615117,-0.00175113,0.03954090,0.9659,0.1953,-9.5799,0.036734,-0.078627,0.076588,21.7310,-7.9421,14.6540,19.9941,0.2630,137,0,0,-0.001782,-0.001300,-0.256447,0.231130,0.022537,0.119516,-0.5821,0.5790,0.5614
11142,11.0,0.010481,-0.001240,-0.261585,0.054091,0.043653,-0.008319,1.2907,4.3280,0.4441,0.00030242,-0.00005674,-0.00773890,0.00651166,-0.00155999,0.03936537,1.1247,0.3456,-9.5516,0.088540,-0.082641,0.046288,21.7310,-7.9421,14.6540,19.9941,0.2630,135,0,0,-0.001568,-0.001359,-0.258509,0.233772,0.023419,0.094297,-0.5445,0.5398,0.6811
11153,11.0,0.010654,-0.001112,-0.261583,0.051718,0.042616,-0.007021,1.1325,4.5234,0.4336,0.00033090,-0.00009150,-0.00773634,0.00709502,-0.00116724,0.03799434,1.2983,0.3187,-9.6824,0.022756,-0.031765,0.002466,21.7310,-7.9421,14.6540,19.9941,0.2630,133,0,0,-0.001445,-0.001322,-0.257413,0.237564,0.025399,0.106900,-0.4987,0.5006,0.7179
11164,11.0,0.001831,-0.001224,-0.261952,-0.114137,0.037243,-0.013709,0.8629,8.7412,0.7507,0.00037899,-0.00085457,-0.00775361,0.01558246,-0.00068883,0.03970404,1.3048,0.3216,-9.8523,-0.050442,0.040648,-0.009263,21.7310,-7.9421,14.6540,19.9941,0.2630,135,-2,0,-0.001485,-0.001429,-0.256294,0.240218,0.026453,0.117288,-0.4959,0.5347,0.7463
11175,11.0,-0.007379,-0.001416,-0.262073,-0.259386,0.029641,-0.014916,0.6159,12.1187,0.9255,0.00042754,-0.00153059,-0.00776511,0.02240922,-0.00019095,0.03871883,1.1829,0.1437,-9.7715,-0.060206,0.066217,-0.029357,21.7310,-7.9421,14.6540,19.9941,0.2620,135,-2,0,-0.001938,-0.001468,-0.255076,0.243871,0.028201,0.126437,-0.5209,0.5547,0.7597
11186,11.0,-0.008078,-0.001384,-0.262225,-0.234140,0.026786,-0.014002,0.4696,11.2795,0.8499,0.00045674,-0.00132889,-0.00775702,0.02082851,0.00004037,0.03818270,0.8372,0.1504,-9.7419,-0.008318,0.081988,-0.000586,20.0829,-8.7617,14.9107,20.0179,0.2620,134,0,0,-0.002872,-0.001667,-0.258127,0.244558,0.028117,0.087352,-0.5989,0.6960,0.7870
11197,11.0,-0.004254,-0.001281,-0.259258,-0.136739,0.028348,0.023772,0.4623,8.8681,0.6856,0.00046452,-0.00071676,-0.00774082,0.01907975,0.00069238,0.00637731,0.6630,0.2560,-9.7211,0.008510,0.072770,0.008673,20.0829,-8.7617,14.9107,20.0179,0.2620,129,1,0,-0.002995,-0.001740,-0.256080,0.240656,0.028307,0.107839,-0.6109,0.8319,0.8257
11208,11.0,-0.000159,-0.001164,-0.258985,-0.051542,0.029568,0.022886,0.3545,6.8870,0.4822,0.00049118,-0.00016248,-0.00772138,0.01531649,0.00082944,0.00495788,0.6326,0.3956,-9.8450,0.009177,0.056725,-0.010611,20.0829,-8.7617,14.9107,20.0179,0.2630,127,1,0,-0.002935,-0.001822,-0.259856,0.237193,0.028813,0.063592,-0.6219,0.9045,0.8508
11219,11.0,-0.000360,-0.001140,-0.258653,-0.050903,0.029898,0.022072,0.2408,6.7834,0.4774,0.00052488,-0.00012198,-0.00771703,0.01517754,0.00106723,0.00373831,0.6760,0.4703,-9.9681,-0.005219,0.049365,0.023207,20.0829,-8.7617,14.9107,20.0179,0.2630,129,0,0,-0.002810,-0.001829,-0.259104,0.234773,0.031032,0.072390,-0.6201,0.9427,0.8603
11230,11.0,0.003999,-0.001192,-0.259936,0.024453,0.028110,0.001026,0.0155,5.1976,0.2043,0.00058028,0.00041148,-0.00768912,0.01094589,0.00102204,0.01672857,0.6975,0.4692,-9.9958,-0.059058,0.026030,0.000306,20.0829,-8.7617,14.9107,20.0179,0.2630,129,1,0,-0.002739,-0.001947,-0.257400,0.228891,0.035515,0.087325,-0.6601,1.0308,0.9226
11241,11.0,0.008581,-0.001278,-0.259878,0.092312,0.026309,-0.001413,-0.1595,3.8573,-0.0606,0.00062857,0.00089488,-0.00766218,0.00872657,0.00130117,0.01500818,0.7607,0.4519,-9.9965,-0.059172,-0.010910,-0.006688,20.0829,-8.7617,14.9107,20.0179,0.2620,130,1,0,-0.002763,-0.002079,-0.259776,0.225367,0.037084,0.057485,-0.7147,1.0752,0.9546
11252,11.0,0.013395,-0.001433,-0.259925,0.153859,0.022572,-0.004343,-0.3493,2.7059,-0.2988,0.00068430,0.00133649,-0.00763690,0.00683842,0.00151868,0.01425956,0.8019,0.3609,-9.9683,-0.078840,-0.052319,-0.024182,20.0829,-8.7617,14.9107,20.0179,0.2620,130,1,0,-0.002498,-0.002121,-0.259170,0.224198,0.039257,0.063746,-0.7528,1.0760,0.9652
11263,11.0,0.013860,-0.001736,-0.260875,0.138565,0.014486,-0.013844,-0.6138,3.0019,-0.2454,0.00075684,0.00118921,-0.00763752,0.00671559,0.00157443,0.02238075,0.8388,0.1388,-9.6558,-0.144894,-0.077658,-0.021074,20.0829,-8.7617,14.9107,20.0179,0.2620,133,0,0,-0.002021,-0.002290,-0.257652,0.222216,0.040106,0.079171,-0.8743,1.0482,0.9777
11274,11.0,0.014251,-0.002080,-0.261006,0.122876,0.006105,-0.010260,-0.8463,3.2737,-0.1985,0.00081903,0.00104644,-0.00763771,0.00732062,0.00183089,0.02221409,0.6772,0.0388,-9.4455,-0.154960,-0.055819,-0.002593,20.0829,-8.7617,14.9107,20.1130,0.2630,136,0,0,-0.001866,-0.002425,-0.260448,0.220245,0.038493,0.048587,-0.9672,1.0379,0.9824
11285,11.0,0.005406,-0.002177,-0.260991,-0.028953,0.001960,-0.004152,-0.9156,5.8703,-0.0613,0.00083879,-0.00026488,-0.00766487,0.01278361,0.00190153,0.02194139,0.7923,-0.0251,-9.3366,-0.059499,-0.034006,0.007077,20.4877,-7.1204,14.9152,20.1130,0.2630,133,-2,0,-0.001970,-0.002556,-0.259242,0.215788,0.033490,0.072519,-1.1182,0.9961,0.9254
11296,11.0,0.000826,0.002416,-0.261312,-0.092130,0.068850,-0.003991,0.2099,6.8986,-0.0376,0.00023480,-0.00082756,-0.00772136,0.01462960,-0.00069185,0.02695721,1.0201,0.0308,-9.3925,-0.001609,-0.024947,0.040618,20.4877,-7.1204,14.9152,20.1130,0.2630,129,-1,1,-0.002286,-0.002576,-0.258381,0.214507,0.030570,0.085873,-1.1459,0.9841,0.9494
11307,11.0,-0.003970,0.007115,-0.261274,-0.147552,0.128069,-0.000357,1.1434,7.7957,0.0729,-0.00030264,-0.00134527,-0.00777695,0.01650756,-0.00282430,0.02844695,1.1955,0.0818,-9.4428,-0.008068,0.011443,0.061368,20.4877,-7.1204,14.9152,20.1130,0.2630,132,-1,1,-0.002449,-0.002368,-0.257462,0.215430,0.028883,0.097951,-1.1496,0.9804,0.9908
11318,11.0,-0.004296,0.007304,-0.261273,-0.129548,0.113633,0.001638,0.8544,7.5180,0.0519,-0.00012726,-0.00116073,-0.00775689,0.01589306,-0.00218166,0.02781174,1.2329,0.1363,-9.5227,-0.011732,0.025059,0.024865,20.4877,-7.1204,14.9152,20.1130,0.2630,129,0,0,-0.002807,-0.002256,-0.259910,0.217878,0.026055,0.075683,-1.1658,1.0581,1.0757
11329,11.0,-0.004579,0.007478,-0.260379,-0.115118,0.101135,0.013882,0.6154,7.2870,0.0221,0.00002854,-0.00099341,-0.00773836,0.01600032,-0.00143422,0.01983258,1.0827,0.1459,-9.5467,-0.006379,0.024604,0.009560,20.4877,-7.1204,14.9152,20.1685,0.2620,134,0,0,-0.002849,-0.002263,-0.259102,0.220395,0.024868,0.086021,-1.1762,1.0802,1.1024
11341,12.0,-0.004956,0.007714,-0.260196,-0.105192,0.089493,0.017080,0.3979,7.0939,-0.0062,0.00017871,-0.00083568,-0.00772168,0.01558117,-0.00094492,0.01929266,0.8274,0.1046,-9.4959,-0.009707,0.034676,-0.015441,20.4877,-7.1204,14.9152,20.1685,0.2620,131,0,0,-0.003012,-0.002139,-0.259455,0.218808,0.023042,0.083913,-1.1923,1.1647,1.1298
11352,11.0,-0.005120,0.007869,-0.259955,-0.096101,0.079509,0.020621,0.2316,6.8907,-0.0127,0.00030859,-0.00067665,-0.00770809,0.01513752,-0.00050494,0.01848756,0.7127,0.0989,-9.4935,0.006532,0.003940,-0.012179,20.4877,-7.1204,14.9152,20.1685,0.2620,134,0,0,-0.003040,-0.002144,-0.258527,0.216952,0.021599,0.095272,-1.2013,1.1887,1.1338
11364,12.0,-0.005263,0.008202,-0.259932,-0.088297,0.073139,0.020737,0.1453,6.6599,0.0107,0.00041275,-0.00050348,-0.00769809,0.01460440,-0.00026454,0.02004679,0.5897,0.1708,-9.5422,0.056691,-0.031845,0.000560,20.4877,-7.1204,14.9152,20.1685,0.2620,127,0,0,-0.003014,-0.002137,-0.257522,0.214135,0.020208,0.105828,-1.1991,1.1961,1.1392
11375,11.0,-0.000563,0.008391,-0.259676,-0.013715,0.066829,0.022103,0.0513,5.5637,0.1213,0.00051471,0.00043745,-0.00768049,0.01197043,0.00006391,0.01852505,0.7798,0.1891,-9.6419,0.034259,-0.039899,0.037586,20.4877,-7.1204,14.9152,20.1685,0.2620,122,1,0,-0.002892,-0.002115,-0.258753,0.206939,0.018462,0.089691,-1.1483,1.1890,1.1697
11386,11.0,-0.000549,0.008507,-0.259429,-0.012294,0.060196,0.022857,-0.0541,5.5239,0.1728,0.00062234,0.00046667,-0.00767133,0.01192173,0.00033870,0.01830029,0.8735,0.1721,-9.6835,0.009103,-0.012592,0.066745,22.1467,-8.3530,14.6517,20.1685,0.2620,129,0,0,-0.002652,-0.002140,-0.257812,0.204631,0.018103,0.098687,-1.1348,1.1987,1.2279
11398,12.0,-0.000614,0.008660,-0.260041,-0.009943,0.054581,0.012752,-0.1502,5.5152,0.2188,0.00072859,0.00048302,-0.00766153,0.01127432,0.00049439,0.02515505,1.0606,0.2019,-9.7121,0.006397,0.012284,0.067557,22.1467,-8.3530,14.6517,20.1685,0.2620,126,0,0,-0.002674,-0.002201,-0.255618,0.202282,0.017298,0.116136,-1.1337,1.2413,1.3276
11409,11.0,-0.000715,0.008802,-0.259905,-0.007066,0.049857,0.012119,-0.2105,5.5360,0.2354,0.00081322,0.00048082,-0.00765311,0.01127355,0.00067627,0.02502351,1.2309,0.1676,-9.7696,0.028413,0.030166,0.040069,22.1467,-8.3530,14.6517,20.2266,0.2620,133,0,0,-0.002719,-0.002205,-0.259261,0.204150,0.016946,0.072043,-1.1282,1.2635,1.3747
11420,11.0,-0.000793,0.008980,-0.259764,-0.005479,0.046487,0.010991,-0.2448,5.5528,0.2258,0.00088355,0.00047892,-0.00764573,0.01129861,0.00081889,0.02480042,1.1241,0.1901,-9.8420,0.046197,0.024283,0.000880,22.1467,-8.3530,14.6517,20.2266,0.2620,134,0,0,-0.002867,-0.002270,-0.258504,0.204111,0.016364,0.079462,-1.1154,1.3282,1.4073
11431,11.0,-0.000836,0.009173,-0.260266,-0.005553,0.042706,0.002428,-0.2678,5.5568,0.2027,0.00094819,0.00048449,-0.00763900,0.01085678,0.00086042,0.02950628,0.9396,0.0891,-9.8623,0.051550,0.014637,-0.025507,22.1467,-8.3530,14.6517,20.2266,0.2620,134,0,0,-0.002926,-0.002254,-0.257675,0.205602,0.016036,0.086409,-1.0956,1.3524,1.4272
11442,11.0,-0.000827,0.009371,-0.260241,-0.006343,0.040354,0.000227,-0.2765,5.5418,0.1999,0.00100317,0.00050001,-0.00763339,0.01084955,0.00094699,0.02933453,0.8152,0.1695,-9.9617,0.057278,-0.003350,-0.001922,22.1467,-8.3530,14.6517,20.2266,0.2620,133,0,0,-0.003049,-0.002263,-0.258978,0.201857,0.014873,0.067447,-1.0405,1.4163,1.4298
11453,11.0,-0.000731,0.009469,-0.260248,-0.005417,0.037712,-0.001442,-0.3199,5.4894,0.2055,0.00107626,0.00053537,-0.00762605,0.01082276,0.00102437,0.02923311,0.8506,0.2359,-9.8961,0.019740,-0.039682,0.007774,22.1467,-8.3530,14.6517,20.2266,0.2620,133,0,0,-0.003085,-0.002281,-0.258276,0.198455,0.014531,0.072966,-1.0130,1.4455,1.4389
11464,11.0,-0.005280,0.009391,-0.260572,-0.064235,0.032453,-0.006024,-0.4238,6.1173,0.1340,0.00118021,-0.00040026,-0.00762875,0.01172925,0.00111685,0.03195733,0.9437,0.1714,-9.8278,-0.043870,-0.084063,-0.014345,22.1467,-8.3530,14.6517,20.2847,0.2620,131,-1,0,-0.003337,-0.002339,-0.256682,0.193256,0.014397,0.084949,-1.0096,1.4351,1.4673
11475,11.0,-0.005139,0.009250,-0.260635,-0.053458,0.026076,-0.005365,-0.5469,5.9327,0.1254,0.00128661,-0.00021960,-0.00761616,0.01152943,0.00124865,0.03175773,1.0278,0.0826,-9.6639,-0.074712,-0.094104,-0.023467,22.1467,-8.3530,14.6517,20.2847,0.2620,127,0,0,-0.003355,-0.002379,-0.259689,0.192615,0.014025,0.049389,-1.0420,1.3958,1.4715
11486,11.0,-0.009797,0.009144,-0.260691,-0.105182,0.020554,-0.004218,-0.6412,6.4762,-0.0118,0.00136970,-0.00110850,-0.00761489,0.01255943,0.00134139,0.03218663,1.0990,0.0500,-9.6068,-0.054236,-0.071137,-0.046185,22.1357,-7.9400,14.9152,20.2847,0.2620,129,-1,0,-0.003235,-0.002504,-0.258546,0.192757,0.011852,0.064976,-1.1261,1.3398,1.4346
11497,11.0,-0.009920,0.009130,-0.260501,-0.092058,0.017147,0.000372,-0.6889,6.3227,-0.0228,0.00142167,-0.00087864,-0.00760774,0.01246053,0.00143255,0.03032429,1.0838,0.0757,-9.5436,-0.016657,-0.013494,-0.053721,22.1357,-7.9400,14.9152,20.2847,0.2620,132,0,0,-0.003390,-0.002587,-0.257863,0.191604,0.010743,0.073802,-1.1522,1.3486,1.4088
11508,11.0,-0.010136,0.009123,-0.260492,-0.082367,0.015185,0.002181,-0.7263,6.2338,-0.0357,0.00146692,-0.00069711,-0.00760136,0.01224757,0.00148924,0.03022945,1.0265,0.1690,-9.5554,-0.010515,0.032429,-0.045125,22.1357,-7.9400,14.9152,20.2847,0.2620,132,0,0,-0.003352,-0.002603,-0.260004,0.192527,0.009647,0.051344,-1.1678,1.3488,1.3896
11519,11.0,-0.010460,0.009105,-0.260459,-0.076748,0.013790,0.003818,-0.7611,6.2073,-0.0271,0.00151162,-0.00055902,-0.00759525,0.01211137,0.00153420,0.03012713,0.8874,0.2179,-9.5909,-0.013224,0.083807,-0.001078,22.1357,-7.9400,14.9152,20.2847,0.2620,133,0,0,-0.003532,-0.002685,-0.258805,0.190780,0.008853,0.068948,-1.1874,1.4380,1.3607
11530,11.0,-0.010797,0.009099,-0.260413,-0.073829,0.013383,0.005653,-0.7845,6.1990,0.0051,0.00155096,-0.00043407,-0.00758955,0.01196427,0.00158260,0.03008012,0.7136,0.2835,-9.5839,-0.005951,0.095421,0.040928,22.1357,-7.9400,14.9152,20.2847,0.2620,136,0,0,-0.003720,-0.002751,-0.258073,0.187532,0.008842,0.077560,-1.2001,1.5191,1.3726
11540,10.0,-0.005803,0.009171,-0.260353,-0.004186,0.014775,0.006260,-0.7758,5.4968,0.0445,0.00156958,0.00095600,-0.00756065,0.01044388,0.00158339,0.02935806,0.7777,0.3678,-9.6826,0.030648,0.063487,0.037115,22.1357,-7.9400,14.9152,20.2847,0.2620,135,1,0,-0.003873,-0.002770,-0.257266,0.184171,0.009403,0.086210,-1.2077,1.5828,1.4047
11551,11.0,-0.001074,0.009268,-0.260264,0.055762,0.016575,0.005454,-0.7653,4.8886,0.0066,0.00158870,0.00213942,-0.00752883,0.00928069,0.00161210,0.02859917,0.9432,0.3919,-9.8311,0.034262,-0.007019,0.007085,22.1357,-7.9400,14.9152,20.1923,0.2620,133,1,0,-0.003868,-0.002814,-0.259304,0.178791,0.012052,0.063427,-1.1844,1.6777,1.4660
11562,11.0,-0.000925,0.009157,-0.260653,0.050004,0.014808,-0.000184,-0.8380,4.9296,-0.0080,0.00166822,0.00202233,-0.00752486,0.00907228,0.00161790,0.03182668,0.8549,0.3202,-9.7742,-0.050156,-0.023482,-0.036874,22.1357,-7.9400,14.9152,20.1923,0.2620,132,0,0,-0.003673,-0.002869,-0.258640,0.176975,0.013277,0.069487,-1.1809,1.7038,1.4836
11573,11.0,-0.000805,0.008963,-0.260628,0.044184,0.010783,0.001061,-0.9390,4.9704,-0.0296,0.00176121,0.00191162,-0.00751945,0.00919368,0.00170950,0.03166160,0.8013,0.1874,-9.6550,-0.085530,-0.015076,-0.046188,22.1357,-7.9400,14.9152,20.1923,0.2610,132,0,0,-0.003596,-0.002895,-0.257914,0.175521,0.014464,0.075806,-1.2019,1.6968,1.4791
11584,11.0,-0.000662,0.008892,-0.260608,0.039439,0.008930,0.002600,-0.9848,4.9918,-0.0372,0.00181206,0.00182219,-0.00751741,0.00928529,0.00175188,0.03166696,0.8011,0.2092,-9.6041,-0.032495,-0.028097,-0.026754,21.3081,-7.5291,14.6608,20.1923,0.2610,137,0,0,-0.003477,-0.003025,-0.258731,0.170555,0.014032,0.067391,-1.2957,1.7094,1.4575
11595,11.0,-0.000534,0.008866,-0.260228,0.036115,0.007296,0.008743,-1.0089,5.0104,-0.0347,0.00184366,0.00173836,-0.00751669,0.00959241,0.00183440,0.02928110,0.8932,0.1566,-9.5420,-0.014111,-0.026528,-0.008051,21.3081,-7.5291,14.6608,20.1923,0.2610,138,0,0,-0.003437,-0.003080,-0.257988,0.167639,0.013687,0.075993,-1.3162,1.7206,1.4515
11606,11.0,-0.000415,0.008758,-0.260119,0.033464,0.004830,0.011079,-1.0602,5.0257,-0.0293,0.00189461,0.00166083,-0.00751387,0.00966136,0.00188732,0.02928049,0.9250,0.1568,-9.5237,-0.046135,-0.025804,0.000038,21.3081,-7.5291,14.6608,20.1923,0.2620,131,0,0,-0.003363,-0.003086,-0.257185,0.166489,0.012912,0.084662,-1.3259,1.7119,1.4558
11618,12.0,-0.004642,0.008665,-0.259928,-0.021756,0.001574,0.013992,-1.1057,5.5228,-0.0373,0.00193433,0.00037155,-0.00753403,0.01094733,0.00193050,0.02923277,1.0191,0.0535,-9.5290,-0.042546,-0.034723,0.007173,21.3081,-7.5291,14.6608,20.1579,0.2620,134,-1,0,-0.003252,-0.003182,-0.258956,0.164405,0.010856,0.066512,-1.3896,1.7181,1.4748
11628,10.0,-0.015030,0.008770,-0.260306,-0.145557,0.001743,0.009697,-1.0730,6.6320,-0.1059,0.00191020,-0.00249539,-0.00758254,0.01340953,0.00182013,0.03349425,1.0557,0.0885,-9.5251,0.040225,-0.026647,0.022736,21.3081,-7.5291,14.6608,20.1579,0.2620,139,-2,0,-0.003439,-0.003246,-0.258247,0.162710,0.009272,0.075318,-1.4127,1.7342,1.4792
11639,11.0,-0.015248,0.008922,-0.260160,-0.128595,0.002954,0.011590,-1.0192,6.4824,-0.0774,0.00187119,-0.00209844,-0.00758054,0.01305293,0.00178885,0.03318537,1.1320,0.1407,-9.5741,0.061494,-0.001452,0.006977,21.3081,-7.5291,14.6608,20.1579,0.2610,133,0,0,-0.003844,-0.003259,-0.259083,0.161444,0.006607,0.064834,-1.3682,1.7548,1.5096
11650,11.0,-0.015521,0.009024,-0.260031,-0.114678,0.004229,0.011749,-0.9841,6.3817,-0.0433,0.00185163,-0.00176457,-0.00757717,0.01275897,0.00176908,0.03310221,1.1157,0.2163,-9.6986,0.041885,0.031742,0.027621,21.3081,-7.5291,14.6608,20.1579,0.2610,135,0,0,-0.003858,-0.003231,-0.258395,0.162595,0.005955,0.072793,-1.3387,1.7634,1.5254
11661,11.0,-0.015820,0.009146,-0.259566,-0.103377,0.006413,0.015107,-0.9454,6.3136,-0.0329,0.00183054,-0.00147714,-0.00757383,0.01275247,0.00180014,0.03072827,1.0679,0.2938,-9.7755,0.050393,0.051986,0.002705,21.3081,-7.5291,14.6608,20.1579,0.2610,135,0,0,-0.004091,-0.003261,-0.256759,0.162037,0.006378,0.086324,-1.2950,1.8578,1.5674
11672,11.0,-0.016104,0.009251,-0.259404,-0.094237,0.008178,0.014220,-0.9182,6.2580,-0.0445,0.00182254,-0.00121500,-0.00756897,0.01257778,0.00178234,0.03065875,0.9788,0.2947,-9.8104,0.042625,0.053737,-0.021592,21.3081,-7.5291,14.6608,20.1579,0.2620,135,0,0,-0.004247,-0.003310,-0.259391,0.160216,0.007059,0.053330,-1.2756,1.9232,1.5725
11683,11.0,-0.016450,0.009091,-0.259210,-0.090513,0.006330,0.014263,-0.9866,6.2418,-0.0513,0.00190155,-0.00099313,-0.00755580,0.01246571,0.00184159,0.03030214,0.6348,0.2757,-9.8076,-0.065129,0.090565,0.003432,20.8997,-7.9400,14.4019,20.1579,0.2620,131,0,0,-0.004363,-0.003322,-0.258831,0.157219,0.007665,0.058526,-1.2790,1.9732,1.5763
11694,11.0,-0.016744,0.008842,-0.258689,-0.086463,0.003052,0.019208,-1.0808,6.2132,-0.0259,0.00200163,-0.00076120,-0.00754130,0.01265250,0.00194894,0.02784204,0.6397,0.2254,-9.7005,-0.100892,0.072651,0.045745,20.8997,-7.9400,14.4019,20.1579,0.2600,131,0,0,-0.004507,-0.003391,-0.258219,0.152269,0.008101,0.064026,-1.3141,2.0436,1.5850
11705,11.0,-0.012170,0.008692,-0.258443,-0.022029,0.001249,0.020165,-1.1346,5.6696,-0.0438,0.00205812,0.00100493,-0.00749257,0.01160182,0.00199541,0.02712907,0.8418,0.2257,-9.6868,-0.059787,0.017490,0.054604,20.8997,-7.9400,14.4019,20.1579,0.2600,128,1,0,-0.004477,-0.003525,-0.258116,0.143989,0.007545,0.064097,-1.4288,2.1507,1.6559
11716,11.0,-0.012097,0.008674,-0.258219,-0.017316,0.001399,0.020647,-1.1399,5.6121,-0.0202,0.00206949,0.00110487,-0.00748897,0.01153513,0.00199828,0.02710028,1.0649,0.2465,-9.6792,-0.005036,-0.042579,0.035393,20.8997,-7.9400,14.4019,20.1579,0.2600,128,0,0,-0.004276,-0.003558,-0.257404,0.142379,0.007234,0.071393,-1.4688,2.1709,1.6978
11727,11.0,-0.011943,0.008773,-0.259459,-0.011949,0.002839,0.004073,-1.1077,5.5319,-0.0273,0.00204603,0.00122036,-0.00748827,0.01055495,0.00176345,0.03665684,1.0825,0.2360,-9.6579,0.041972,-0.072138,-0.015068,20.8997,-7.9400,14.4019,20.1579,0.2620,127,0,0,-0.004143,-0.003607,-0.255837,0.141732,0.006891,0.085306,-1.4768,2.1599,1.7454
11738,11.0,-0.011890,0.008835,-0.259412,-0.008515,0.003211,0.004520,-1.0912,5.4959,-0.0376,0.00203591,0.00127905,-0.00748781,0.01051185,0.00175746,0.03664379,1.0706,0.1905,-9.6738,0.024990,-0.028814,-0.022384,20.8997,-7.9400,14.4019,20.1579,0.2620,129,0,0,-0.004079,-0.003640,-0.259238,0.141249,0.006908,0.045602,-1.4575,2.1551,1.7419
11749,11.0,-0.011940,0.008831,-0.259299,-0.007018,0.002585,0.005390,-1.0988,5.5003,-0.0544,0.00204882,0.00129184,-0.00748616,0.01054517,0.00177437,0.03622708,1.0428,0.1727,-9.7071,-0.001800,0.014498,-0.031194,20.8997,-7.9400,14.4019,20.0998,0.2620,129,0,0,-0.004020,-0.003627,-0.258748,0.141732,0.006488,0.052374,-1.4470,2.1443,1.7392
11760,11.0,-0.012016,0.008783,-0.258968,-0.007926,0.001513,0.009356,-1.1196,5.5174,-0.0642,0.00207369,0.00129366,-0.00748362,0.01072265,0.00183135,0.03451250,0.8548,0.1717,-9.6614,-0.018823,0.029548,-0.019272,20.8997,-7.9400,14.4019,20.0998,0.2600,127,0,0,-0.004109,-0.003684,-0.257498,0.139852,0.005140,0.066269,-1.4611,2.2010,1.7161
11771,11.0,-0.012044,0.008801,-0.258813,-0.009022,0.001160,0.010726,-1.1160,5.5171,-0.0689,0.00207222,0.00131774,-0.00748325,0.01074110,0.00183811,0.03419572,0.7727,0.1551,-9.6740,0.007889,0.011280,-0.014370,20.8997,-7.9400,14.4019,20.0998,0.2600,127,0,0,-0.004181,-0.003726,-0.258576,0.136863,0.004616,0.053977,-1.4722,2.2414,1.7092
11783,12.0,-0.012088,0.008809,-0.258679,-0.009871,0.001776,0.011651,-1.1147,5.5182,-0.0640,0.00207646,0.00134483,-0.00748236,0.01074724,0.00183164,0.03419244,0.8024,0.2530,-9.6644,0.005029,0.013199,-0.000307,20.8997,-7.9400,14.4019,20.0998,0.2600,132,0,0,-0.004223,-0.003753,-0.257304,0.130955,0.003426,0.068271,-1.4739,2.2845,1.6774
11794,11.0,-0.012227,0.008761,-0.259714,-0.009171,0.001974,-0.001487,-1.1304,5.5511,-0.0395,0.00210485,0.00133537,-0.00747985,0.01004849,0.00167620,0.04147812,1.0501,0.2876,-9.6724,-0.015853,0.048623,0.034116,20.0757,-7.9400,14.1452,20.0998,0.2620,134,0,0,-0.004267,-0.003762,-0.256508,0.129501,0.003448,0.076134,-1.4790,2.3103,1.6938
11805,11.0,-0.012278,0.008740,-0.259733,-0.007098,0.002051,-0.001956,-1.1384,5.5560,-0.0264,0.00212157,0.00134954,-0.00747783,0.01003048,0.00167935,0.04147324,1.1072,0.2514,-9.7479,-0.006089,0.014182,0.016213,20.0757,-7.9400,14.1452,20.0998,0.2620,129,0,0,-0.004445,-0.003844,-0.258830,0.128498,0.004170,0.049608,-1.5008,2.3947,1.7438
11816,11.0,-0.012273,0.008723,-0.259690,-0.005414,0.001834,-0.000847,-1.1475,5.5446,-0.0365,0.00213652,0.00137813,-0.00747557,0.01005721,0.00169539,0.04106818,1.0251,0.2198,-9.6815,-0.005366,-0.005421,-0.020097,20.0757,-7.9400,14.1452,20.0998,0.2620,131,0,0,-0.004494,-0.003899,-0.258242,0.127435,0.004175,0.056125,-1.5083,2.4281,1.7518
11827,11.0,-0.007506,0.008647,-0.259163,0.051113,0.000073,0.006597,-1.1748,5.1258,-0.0767,0.00216686,0.00316400,-0.00743100,0.00960392,0.00179565,0.03756294,0.9137,0.1342,-9.6137,-0.028882,0.009579,-0.008559,20.0757,-7.9400,14.1452,20.1579,0.2600,135,1,0,-0.004473,-0.003906,-0.257649,0.127139,0.003837,0.062540,-1.5171,2.4325,1.7505
11838,11.0,-0.007422,0.008614,-0.259051,0.043545,-0.000524,0.008531,-1.1863,5.1644,-0.0755,0.00217914,0.00298915,-0.00743375,0.00970137,0.00180588,0.03738740,0.6857,0.1798,-9.6074,-0.011301,0.000143,-0.009114,20.0757,-7.9400,14.1452,20.1579,0.2600,129,0,0,-0.004290,-0.003957,-0.258008,0.123066,0.001995,0.059350,-1.5499,2.4719,1.7493
11850,12.0,-0.007284,0.008739,-0.258945,0.038231,0.001843,0.009096,-1.1402,5.1867,-0.0669,0.00213225,0.00284602,-0.00744164,0.00977158,0.00177451,0.03740646,0.8165,0.2772,-9.6888,0.053222,-0.011892,-0.002988,20.0757,-7.9400,14.1452,20.1579,0.2600,128,0,0,-0.004290,-0.003971,-0.257379,0.119076,0.001656,0.066453,-1.5491,2.4884,1.7492
11861,11.0,-0.002363,0.008808,-0.258847,0.091912,0.004489,0.008915,-1.1158,4.7928,-0.1581,0.00211467,0.00456868,-0.00739342,0.00907916,0.00176191,0.03725023,0.9925,0.3977,-9.7334,0.034609,-0.015081,-0.007866,20.0757,-7.9400,14.1452,20.1579,0.2600,132,1,0,-0.004267,-0.003951,-0.256632,0.116725,0.001914,0.073487,-1.5253,2.4901,1.7557
11872,11.0,-0.002197,0.008654,-0.258749,0.084349,0.003190,0.008854,-1.1736,4.8500,-0.1569,0.00219724,0.00423445,-0.00739562,0.00918720,0.00178690,0.03726774,1.0540,0.2982,-9.7209,-0.058663,-0.019611,-0.032474,20.0757,-7.9400,14.1452,20.1579,0.2620,128,0,0,-0.004029,-0.003987,-0.259309,0.115444,0.003916,0.039799,-1.5157,2.5037,1.7613
11883,11.0,-0.001979,0.008560,-0.258609,0.078134,0.001922,0.009786,-1.2098,4.8799,-0.1623,0.00224848,0.00395140,-0.00739895,0.00931548,0.00181362,0.03703198,1.0351,0.2235,-9.6774,-0.035329,-0.043544,-0.037445,19.6673,-7.9410,14.6563,20.1579,0.2620,134,0,0,-0.004005,-0.004073,-0.258882,0.114578,0.004115,0.045527,-1.5569,2.5181,1.6959
11894,11.0,-0.001739,0.008555,-0.258781,0.072812,0.001166,0.007326,-1.2167,4.8942,-0.1813,0.00225886,0.00370108,-0.00740474,0.00922912,0.00177741,0.03872548,1.0199,0.1627,-9.6421,-0.001246,-0.055618,-0.054666,19.6673,-7.9410,14.6563,20.2160,0.2600,134,0,0,-0.003911,-0.004099,-0.258397,0.114683,0.003855,0.051542,-1.5883,2.5027,1.6843
11905,11.0,-0.006407,0.008472,-0.258679,0.010855,-0.000171,0.008804,-1.2499,5.3275,-0.0947,0.00230225,0.00150934,-0.00745813,0.01006890,0.00180338,0.03871067,0.9939,0.1855,-9.5967,-0.037540,-0.022675,0.004825,19.6673,-7.9410,14.6563,20.2160,0.2600,134,-1,0,-0.003749,-0.004142,-0.258338,0.113986,0.002098,0.053929,-1.6099,2.4785,1.6392
11916,11.0,-0.011194,0.008408,-0.258575,-0.045388,-0.001892,0.010168,-1.2718,5.7225,-0.0388,0.00232858,-0.00047512,-0.00750180,0.01083634,0.00182779,0.03877988,0.9789,0.1145,-9.5935,-0.027310,-0.006185,0.020056,19.6673,-7.9410,14.6563,20.2160,0.2600,139,-1,0,-0.003934,-0.004198,-0.257747,0.112300,0.001412,0.061119,-1.6304,2.4912,1.6394
11927,11.0,-0.015992,0.008460,-0.259643,-0.096628,-0.001644,-0.002149,-1.2549,6.0424,-0.0227,0.00230323,-0.00222790,-0.00754278,0.01084921,0.00163527,0.04578942,0.8389,0.1564,-9.5887,0.021540,-0.042264,-0.019058,19.6673,-7.9410,14.6563,20.2160,0.2620,134,-1,0,-0.004319,-0.004260,-0.259456,0.109417,-0.000748,0.040362,-1.6578,2.5128,1.6681
11938,11.0,-0.015923,0.008493,-0.259652,-0.086421,-0.001677,0.000363,-1.2454,5.9053,-0.0523,0.00227980,-0.00175277,-0.00753528,0.01069334,0.00163557,0.04576565,0.7398,0.1508,-9.5117,0.014807,-0.072352,-0.053940,19.6673,-7.9410,14.6563,20.2160,0.2620,129,0,0,-0.004425,-0.004252,-0.259002,0.107205,-0.001816,0.047695,-1.6502,2.4930,1.6630
11948,10.0,-0.015797,0.008544,-0.259625,-0.077293,-0.000298,0.001543,-1.2299,5.7920,-0.0777,0.00225238,-0.00133584,-0.00752850,0.01052877,0.00162630,0.04562674,0.7638,0.2754,-9.6389,0.023916,-0.059935,-0.043872,19.6673,-7.9410,14.6563,20.2160,0.2620,139,0,0,-0.004310,-0.004250,-0.258486,0.104392,-0.002631,0.055463,-1.6413,2.4701,1.6358
11959,11.0,-0.015822,0.008586,-0.259077,-0.068626,0.002008,0.006992,-1.2154,5.7067,-0.0989,0.00223694,-0.00098495,-0.00752069,0.01070586,0.00167614,0.04251032,0.9224,0.3855,-9.7938,0.022533,-0.031771,-0.023111,19.6673,-7.9410,14.6563,20.2160,0.2600,136,0,0,-0.004100,-0.004260,-0.257221,0.099737,-0.002004,0.068200,-1.6258,2.4313,1.6088
11970,11.0,-0.016251,0.008630,-0.258982,-0.040319,-0.004907,0.005769,-2.0229,3.5303,-0.4989,0.00524194,0.00734995,-0.00700859,0.15985189,-0.05391767,0.05510617,1.0271,0.3873,-9.8386,-0.029328,-0.006080,-0.007087,19.6673,-7.9410,14.6563,20.1817,0.2600,132,0,0,-0.004040,-0.004259,-0.258553,0.099297,-0.000697,0.051274,-1.6192,2.4202,1.6053
11981,11.0,-0.016336,0.008409,-0.258924,-0.033001,-0.006218,0.004868,-2.0824,3.5265,-0.4987,0.00528999,0.00742537,-0.00700219,0.15850335,-0.05343216,0.05498993,1.0954,0.3500,-9.7898,-0.078918,0.013898,-0.001639,20.4877,-7.9400,15.1719,20.1817,0.2600,135,0,0,-0.004051,-0.004330,-0.257991,0.098496,0.000299,0.055943,-1.6409,2.4434,1.6095
11992,11.0,-0.016307,0.008140,-0.259098,-0.025718,-0.009614,0.004061,-2.1567,3.4957,-0.5095,0.00534633,0.00751207,-0.00699473,0.15689972,-0.05292108,0.05622560,1.0399,0.1850,-9.5352,-0.099716,-0.026748,-0.019858,20.4877,-7.9400,15.1719,20.1817,0.2600,139,0,0,-0.004084,-0.004481,-0.256735,0.099329,0.001189,0.066553,-1.7439,2.4898,1.5762
12003,11.0,-0.021119,0.007973,-0.259029,-0.074155,-0.014071,0.008473,-2.2875,3.6205,-0.6132,0.00564053,0.00628170,-0.00697645,0.17195717,-0.05806321,0.05737735,0.8904,0.0161,-9.3278,-0.082798,-0.025106,-0.033583,20.4877,-7.9400,15.1719,20.1817,0.2620,136,-1,0,-0.003997,-0.004535,-0.259443,0.100082,0.000199,0.037460,-1.8062,2.4796,1.5718
12014,11.0,-0.026056,0.008019,-0.258870,-0.119268,-0.016298,0.015098,-2.3411,3.7449,-0.6817,0.00579802,0.00515450,-0.00697224,0.18595690,-0.06291142,0.05821492,0.7969,-0.0582,-9.1700,-0.000336,0.000980,-0.010050,20.4877,-7.9400,15.1719,20.1817,0.2620,136,-1,0,-0.004257,-0.004607,-0.258477,0.097312,-0.004856,0.057146,-1.8996,2.4675,1.5550
12025,11.0,-0.026236,0.008286,-0.259530,-0.106757,-0.013831,0.009591,-2.2219,3.7108,-0.6194,0.00553954,0.00550033,-0.00699698,0.18229270,-0.06211177,0.06272241,0.7959,0.0464,-9.3299,0.116122,0.017330,0.021757,20.4877,-7.9400,15.1719,20.1817,0.2610,131,0,0,-0.004665,-0.004398,-0.257852,0.094600,-0.007389,0.068025,-1.8966,2.4760,1.5611
12036,11.0,-0.026496,0.008683,-0.259388,-0.095924,-0.008704,0.012023,-2.0665,3.7062,-0.5461,0.00525319,0.00579513,-0.00702515,0.17991889,-0.06150451,0.06241346,0.8688,0.1845,-9.5258,0.168090,0.055060,0.040452,20.4877,-7.9400,15.1719,20.1817,0.2610,131,0,0,-0.004711,-0.004338,-0.259197,0.092867,-0.009462,0.055013,-1.8408,2.4916,1.5792
12047,11.0,-0.026837,0.008971,-0.259267,-0.086838,-0.003505,0.010159,-1.9521,3.7337,-0.4664,0.00505191,0.00602532,-0.00704438,0.17800933,-0.06100013,0.06228244,0.9344,0.3666,-9.8800,0.124809,0.091128,0.072507,20.4877,-7.9400,15.1719,20.1817,0.2610,134,0,0,-0.005004,-0.004182,-0.257950,0.090043,-0.009714,0.068538,-1.6645,2.5740,1.6470
12058,11.0,-0.032007,0.004334,-0.259760,-0.133755,-0.055583,0.000767,-2.2844,3.9846,-0.7187,0.00726807,0.00448959,-0.00682202,0.18632112,-0.06253230,0.06614193,0.8668,0.3875,-9.9397,0.060646,0.082212,0.071848,20.4877,-7.9400,15.1719,20.1817,0.2610,132,-1,-1,-0.005235,-0.004173,-0.257207,0.087822,-0.008546,0.072614,-1.6013,2.6519,1.6967
12069,11.0,-0.032303,0.004272,-0.259770,-0.119917,-0.048609,-0.002453,-2.2238,3.9714,-0.6285,0.00696459,0.00488288,-0.00684944,0.18314466,-0.06161730,0.06593525,0.9624,0.3895,-9.9971,0.012902,0.052882,0.063261,20.4877,-7.9400,15.1719,20.1817,0.2630,132,0,0,-0.005598,-0.004368,-0.256465,0.085403,-0.007603,0.075713,-1.5673,2.7087,1.7452
12080,11.0,-0.027754,-0.000774,-0.259781,-0.047602,-0.100969,-0.005229,-2.6535,3.2692,-1.2052,0.00950025,0.00963505,-0.00590729,0.19772564,-0.06821012,0.06763297,1.0563,0.3874,-9.9875,-0.013800,0.009689,0.031799,20.4877,-7.9400,15.1719,20.1817,0.2630,128,1,-1,-0.005580,-0.004634,-0.259819,0.084053,-0.005201,0.033811,-1.5673,2.7911,1.7807
12092,12.0,-0.018779,-0.001378,-0.260649,0.060624,-0.093595,-0.016894,-2.4858,3.0155,-1.0161,0.00852037,0.01228217,-0.00597455,0.16157115,-0.05609600,0.06962799,1.0985,0.2695,-9.9126,-0.055824,-0.026501,-0.021886,20.0685,-7.5281,14.4065,20.1817,0.2620,130,2,0,-0.005212,-0.004687,-0.259469,0.084408,-0.003950,0.036163,-1.5836,2.8224,1.8040
12103,11.0,-0.018571,-0.001746,-0.260810,0.057999,-0.088947,-0.016546,-2.5174,2.9756,-1.0234,0.00825424,0.01219724,-0.00600488,0.16433327,-0.05718350,0.06963906,0.9006,0.1013,-9.7125,-0.094872,-0.047657,-0.058872,20.0685,-7.5281,14.4065,20.1817,0.2620,138,0,0,-0.004695,-0.004774,-0.260199,0.085691,-0.003770,0.027944,-1.6597,2.8191,1.7842
12114,11.0,-0.023272,-0.001972,-0.260978,0.001476,-0.085215,-0.013969,-2.6236,3.0474,-1.1089,0.00829963,0.01071799,-0.00602130,0.18583427,-0.06483169,0.07085188,0.8253,-0.0003,-9.4881,-0.083922,-0.046838,-0.052324,20.0685,-7.5281,14.4065,20.1817,0.2620,130,-1,0,-0.004562,-0.004816,-0.259862,0.084846,-0.005489,0.033784,-1.7191,2.7962,1.7589
12125,11.0,-0.028204,-0.002021,-0.261228,-0.051635,-0.079768,-0.013220,-2.6730,3.1522,-1.1580,0.00825405,0.00932872,-0.00604567,0.20588675,-0.07213299,0.07250028,0.7734,0.0213,-9.5438,-0.019138,0.019200,-0.010715,20.0685,-7.5281,14.4065,20.1817,0.2620,131,-1,0,-0.004838,-0.004884,-0.259041,0.079832,-0.009920,0.048324,-1.7939,2.7868,1.7173
12137,12.0,-0.032888,0.002527,-0.261377,-0.094070,-0.021122,-0.011439,-2.3772,3.1841,-0.9719,0.00605531,0.00846561,-0.00629256,0.22882330,-0.08165751,0.07355324,0.8186,0.1161,-9.5644,0.038472,0.048610,0.000988,20.0685,-7.5281,14.4065,20.1817,0.2630,131,-1,1,-0.005127,-0.004892,-0.261065,0.076572,-0.011567,0.027810,-1.7922,2.8216,1.7096
12149,12.0,-0.033083,0.007154,-0.261475,-0.081732,0.032995,-0.009982,-2.0268,3.1006,-0.7291,0.00376890,0.00905534,-0.00652687,0.23194207,-0.08411910,0.07337664,0.8820,0.2122,-9.6184,0.046749,0.034418,0.002364,20.0685,-7.5281,14.4065,20.1817,0.2630,133,0,1,-0.005429,-0.004673,-0.260754,0.073985,-0.012369,0.034426,-1.7746,2.8560,1.7173
12160,11.0,-0.033208,0.007243,-0.262070,-0.070417,0.030567,-0.016336,-2.0167,3.0941,-0.7247,0.00384051,0.00926972,-0.00651596,0.22857289,-0.08302161,0.07571477,1.0498,0.3190,-9.7707,0.025558,0.019596,0.000185,20.0685,-7.5281,14.4065,20.1817,0.2630,139,0,0,-0.005605,-0.004444,-0.259909,0.071209,-0.012030,0.046121,-1.7264,2.9189,1.7264
12171,11.0,-0.033282,0.007290,-0.262224,-0.059485,0.028476,-0.017678,-2.0186,3.0792,-0.7285,0.00393081,0.00946811,-0.00650308,0.22563888,-0.08192589,0.07538650,1.0912,0.3720,-9.8536,0.011625,0.003686,-0.009697,20.0685,-7.5281,14.4065,20.1473,0.2630,130,0,0,-0.005685,-0.004480,-0.261314,0.070736,-0.011199,0.030096,-1.7173,2.9544,1.7297
12182,11.0,-0.033368,0.002323,-0.262425,-0.051067,-0.029994,-0.019338,-2.3508,3.1410,-0.9605,0.00636600,0.00932598,-0.00624675,0.21643825,-0.07763642,0.07505318,1.0686,0.3615,-9.8478,-0.012655,-0.007038,-0.013077,21.3081,-8.3487,14.6608,20.1473,0.2630,137,0,-1,-0.005701,-0.004483,-0.260958,0.071496,-0.010030,0.034315,-1.7140,2.9643,1.7318
12193,11.0,-0.033456,0.002148,-0.263019,-0.034652,-0.031092,-0.024676,-2.6382,2.2897,-0.9924,0.00832817,0.01578450,-0.00578525,0.26616639,-0.09387348,0.08124031,0.9589,0.3463,-9.7960,-0.056163,-0.012964,-0.034383,21.3081,-8.3487,14.6608,20.1473,0.2640,132,0,0,-0.005481,-0.004971,-0.260143,0.072006,-0.008968,0.042066,-1.7455,2.9876,1.6785
12204,11.0,-0.028355,0.001785,-0.263287,0.026408,-0.030804,-0.024271,-2.5962,2.1440,-0.9418,0.00791258,0.01741319,-0.00580131,0.24422699,-0.08641171,0.08018176,0.8390,0.3080,-9.6726,-0.077810,-0.047740,-0.068398,21.3081,-8.3487,14.6608,20.1473,0.2640,129,1,0,-0.005468,-0.005041,-0.261982,0.070921,-0.008178,0.021223,-1.7825,3.0020,1.6648
12215,11.0,-0.023086,0.001332,-0.263495,0.082199,-0.033618,-0.021410,-2.5937,1.9813,-0.9159,0.00757848,0.01891629,-0.00581123,0.22425416,-0.07957585,0.07902576,0.8062,0.1115,-9.5101,-0.117236,-0.088240,-0.090375,21.3081,-8.3487,14.6608,20.1473,0.2640,129,1,0,-0.004807,-0.005130,-0.261405,0.069170,-0.008289,0.032843,-1.8845,2.9595,1.5893
12226,11.0,-0.027649,0.006057,-0.263086,0.026714,0.018828,-0.010214,-2.4544,1.9399,-0.8229,0.00557859,0.01756839,-0.00604440,0.25354722,-0.09083406,0.07700012,0.8065,-0.0041,-9.3595,-0.097738,-0.076544,-0.071607,21.3081,-8.3487,14.6608,20.1473,0.2630,136,-1,1,-0.004591,-0.005183,-0.261040,0.067862,-0.010100,0.040023,-1.9572,2.9134,1.5466
12237,11.0,-0.032455,0.006184,-0.263146,-0.026292,0.014853,-0.006522,-2.5460,2.0103,-0.9109,0.00599435,0.01595351,-0.00602648,0.27381614,-0.09770185,0.07765207,0.7790,0.1115,-9.4203,0.010682,-0.030114,-0.013171,21.3081,-8.3487,14.6608,20.1473,0.2630,133,-1,0,-0.004691,-0.005035,-0.261302,0.064341,-0.014750,0.044885,-2.0428,2.8472,1.5013
12248,11.0,-0.037496,0.006467,-0.263208,-0.075404,0.014260,-0.004681,-2.5800,2.1166,-0.9598,0.00628595,0.01443150,-0.00602085,0.29292303,-0.10421323,0.07840119,0.8248,0.2297,-9.5432,0.072146,0.038009,0.029130,21.3081,-8.3487,14.6608,20.2610,0.2630,127,-1,0,-0.004875,-0.005020,-0.260815,0.062161,-0.015952,0.052560,-2.0271,2.8478,1.5087
12259,11.0,-0.037675,0.011578,-0.263418,-0.065151,0.069923,-0.006314,-2.2362,2.0625,-0.6997,0.00385219,0.01494958,-0.00626391,0.29730663,-0.10738810,0.07924636,0.8825,0.3440,-9.6840,0.067748,0.073468,0.066326,21.3081,-8.3487,14.6608,20.2610,0.2640,129,0,1,-0.005171,-0.004990,-0.260254,0.060175,-0.016260,0.059148,-1.9874,2.8786,1.5351
12270,11.0,-0.037856,0.011783,-0.263490,-0.056539,0.064941,-0.006715,-2.2291,2.0860,-0.6886,0.00409373,0.01508521,-0.00623642,0.29444063,-0.10626708,0.07915233,0.9325,0.4003,-9.7389,0.053319,0.051911,0.038091,21.3081,-8.3487,14.6608,20.2610,0.2640,129,0,0,-0.005501,-0.004762,-0.261525,0.056988,-0.014048,0.044103,-1.9158,2.9872,1.6115
12281,11.0,-0.037920,0.011952,-0.263572,-0.045664,0.060336,-0.008845,-2.2289,2.0792,-0.7045,0.00432912,0.01523066,-0.00620909,0.29157200,-0.10515238,0.07904112,1.1335,0.4255,-9.8920,0.042440,0.006901,-0.008009,21.3081,-8.3487,14.6608,20.2610,0.2640,138,0,0,-0.005623,-0.004790,-0.261063,0.056032,-0.012653,0.048230,-1.8934,3.0333,1.5893
12293,12.0,-0.037986,0.012037,-0.263106,-0.035774,0.054626,-0.004702,-2.2702,2.0675,-0.7430,0.00462414,0.01535344,-0.00617581,0.28897294,-0.10397835,0.07606452,1.0805,0.4135,-9.9207,-0.009123,-0.002717,-0.033132,19.2553,-8.7606,14.3995,20.2610,0.2630,138,0,0,-0.005659,-0.004778,-0.260566,0.057106,-0.011005,0.051161,-1.8724,3.0454,1.5936
12304,11.0,-0.037996,0.011925,-0.263127,-0.029633,0.046444,-0.005131,-2.3613,2.0529,-0.0323,0.00700974,0.01504985,-0.01037391,0.29032502,-0.09419740,0.07637395,0.8602,0.3043,-9.7889,-0.054692,-0.001347,-0.037308,19.2553,-8.7606,14.3995,20.1473,0.2630,139,0,0,-0.005475,-0.005053,-0.261107,0.057318,-0.009799,0.040510,-1.9002,3.0762,1.5672
12315,11.0,-0.037952,0.011776,-0.263181,-0.024372,0.037560,-0.004678,-2.4432,2.0389,-0.0361,0.00730471,0.01511957,-0.01034106,0.28789809,-0.09321166,0.07629727,0.7751,0.1571,-9.6795,-0.073288,-0.015966,0.016329,19.2553,-8.7606,14.3995,20.1473,0.2630,129,0,0,-0.005475,-0.005105,-0.260635,0.055585,-0.009867,0.045191,-1.9361,3.0923,1.5506
12326,11.0,-0.037906,0.011678,-0.263398,-0.019135,0.030776,-0.005669,-2.5020,2.0238,-0.0255,0.00753392,0.01518111,-0.01031564,0.28590783,-0.09246917,0.07706949,0.8214,0.2127,-9.6254,-0.048629,-0.015750,0.030903,19.2553,-8.7606,14.3995,20.1473,0.2640,129,0,0,-0.005413,-0.005142,-0.260158,0.053902,-0.010915,0.050201,-1.9821,3.0900,1.5616
12337,11.0,-0.037829,0.011585,-0.263449,-0.011826,0.024424,-0.003558,-2.5547,1.9989,-0.0212,0.00772688,0.01523792,-0.01029407,0.28422907,-0.09179597,0.07701841,1.0400,0.1757,-9.5180,-0.044743,-0.029531,0.015741,19.2553,-8.7606,14.3995,20.1473,0.2640,135,0,0,-0.005329,-0.005194,-0.261537,0.051445,-0.012800,0.037379,-2.0380,3.0908,1.5988
12348,11.0,-0.037814,0.011556,-0.263433,-0.005102,0.019969,-0.001325,-2.5843,1.9896,-0.0203,0.00786541,0.01525760,-0.01027894,0.28335643,-0.09141283,0.07676580,1.1243,0.2261,-9.5520,-0.015993,-0.004628,0.006255,19.2553,-8.7606,14.3995,20.1473,0.2640,133,0,0,-0.005310,-0.005233,-0.261130,0.051480,-0.013662,0.043999,-2.0594,3.0974,1.6049
12360,12.0,-0.042537,0.016191,-0.263514,-0.049503,0.066990,-0.001243,-2.4023,2.0261,0.1020,0.00595436,0.01393875,-0.01050749,0.30863100,-0.10100886,0.07784458,1.0750,0.2251,-9.6298,0.010916,0.049420,0.009409,19.2553,-8.7606,14.3995,20.1473,0.2640,132,-1,1,-0.005594,-0.005084,-0.260062,0.053030,-0.014161,0.056825,-2.0802,3.1365,1.6183
12371,11.0,-0.042773,0.016285,-0.263482,-0.042943,0.058348,0.000961,-2.4301,2.0735,0.1151,0.00625912,0.01399753,-0.01047400,0.30657333,-0.10014197,0.07761247,0.9724,0.1573,-9.5509,0.011213,0.078515,0.046508,19.2553,-8.7606,14.3995,20.1473,0.2640,131,0,0,-0.005706,-0.005082,-0.262028,0.053749,-0.014729,0.035206,-2.0764,3.1742,1.6275
12382,11.0,-0.043029,0.016341,-0.263459,-0.039631,0.050106,0.003203,-2.4620,2.1311,0.1478,0.00653843,0.01403229,-0.01044392,0.30492574,-0.09940580,0.07756821,0.7584,0.1386,-9.5173,0.000120,0.092908,0.075806,20.8997,-8.3498,14.1452,20.1473,0.2640,127,0,0,-0.006066,-0.005100,-0.261161,0.050939,-0.016903,0.047879,-2.0660,3.2991,1.6288
12392,10.0,-0.043168,0.016414,-0.263486,-0.036631,0.044809,0.004339,-2.4674,2.1640,0.1755,0.00673951,0.01409503,-0.01042195,0.30330098,-0.09875134,0.07784983,0.6936,0.2532,-9.5247,0.030179,0.064731,0.062685,20.8997,-8.3498,14.1452,20.2028,0.2640,135,0,0,-0.006249,-0.005092,-0.260616,0.047087,-0.017781,0.055022,-2.0562,3.3638,1.6676
12403,11.0,-0.043168,0.016594,-0.263438,-0.030050,0.041724,0.004480,-2.4474,2.1499,0.1923,0.00687755,0.01421493,-0.01040537,0.30129135,-0.09799986,0.07779136,0.8940,0.3551,-9.6939,0.056300,-0.006436,0.026334,20.8997,-8.3498,14.1452,20.2028,0.2640,132,0,0,-0.006361,-0.005081,-0.262062,0.043889,-0.017958,0.039805,-2.0387,3.4059,1.7075
12414,11.0,-0.043057,0.016696,-0.263367,-0.016160,0.036509,0.003140,-2.6459,1.6305,-0.0159,0.00873631,0.02042211,-0.00873870,0.31767181,-0.10892010,0.07888115,1.0034,0.4166,-9.8608,0.022671,-0.055436,-0.046452,20.8997,-8.3498,14.1452,20.2028,0.2640,132,0,0,-0.006353,-0.005053,-0.261146,0.041292,-0.016195,0.049081,-1.9853,3.4138,1.7371
12425,11.0,-0.042859,0.016627,-0.262945,-0.006796,0.031544,0.006587,-2.6961,1.5724,-0.0698,0.00895788,0.02050836,-0.00871151,0.31562579,-0.10801505,0.07697550,1.1219,0.3720,-9.8058,-0.034755,-0.072359,-0.076597,20.8997,-8.3498,14.1452,20.2028,0.2630,135,0,0,-0.006069,-0.005077,-0.260640,0.041567,-0.014972,0.052089,-1.9834,3.4006,1.7134
12436,11.0,-0.042669,0.016452,-0.262851,0.001166,0.024183,0.007247,-2.7767,1.5213,-0.1226,0.00920853,0.02055104,-0.00868160,0.31393245,-0.10731851,0.07683743,1.0855,0.2005,-9.6730,-0.076492,-0.065173,-0.069827,20.8997,-8.3498,14.1452,20.2028,0.2630,128,0,0,-0.005927,-0.005097,-0.261452,0.042962,-0.013968,0.040787,-2.0072,3.3635,1.6772
12447,11.0,-0.042527,0.016357,-0.262754,0.006753,0.017348,0.010390,-2.8285,1.4857,-0.1449,0.00938090,0.02056194,-0.00866138,0.31301665,-0.10692295,0.07681438,0.9779,0.0814,-9.4353,-0.043706,-0.041328,-0.028188,20.8997,-8.3498,14.1452,20.1130,0.2630,138,0,0,-0.005694,-0.005189,-0.260542,0.044272,-0.015763,0.051158,-2.0966,3.3182,1.6106
12458,11.0,-0.047429,0.016503,-0.263666,-0.043026,0.012833,0.000775,-2.8933,1.5590,-0.2079,0.00975072,0.01875750,-0.00864321,0.33325806,-0.11415339,0.08216716,0.9412,0.0595,-9.4909,0.043212,-0.005050,0.003280,20.8997,-8.3498,14.1452,20.1130,0.2650,139,-1,0,-0.005607,-0.005201,-0.262337,0.044502,-0.017809,0.031791,-2.1224,3.3012,1.6028
12470,12.0,-0.047504,0.016785,-0.263648,-0.033847,0.012357,0.002278,-2.8130,1.5415,-0.1862,0.00964689,0.01891545,-0.00865294,0.33177054,-0.11368212,0.08212567,0.9891,0.1995,-9.5851,0.104210,0.006480,0.006181,20.8997,-8.3498,14.1452,20.1130,0.2650,133,0,0,-0.005807,-0.005180,-0.261985,0.043633,-0.019914,0.038579,-2.1050,3.3031,1.6107
12481,11.0,-0.047476,0.017000,-0.263561,-0.024909,0.011194,0.003359,-2.7558,1.5110,-0.2093,0.00957227,0.01905997,-0.00865959,0.33039355,-0.11321373,0.08180772,1.0405,0.1623,-9.6778,0.083379,-0.013763,-0.060779,21.7237,-7.9400,14.4019,20.1130,0.2650,132,0,0,-0.005923,-0.005079,-0.261032,0.042518,-0.021205,0.050901,-1.9880,3.3336,1.6012
12492,11.0,-0.047391,0.017065,-0.262468,-0.017092,0.008510,0.016390,-2.7429,1.4714,-0.2412,0.00957780,0.01920021,-0.00865691,0.32907182,-0.11244344,0.07701009,0.9676,0.1537,-9.6377,0.026401,-0.031644,-0.066696,21.7237,-7.9400,14.4019,20.1130,0.2620,132,0,0,-0.005972,-0.005048,-0.260499,0.042268,-0.021702,0.055678,-1.9375,3.3474,1.5671
12503,11.0,-0.047348,0.017087,-0.262233,-0.011630,0.005367,0.018824,-2.7427,1.4490,-0.2602,0.00959412,0.01927711,-0.00865405,0.32813707,-0.11209325,0.07677801,0.8657,0.1193,-9.5503,0.010382,-0.009912,-0.041498,21.7237,-7.9400,14.4019,20.1130,0.2620,134,0,0,-0.005909,-0.005233,-0.260291,0.041543,-0.023549,0.056048,-1.9145,3.3375,1.5015
12514,11.0,-0.042365,0.017171,-0.262014,0.046652,0.004344,0.020505,-2.6316,1.3323,-0.1891,0.00922719,0.02121058,-0.00867118,0.30773309,-0.10504042,0.07628230,0.8761,0.1455,-9.5736,0.048759,-0.012031,-0.009732,21.7237,-7.9400,14.4019,20.1130,0.2620,135,1,0,-0.005888,-0.005223,-0.259639,0.040536,-0.024647,0.062749,-1.9110,3.3370,1.4863
12525,11.0,-0.042284,0.017364,-0.263319,0.050220,0.004121,0.003320,-2.6775,0.9487,-0.5790,0.00893279,0.02674130,-0.00382590,0.31855303,-0.11693243,0.08361662,0.8490,0.2577,-9.6698,0.074134,0.003866,0.027790,21.7237,-7.9400,14.4019,20.1130,0.2650,135,0,0,-0.005697,-0.005198,-0.258982,0.039581,-0.025408,0.068755,-1.8867,3.3447,1.4720
12536,11.0,-0.042276,0.012457,-0.263286,0.048434,-0.051047,0.002653,-2.9592,1.0412,-0.7365,0.01161214,0.02614634,-0.00348627,0.31383452,-0.11417890,0.08354601,0.9569,0.3697,-9.7677,0.025753,0.022705,0.054541,21.7237,-7.9400,14.4019,20.2266,0.2650,134,0,-1,-0.005769,-0.005154,-0.261625,0.036885,-0.024424,0.038299,-1.8106,3.3733,1.5168
12547,11.0,-0.042226,0.012272,-0.263241,0.048775,-0.048129,0.002715,-2.9773,1.0396,-0.6999,0.01144713,0.02599216,-0.00350900,0.31646872,-0.11516790,0.08352701,1.0223,0.2836,-9.7190,-0.038910,0.017251,0.042559,21.7237,-7.9400,14.4019,20.2266,0.2650,129,0,0,-0.005812,-0.005358,-0.261223,0.036431,-0.023573,0.041954,-1.7966,3.3930,1.5540
12558,11.0,-0.042157,0.012073,-0.262329,0.049396,-0.046672,0.013169,-3.0036,1.0328,-0.6863,0.01130758,0.02585238,-0.00352825,0.31903386,-0.11591073,0.07967510,1.0375,0.1923,-9.6927,-0.047895,0.009994,0.008013,21.7237,-7.9400,14.4019,20.2266,0.2620,130,0,0,-0.005885,-0.005441,-0.260947,0.036582,-0.022472,0.042823,-1.8443,3.4392,1.6072
12569,11.0,-0.042119,0.011932,-0.262166,0.048793,-0.044818,0.014486,-3.0144,1.0340,-0.6863,0.01114081,0.02568636,-0.00355130,0.32173249,-0.11692172,0.07967138,0.9574,0.1835,-9.6109,-0.026415,0.023415,-0.014857,21.7237,-7.9400,14.4019,20.2266,0.2620,135,0,0,-0.005938,-0.005481,-0.260496,0.036284,-0.022905,0.047461,-1.8662,3.4666,1.6035
12580,11.0,-0.047015,0.011888,-0.262003,-0.005328,-0.043410,0.015519,-3.0981,1.1288,-0.7450,0.01130221,0.02369428,-0.00354776,0.34434012,-0.12489058,0.08011800,0.9234,0.1369,-9.6200,-0.017042,0.031657,-0.005032,19.2481,-8.3487,15.1742,20.2266,0.2620,139,-1,0,-0.005970,-0.005497,-0.259980,0.035977,-0.023457,0.052807,-1.8853,3.4848,1.6011
12591,11.0,-0.047026,0.011788,-0.261673,-0.001140,-0.041881,0.018639,-3.0901,1.1185,-0.7308,0.01108875,0.02373624,-0.00357473,0.34479773,-0.12509359,0.07945575,0.8867,0.1433,-9.5979,-0.012412,0.018393,-0.004768,19.2481,-8.3487,15.1742,20.2266,0.2620,134,0,0,-0.006302,-0.005537,-0.258797,0.033400,-0.025023,0.063387,-1.9052,3.5387,1.5002
12602,11.0,-0.046976,0.011715,-0.261463,0.002438,-0.039738,0.019498,-3.0738,1.0953,-0.7168,0.01086575,0.02378028,-0.00360249,0.34518340,-0.12530354,0.07945785,0.8119,0.1896,-9.6421,-0.000970,-0.001393,-0.006899,19.2481,-8.3487,15.1742,20.2266,0.2650,134,0,0,-0.006358,-0.005548,-0.262148,0.032069,-0.025642,0.026514,-1.9086,3.5626,1.4948
12613,11.0,-0.046909,0.011678,-0.261230,0.006428,-0.036504,0.020269,-3.0489,1.0685,-0.7077,0.01064279,0.02381688,-0.00363037,0.34568053,-0.12556125,0.07939179,0.8702,0.2825,-9.6609,0.012997,-0.007313,-0.014638,19.2481,-8.3487,15.1742,20.2266,0.2650,134,0,0,-0.006348,-0.005549,-0.261858,0.030441,-0.026185,0.031500,-1.9127,3.5678,1.4973
12624,11.0,-0.046838,0.011602,-0.261321,0.010261,-0.033894,0.016841,-3.0389,1.0433,-0.7112,0.01045940,0.02382192,-0.00365332,0.34622744,-0.12590386,0.08075759,0.8959,0.2992,-9.6916,-0.003042,-0.007724,-0.029359,19.2481,-8.3487,15.1742,20.2266,0.2620,139,0,0,-0.006323,-0.005767,-0.261118,0.027651,-0.025567,0.040546,-1.9066,3.5771,1.4895
12635,11.0,-0.046794,0.011462,-0.261132,0.007271,-0.032668,0.017091,-2.9294,1.5373,-0.4694,0.00926030,0.01588146,-0.00758453,0.33769247,-0.11925738,0.08028817,0.9783,0.1123,-9.6851,-0.030253,0.003049,-0.034670,19.2481,-8.3487,15.1742,20.2266,0.2620,131,0,0,-0.006329,-0.005791,-0.261076,0.026468,-0.024988,0.040673,-1.9124,3.5882,1.4736
12646,11.0,-0.046823,0.011403,-0.260939,0.009210,-0.031584,0.018023,-2.9204,1.5406,-0.4407,0.00910007,0.01585971,-0.00760794,0.33864591,-0.11964071,0.08030171,0.8952,0.1621,-9.6314,-0.002601,0.024257,0.022973,19.2481,-8.3487,15.1742,20.2266,0.2620,139,0,0,-0.006366,-0.005822,-0.260173,0.025510,-0.026824,0.049900,-1.9452,3.6153,1.4453
12657,11.0,-0.051826,0.011509,-0.262817,-0.041909,-0.029611,-0.006091,-2.9604,1.6332,-0.4706,0.00924897,0.01399957,-0.00758844,0.35974044,-0.12762871,0.08956496,0.9773,0.1654,-9.7063,0.042760,0.028456,0.028519,19.2481,-8.3487,15.1742,20.2266,0.2650,138,-1,0,-0.006411,-0.005821,-0.259630,0.024553,-0.027558,0.054984,-1.9452,3.6358,1.4649
12669,12.0,-0.051951,0.011507,-0.262894,-0.032635,-0.027174,-0.006795,-2.9184,1.6261,-0.4385,0.00902239,0.01415242,-0.00762152,0.35888758,-0.12738636,0.08954181,1.0998,0.2447,-9.7559,0.030243,0.020142,0.013565,19.2481,-8.3487,15.1742,20.2266,0.2650,138,0,0,-0.006719,-0.005816,-0.262195,0.023301,-0.027948,0.025088,-1.9188,3.6693,1.4788
12680,11.0,-0.051955,0.011394,-0.262960,-0.024307,-0.025824,-0.007955,-2.9223,1.6034,-0.4379,0.00889169,0.01428911,-0.00764049,0.35785693,-0.12704191,0.08944575,1.0725,0.3049,-9.8187,-0.023352,-0.006402,-0.025712,20.4986,-7.5334,15.1653,20.2266,0.2650,132,0,0,-0.006845,-0.005831,-0.261609,0.024262,-0.027305,0.032094,-1.8994,3.7168,1.4860
12691,11.0,-0.051943,0.011255,-0.262776,-0.017232,-0.025319,-0.005577,-2.9377,1.5811,-0.4500,0.00879088,0.01439976,-0.00765497,0.35706791,-0.12672150,0.08826733,1.0259,0.2680,-9.7730,-0.035282,-0.007987,-0.041892,20.4986,-7.5334,15.1653,20.2266,0.2630,137,0,0,-0.006828,-0.005849,-0.261274,0.024907,-0.026714,0.034905,-1.9172,3.7181,1.4755
12702,11.0,-0.051928,0.011095,-0.262823,-0.011483,-0.025436,-0.005163,-2.9605,1.5628,-0.4443,0.00870665,0.01447893,-0.00766717,0.35652456,-0.12653995,0.08819976,0.9681,0.2346,-9.6791,-0.044094,-0.005655,-0.010725,20.4986,-7.5334,15.1653,20.2266,0.2630,134,0,0,-0.006809,-0.005914,-0.261415,0.024708,-0.026350,0.032897,-1.9639,3.7317,1.4464
12713,11.0,-0.051883,0.010991,-0.262875,-0.006761,-0.025251,-0.004385,-2.9669,1.5389,-0.4456,0.00859053,0.01454979,-0.00768391,0.35618311,-0.12643515,0.08818932,0.8982,0.2028,-9.6359,-0.022757,-0.013312,-0.025079,20.4986,-7.5334,15.1653,20.2266,0.2630,129,0,0,-0.006811,-0.005952,-0.261048,0.023846,-0.026359,0.037408,-1.9885,3.7440,1.4406
12724,11.0,-0.051770,0.010912,-0.263800,-0.001360,-0.024665,-0.013267,-2.9655,1.4991,-0.4494,0.00845465,0.01461047,-0.00770374,0.35579827,-0.12654197,0.09184728,0.9422,0.2156,-9.5810,-0.012852,-0.037802,-0.031767,20.4986,-7.5334,15.1653,20.2266,0.2650,134,0,0,-0.006774,-0.005965,-0.260651,0.022976,-0.026779,0.042088,-2.0070,3.7416,1.4328
12735,11.0,-0.046706,0.010823,-0.263940,0.057432,-0.023659,-0.012627,-2.8744,1.3728,-0.3963,0.00796720,0.01656773,-0.00776868,0.33635646,-0.11971781,0.09141651,0.9999,0.2021,-9.6475,0.001640,-0.023743,-0.040132,20.4986,-7.5334,15.1653,20.2266,0.2650,138,1,0,-0.006666,-0.005982,-0.262387,0.022337,-0.027228,0.025599,-2.0207,3.7219,1.3998
12746,11.0,-0.046654,0.010746,-0.264068,0.053349,-0.020445,-0.012387,-2.7155,1.5336,-0.7350,0.00430592,0.01388575,-0.00269532,0.33539534,-0.12247962,0.09113552,0.9847,0.2458,-9.6835,-0.016810,0.013130,-0.023698,20.4986,-7.5334,15.1653,20.2266,0.2650,135,0,0,-0.006458,-0.005992,-0.262109,0.022598,-0.027460,0.029991,-2.0227,3.7281,1.3757
12757,11.0,-0.041723,0.010647,-0.263332,0.103567,-0.019856,-0.001817,-2.6357,1.4673,-0.6890,0.00387438,0.01544013,-0.00278407,0.31873345,-0.11636633,0.08719452,0.9336,0.1947,-9.6617,0.000389,0.034901,-0.026668,20.4986,-7.5334,15.1653,20.2266,0.2630,137,1,0,-0.006473,-0.006004,-0.261768,0.022494,-0.027512,0.034328,-2.0360,3.7391,1.3661
12768,11.0,-0.041658,0.010666,-0.263330,0.095248,-0.018970,0.000037,-2.6336,1.4898,-0.7368,0.00383257,0.01507135,-0.00278849,0.32333726,-0.11802235,0.08724061,0.8761,0.1787,-9.5523,0.016343,0.029812,-0.069259,20.4986,-7.5334,15.1653,20.2266,0.2630,136,0,0,-0.006422,-0.006007,-0.261562,0.020741,-0.028403,0.038126,-2.0363,3.7977,1.3283
12779,11.0,-0.041488,0.010672,-0.263322,0.088332,-0.017880,0.001520,-2.6313,1.4828,-0.7777,0.00378536,0.01476726,-0.00279419,0.32711422,-0.11938610,0.08732293,0.8170,0.2165,-9.5721,0.012826,-0.013259,-0.062991,21.7274,-7.1215,14.3995,20.2266,0.2630,137,0,0,-0.006494,-0.006002,-0.261138,0.019108,-0.028669,0.043735,-2.0273,3.8233,1.2873
12791,12.0,-0.036640,0.010507,-0.264020,0.134002,-0.018583,-0.005323,-2.5806,1.3878,-0.7674,0.00343664,0.01611836,-0.00286780,0.31263024,-0.11444190,0.08993584,1.0151,0.1626,-9.5782,-0.019944,-0.019294,-0.063573,21.7274,-7.1215,14.3995,20.2266,0.2650,137,1,0,-0.006487,-0.005989,-0.260674,0.017408,-0.028687,0.049025,-2.0193,3.8271,1.3062
12802,11.0,-0.036479,0.010497,-0.264072,0.124475,-0.018336,-0.004089,-2.5920,1.3993,-0.7962,0.00343491,0.01564401,-0.00286375,0.31808150,-0.11640384,0.09005649,0.9917,0.1634,-9.5902,0.003644,0.001137,-0.033056,21.7274,-7.1215,14.3995,20.2266,0.2650,133,0,0,-0.006239,-0.006003,-0.262281,0.017557,-0.029838,0.032848,-2.0402,3.8256,1.2419
12813,11.0,-0.036336,0.010513,-0.264081,0.115916,-0.017704,-0.002655,-2.5940,1.4112,-0.8176,0.00341352,0.01520230,-0.00286356,0.32321155,-0.11824629,0.09004458,1.0010,0.1750,-9.6041,0.013855,0.003892,-0.024127,21.7274,-7.1215,14.3995,20.1896,0.2650,133,0,0,-0.006264,-0.006011,-0.261927,0.017086,-0.030363,0.037874,-2.0403,3.8389,1.2177
