timestamp_ms,dt_ms,pos_x,pos_y,pos_z,vel_x,vel_y,vel_z,roll_deg,pitch_deg,yaw_deg,gyro_bias_x,gyro_bias_y,gyro_bias_z,accel_bias_x,accel_bias_y,accel_bias_z,raw_accel_x,raw_accel_y,raw_accel_z,raw_gyro_x,raw_gyro_y,raw_gyro_z,raw_mag_x,raw_mag_y,raw_mag_z,raw_baro_alt,raw_tof,raw_flow_squal,raw_flow_dx,raw_flow_dy,dev_pos_x,dev_pos_y,dev_pos_z,dev_vel_x,dev_vel_y,dev_vel_z,dev_roll_deg,dev_pitch_deg,dev_yaw_deg
11327,10.0,-0.000399,-0.000050,-0.316938,-0.041533,-0.000534,-0.001187,-0.0058,0.0076,0.0632,0.00000000,0.00000000,-0.13171183,-0.00151591,0.00339971,0.00000000,-0.3293,0.8976,-9.8495,-0.006445,-0.001856,-0.022963,26.1084,16.4875,33.7145,-3.3768,0.3170,111,-1,0,-0.002872,-0.000981,-0.316721,-0.014061,0.003677,0.007945,-2.8117,-2.0271,1.4500
11338,11.0,-0.000908,-0.001275,-0.316951,-0.044176,-0.059517,-0.001357,-2.8557,-0.9240,0.1760,0.00000956,0.00000345,-0.13171186,-0.00150442,0.00414179,0.00000007,-0.3261,0.9189,-9.7298,-0.028913,0.006086,-0.009972,26.1084,16.4875,33.7145,-3.3768,0.3180,101,-1,-1,-0.003321,-0.000975,-0.317053,-0.018827,0.004629,0.002869,-2.8699,-1.9620,1.5617
11349,11.0,-0.000942,-0.002611,-0.315068,-0.030936,-0.078753,0.083251,-3.0855,-1.0561,0.2539,0.00001006,0.00000377,-0.13171183,-0.00200161,0.00489976,-0.00002134,-0.3580,0.8705,-9.6397,-0.023997,0.006939,-0.003052,26.1084,17.5681,34.5420,-3.3768,0.3180,112,0,-1,-0.003775,-0.001461,-0.317024,-0.023041,0.000321,0.003160,-2.9145,-1.9084,1.7345
11361,12.0,-0.000956,-0.002703,-0.317267,-0.022041,-0.056832,-0.010132,-3.1997,-1.6379,0.3097,0.00001393,0.00000930,-0.13171157,-0.00261023,0.00355623,0.00000836,-0.4203,0.7224,-9.8293,0.007949,-0.012069,-0.016042,26.1084,17.5681,34.5420,-3.3768,0.3180,110,0,0,-0.003834,-0.001941,-0.316882,-0.018181,-0.002028,0.005535,-2.9423,-2.0572,1.8337
11372,11.0,-0.000931,-0.002725,-0.317279,-0.017740,-0.041848,-0.009396,-2.9507,-1.7550,0.3237,0.00001256,0.00000995,-0.13171126,-0.00319307,0.00233410,-0.00008011,-0.4606,0.7286,-9.9777,0.019696,-0.009696,-0.032908,26.1084,17.5681,34.5420,-3.3768,0.3170,108,0,0,-0.003822,-0.001921,-0.316562,-0.015564,-0.000619,0.008002,-2.8676,-2.1562,1.8559
11384,12.0,-0.001045,-0.002752,-0.317401,-0.015825,-0.032266,-0.010802,-3.2880,-1.9387,0.3631,0.00002372,0.00001387,-0.13171098,-0.00345336,0.00113811,-0.00013237,-0.4071,0.8599,-9.8787,0.005144,0.014278,-0.031572,26.1084,17.5681,34.5420,-3.3768,0.3170,110,0,0,-0.003848,-0.001880,-0.316387,-0.012438,0.003367,0.005307,-2.6953,-2.2943,1.9222
11395,11.0,-0.001162,-0.002702,-0.316464,-0.013452,-0.021988,0.008249,-3.0773,-1.9503,0.3844,0.00002193,0.00001411,-0.13171074,-0.00361439,0.00002870,-0.00081760,-0.1990,0.8416,-9.7623,0.067762,0.010307,-0.052410,26.1084,17.5681,34.5420,-3.3768,0.3170,113,0,0,-0.003985,-0.001880,-0.316260,-0.012683,0.007283,0.006153,-2.5742,-2.3053,1.9845
11406,11.0,-0.001272,-0.002531,-0.316368,-0.012708,-0.014515,0.009399,-3.5084,-1.8658,0.4155,0.00004614,0.00001056,-0.13171043,-0.00376538,-0.00146475,-0.00089191,-0.2501,1.0900,-9.6450,0.097891,0.007603,-0.017675,26.1084,17.5681,34.5420,-3.3768,0.3180,113,0,0,-0.004094,-0.001791,-0.316199,-0.011671,0.009660,0.006465,-2.5186,-2.2934,1.9897
11417,11.0,-0.001290,-0.003656,-0.316154,-0.008790,-0.026246,0.012156,-3.8822,-1.9090,0.5485,0.00005370,0.00001135,-0.13171074,-0.00415369,0.00218244,-0.00086359,-0.1283,1.0616,-9.6446,0.081022,-0.010699,0.018109,26.1084,17.5681,34.5420,-3.3768,0.3180,123,0,-1,-0.004249,-0.001549,-0.316978,-0.008214,0.019488,-0.000150,-2.3468,-2.3150,2.0591
11428,11.0,-0.001251,-0.003620,-0.316732,-0.006449,-0.020753,0.002779,-3.9624,-1.9103,0.5949,0.00006478,0.00000876,-0.13171013,-0.00469176,0.00069689,0.00046854,-0.2646,0.8983,-9.7309,0.030584,-0.013888,0.024484,26.1084,17.5681,34.5420,-3.3768,0.3180,120,0,0,-0.004259,-0.001889,-0.316976,-0.005112,0.017877,0.001077,-2.2820,-2.3574,2.1721
11439,11.0,-0.001592,-0.004794,-0.316652,-0.010924,-0.035987,0.002273,-4.3449,-1.7961,0.8082,0.00007562,0.00000558,-0.13171186,-0.00353492,0.00469700,0.00049113,-0.3313,0.7135,-9.8829,0.015947,-0.020037,0.025388,26.1084,17.5681,34.5420,-3.3768,0.3160,117,-1,-1,-0.004602,-0.002214,-0.316016,-0.007234,0.014770,0.011452,-2.2316,-2.3509,2.4002
11450,11.0,-0.001579,-0.004845,-0.316638,-0.008675,-0.030788,0.000028,-4.1669,-1.8581,0.8482,0.00006733,0.00000808,-0.13171102,-0.00412482,0.00320820,0.00041671,-0.3212,0.6785,-9.9918,0.002366,-0.007032,0.007410,26.8960,17.5756,32.8640,-3.4878,0.3160,121,0,0,-0.004531,-0.002179,-0.315912,-0.004901,0.014572,0.009720,-2.1735,-2.4040,2.4494
11462,12.0,-0.001712,-0.004888,-0.315548,-0.008012,-0.025313,0.010926,-4.0136,-1.8273,0.9090,0.00006187,0.00000768,-0.13171071,-0.00410740,0.00197582,-0.00417007,-0.2268,0.7358,-9.9758,0.026876,0.019610,-0.013498,26.8960,17.5756,32.8640,-3.4878,0.3160,122,0,0,-0.004499,-0.002164,-0.315722,-0.002951,0.015386,0.008905,-2.0715,-2.4507,2.5275
11473,11.0,-0.001859,-0.004848,-0.315434,-0.008584,-0.020017,0.009882,-3.9868,-1.7163,0.9576,0.00007134,-0.00000228,-0.13171043,-0.00397764,0.00019053,-0.00429117,-0.1964,0.8645,-9.8712,0.048422,0.024773,-0.008574,26.8960,17.5756,32.8640,-3.4878,0.3170,124,0,0,-0.004710,-0.002074,-0.316102,-0.002069,0.018910,-0.000283,-1.9018,-2.4295,2.6675
11484,11.0,-0.001922,-0.005959,-0.315214,-0.006754,-0.032438,0.011518,-4.2784,-1.7080,1.0991,0.00009086,-0.00000206,-0.13171156,-0.00406987,0.00464578,-0.00469587,-0.1567,0.8452,-9.7455,0.055094,0.006439,0.006099,26.8960,17.5756,32.8640,-3.4878,0.3170,116,0,-1,-0.004837,-0.001994,-0.316111,-0.002052,0.021039,-0.001096,-1.8579,-2.3922,2.5969
11495,11.0,-0.001885,-0.007052,-0.315614,-0.004530,-0.043709,0.006231,-4.5225,-1.6496,1.1908,0.00011361,-0.00001592,-0.13171180,-0.00478054,0.00800118,-0.00103467,-0.1195,0.8000,-9.6983,0.070976,-0.013174,0.013037,26.8960,17.5756,32.8640,-3.4878,0.3170,116,0,-1,-0.004903,-0.002361,-0.316123,-0.000508,0.018327,-0.001002,-1.7857,-2.4056,2.7100
11506,11.0,-0.001891,-0.007029,-0.315460,-0.002703,-0.036111,0.007951,-4.3126,-1.6669,1.2421,0.00009987,-0.00001466,-0.13171087,-0.00500819,0.00549883,-0.00180469,-0.1744,0.7488,-9.7163,0.072719,-0.012378,0.008139,26.8960,17.5756,32.8640,-3.4878,0.3160,120,0,0,-0.004879,-0.002599,-0.315988,0.003748,0.018352,0.002617,-1.6171,-2.4314,2.8334
11517,11.0,-0.001995,-0.007063,-0.315369,-0.003744,-0.030920,0.008428,-4.1505,-1.6292,1.3285,0.00008104,-0.00001622,-0.13171072,-0.00464876,0.00379906,-0.00192550,-0.2848,0.6499,-9.7458,0.025033,0.018407,0.015268,26.8960,17.5756,32.8640,-3.4878,0.3160,116,0,0,-0.004867,-0.002486,-0.315657,0.004998,0.020717,0.006810,-1.5316,-2.4279,2.8620
11528,11.0,-0.002096,-0.007124,-0.315095,-0.005324,-0.027915,0.010225,-4.0718,-1.5940,1.3973,0.00007138,-0.00001784,-0.13171043,-0.00442827,0.00243761,-0.00356865,-0.3547,0.5896,-9.8208,-0.010014,0.023688,-0.004310,26.8960,17.5756,32.8640,-3.4508,0.3160,119,0,0,-0.005032,-0.002408,-0.315513,0.003445,0.022382,0.007564,-1.3613,-2.4175,3.0425
11539,11.0,-0.002188,-0.007215,-0.314992,-0.006253,-0.024719,0.008480,-4.0412,-1.6174,1.4787,0.00006539,-0.00000397,-0.13171031,-0.00395037,0.00127752,-0.00365700,-0.3993,0.7132,-9.9403,-0.035106,0.022544,-0.012760,27.6863,16.1347,33.6915,-3.4508,0.3160,112,0,0,-0.005122,-0.002411,-0.315502,0.002158,0.022868,0.006519,-1.2730,-2.4186,3.1397
11550,11.0,-0.002363,-0.007301,-0.314821,-0.008828,-0.020200,0.007869,-4.0110,-1.5586,1.5585,0.00005814,-0.00000789,-0.13171048,-0.00347882,0.00043072,-0.00457432,-0.3767,0.8741,-9.9221,-0.026031,0.042488,-0.008533,27.6863,16.1347,33.6915,-3.4508,0.3160,108,0,0,-0.005193,-0.002424,-0.315446,0.000968,0.023223,0.005148,-1.2641,-2.4211,3.2021
11561,11.0,-0.002582,-0.007293,-0.314929,-0.010759,-0.015513,0.005649,-4.0343,-1.5078,1.6358,0.00008320,-0.00000863,-0.13171065,-0.00272253,-0.00167635,-0.00285891,-0.2941,0.9591,-9.7586,0.027199,0.042008,-0.005185,27.6863,16.1347,33.6915,-3.4508,0.3160,115,0,0,-0.005488,-0.002452,-0.315280,-0.002524,0.027465,0.004137,-1.1944,-2.3924,3.3587
11572,11.0,-0.002734,-0.007210,-0.314802,-0.011600,-0.008833,0.006241,-3.9137,-1.4865,1.7036,0.00007180,-0.00000985,-0.13171011,-0.00260111,-0.00282561,-0.00361617,-0.2888,0.9781,-9.7846,0.100915,0.015383,-0.000815,27.6863,16.1347,33.6915,-3.4508,0.3150,112,0,0,-0.005678,-0.002420,-0.315237,-0.003996,0.031422,0.004595,-1.0819,-2.3823,3.4668
11583,11.0,-0.002890,-0.007083,-0.314744,-0.012208,-0.004858,0.004366,-3.8478,-1.4839,1.7800,0.00008460,-0.00000348,-0.13170955,-0.00230758,-0.00450945,-0.00374244,-0.3061,0.8317,-9.9457,0.110843,0.013349,0.011162,27.6863,16.1347,33.6915,-3.4508,0.3150,117,0,0,-0.005984,-0.002158,-0.314720,-0.005397,0.038817,0.008083,-0.8580,-2.3752,3.2576
11594,11.0,-0.003189,-0.007032,-0.314375,-0.015101,-0.002973,0.008868,-3.7902,-1.4055,1.8980,0.00007854,-0.00001245,-0.13171071,-0.00161381,-0.00480456,-0.00702025,-0.2998,0.6856,-9.7203,0.056419,0.055769,0.021600,27.6863,16.1347,33.6915,-3.4297,0.3150,110,0,0,-0.006150,-0.002025,-0.314564,-0.006144,0.040393,0.007969,-0.7906,-2.3645,3.3249
11605,11.0,-0.003481,-0.008089,-0.314265,-0.016832,-0.017926,0.011345,-3.9511,-1.3199,2.0910,0.00012721,-0.00002465,-0.13171591,-0.00099884,0.00053506,-0.00671267,-0.2110,0.5782,-9.5699,0.063140,0.060607,0.005595,27.6863,16.1347,33.6915,-3.4297,0.3160,114,0,-1,-0.006419,-0.001942,-0.314482,-0.008112,0.041501,0.008698,-0.6670,-2.3446,3.4531
11616,11.0,-0.003647,-0.008044,-0.314049,-0.016088,-0.014765,0.014710,-3.8629,-1.3066,2.1475,0.00011173,-0.00002316,-0.13171484,-0.00111873,-0.00059859,-0.00759754,-0.1783,0.6302,-9.5759,0.063067,0.021094,-0.006185,27.6863,16.1347,33.6915,-3.4297,0.3160,104,0,0,-0.006904,-0.002631,-0.315121,-0.009307,0.031622,0.004526,-0.5396,-2.2918,3.6637
11627,11.0,-0.003700,-0.009137,-0.314614,-0.013388,-0.027283,0.008559,-4.0375,-1.2714,2.2344,0.00018420,-0.00004355,-0.13171603,-0.00198855,0.00322524,0.00021582,-0.0556,0.7284,-9.5432,0.041561,0.010442,-0.000543,27.6863,16.1347,33.6915,-3.4297,0.3160,107,0,-1,-0.007041,-0.002535,-0.315066,-0.008414,0.033060,0.006936,-0.4632,-2.2791,3.6940
11638,11.0,-0.003746,-0.009147,-0.314452,-0.010352,-0.022935,0.010930,-3.9665,-1.2858,2.2863,0.00016372,-0.00003632,-0.13171422,-0.00246361,0.00189256,-0.00047098,-0.0582,0.7042,-9.6369,0.030221,-0.000872,0.000348,27.6863,16.1347,33.6915,-3.4297,0.3130,101,0,0,-0.007108,-0.002915,-0.314886,-0.005667,0.030248,0.010758,-0.3768,-2.3014,3.7889
11649,11.0,-0.003656,-0.009230,-0.314335,-0.007126,-0.020886,0.010239,-3.9532,-1.3181,2.3313,0.00014368,-0.00002931,-0.13171142,-0.00361761,0.00128675,-0.00047196,-0.1719,0.6360,-9.8520,-0.039017,-0.018494,0.016888,26.5089,15.7521,34.1743,-3.4297,0.3130,107,0,0,-0.007113,-0.002834,-0.313278,0.000019,0.034754,0.027579,-0.2281,-2.3330,3.8694
11660,11.0,-0.003357,-0.009350,-0.313039,-0.002245,-0.021003,0.020286,-3.9873,-1.4173,2.3632,0.00013435,0.00000219,-0.13170701,-0.00568075,0.00166467,-0.01240146,-0.2845,0.5414,-10.1905,-0.084250,-0.058212,0.019193,26.5089,15.7521,34.1743,-3.4297,0.3130,107,0,0,-0.006996,-0.002842,-0.312930,0.002827,0.034987,0.027942,-0.2209,-2.3599,3.8969
11671,11.0,-0.003056,-0.009465,-0.312853,0.001539,-0.020626,0.013568,-4.0190,-1.5057,2.4017,0.00012434,0.00003222,-0.13170309,-0.00716366,0.00116044,-0.01239183,-0.3433,0.6071,-10.4110,-0.078276,-0.056978,0.010751,26.5089,15.7521,34.1743,-3.5037,0.3150,107,0,0,-0.006732,-0.002890,-0.312666,0.006827,0.034761,0.025010,-0.1765,-2.4362,3.9734
11682,11.0,-0.003422,-0.009534,-0.312637,-0.003883,-0.017285,0.007839,-4.0011,-1.4406,2.5261,0.00010812,-0.00000446,-0.13170676,-0.00556052,0.00049556,-0.01351854,-0.2878,0.8478,-10.4224,-0.010794,-0.007860,-0.007839,26.5089,15.7521,34.1743,-3.5037,0.3150,105,-1,0,-0.006665,-0.003006,-0.313712,0.007144,0.035838,-0.000737,-0.0728,-2.5294,3.8284
11693,11.0,-0.003570,-0.009541,-0.313446,-0.005111,-0.012274,-0.008226,-3.9559,-1.4007,2.6107,0.00009015,-0.00001522,-0.13170739,-0.00493301,-0.00082868,-0.00535396,-0.2317,0.9655,-10.3060,0.030891,0.027354,-0.007083,26.5089,15.7521,34.1743,-3.5037,0.3150,105,0,0,-0.006610,-0.003006,-0.313750,0.008040,0.039038,-0.006729,0.0104,-2.5638,3.9112
11704,11.0,-0.003807,-0.009515,-0.313469,-0.007187,-0.007752,-0.009535,-3.8997,-1.3380,2.7223,0.00007276,-0.00003499,-0.13170922,-0.00422831,-0.00142479,-0.00618827,-0.1993,0.9152,-9.9827,0.053878,0.043497,0.014915,26.5089,15.7521,34.1743,-3.5037,0.3140,113,0,0,-0.006880,-0.002926,-0.313744,0.005881,0.047599,-0.012957,0.2275,-2.5602,4.1113
11715,11.0,-0.004031,-0.009419,-0.313576,-0.008452,-0.004217,-0.009982,-3.8464,-1.2711,2.8073,0.00008724,-0.00007082,-0.13170972,-0.00403955,-0.00293340,-0.00629911,-0.1312,0.8215,-9.8231,0.093539,0.034039,0.027550,26.5089,15.7521,34.1743,-3.5037,0.3140,120,0,0,-0.007090,-0.002852,-0.313798,0.004324,0.051617,-0.013452,0.3493,-2.5474,4.2297
11726,11.0,-0.004736,-0.009328,-0.313380,-0.016746,-0.002444,-0.006151,-3.7585,-1.1430,2.9935,0.00006744,-0.00014290,-0.13171782,-0.00170020,-0.00342488,-0.00918990,-0.2213,0.6473,-9.7729,0.106405,0.047483,0.028785,26.5089,15.7521,34.1743,-3.5037,0.3140,116,-1,0,-0.007988,-0.002607,-0.314071,-0.003935,0.055821,-0.012828,0.5541,-2.4643,4.4339
11737,11.0,-0.005465,-0.009244,-0.313451,-0.024346,-0.001422,-0.006797,-3.6704,-1.0372,3.1819,0.00004085,-0.00019530,-0.13172540,0.00069061,-0.00380784,-0.00926645,-0.2451,0.5879,-9.8574,0.101518,0.050116,0.031039,26.5089,15.7521,34.1743,-3.5037,0.3140,116,-1,0,-0.008704,-0.002486,-0.313837,-0.011145,0.056257,-0.008702,0.6356,-2.4028,4.5296
11747,10.0,-0.005795,-0.009258,-0.313437,-0.025424,-0.003033,-0.007622,-3.6715,-0.9777,3.2834,0.00003911,-0.00020625,-0.13172652,0.00100900,-0.00380178,-0.01012661,-0.1818,0.4638,-10.0035,-0.001950,0.072444,0.031821,26.1084,16.8477,34.1282,-3.4772,0.3140,117,0,0,-0.009001,-0.002375,-0.313931,-0.012165,0.056012,-0.009882,0.7661,-2.3891,4.6470
11758,11.0,-0.006357,-0.009449,-0.313398,-0.028985,-0.006320,-0.004870,-3.7370,-0.8451,3.4327,0.00001172,-0.00024244,-0.13173132,0.00212467,-0.00225670,-0.01107204,-0.1559,0.4465,-9.6849,-0.123372,0.139491,0.031497,26.1084,16.8477,34.1282,-3.4772,0.3140,119,0,0,-0.009755,-0.002426,-0.314052,-0.015460,0.052107,-0.010417,0.8303,-2.2865,4.8308
11770,12.0,-0.006913,-0.009664,-0.313358,-0.030965,-0.009458,0.000240,-3.8492,-0.7196,3.5550,0.00002791,-0.00027198,-0.13173452,0.00295242,-0.00173662,-0.01172309,-0.0767,0.4918,-9.4580,-0.139072,0.131912,0.017776,26.1084,16.8477,34.1282,-3.4772,0.3130,116,0,0,-0.010282,-0.002581,-0.313305,-0.018401,0.048739,0.001043,0.7794,-2.1845,4.8904
11781,11.0,-0.007190,-0.009803,-0.313335,-0.029441,-0.010865,0.003937,-3.9113,-0.6789,3.6372,0.00003245,-0.00026383,-0.13173389,0.00273115,-0.00160967,-0.01171185,-0.0537,0.5370,-9.4709,-0.090680,0.066252,0.011287,26.1084,16.8477,34.1282,-3.4772,0.3130,120,0,0,-0.010763,-0.002751,-0.313201,-0.019929,0.046587,0.005586,0.7773,-2.1182,4.9940
11792,11.0,-0.006874,-0.008731,-0.312647,-0.021114,0.004090,0.013043,-3.8051,-0.7569,3.6426,-0.00013861,-0.00016020,-0.13172148,0.00004578,-0.00567726,-0.01731973,-0.1137,0.6153,-9.6556,-0.049320,0.002560,0.004714,26.1084,16.8477,34.1282,-3.4772,0.3130,115,1,1,-0.010792,-0.002448,-0.312897,-0.011499,0.052167,0.013811,0.8839,-2.1187,4.9043
11803,11.0,-0.006959,-0.006566,-0.312498,-0.018724,0.030866,0.014154,-3.6031,-0.7784,3.6849,-0.00047392,-0.00013538,-0.13171232,-0.00114032,-0.01340982,-0.01773037,-0.0745,0.5801,-9.7062,-0.077382,-0.009531,0.014763,26.1084,16.8477,34.1282,-3.4772,0.3140,119,0,2,-0.010807,-0.002023,-0.312753,-0.008936,0.057313,0.015636,0.8961,-2.1303,4.9213
11814,11.0,-0.007095,-0.004315,-0.312221,-0.017220,0.054252,0.017922,-3.4195,-0.7942,3.7438,-0.00077126,-0.00010832,-0.13170558,-0.00175659,-0.02057449,-0.01905453,-0.0813,0.4898,-9.5895,-0.044176,-0.003150,-0.001486,26.1084,16.8477,34.1282,-3.5142,0.3140,119,0,2,-0.010811,-0.001179,-0.313332,-0.005940,0.067421,0.009236,0.9838,-2.1723,5.0040
11825,11.0,-0.006926,-0.004233,-0.312785,-0.012990,0.047872,0.009976,-3.4800,-0.8559,3.8059,-0.00069201,-0.00004844,-0.13170290,-0.00273437,-0.01885310,-0.01259888,-0.1712,0.5687,-9.7099,-0.010086,-0.042354,-0.011565,26.1084,16.8477,34.1282,-3.5142,0.3140,116,0,0,-0.010761,-0.000248,-0.312999,-0.000762,0.073761,0.014930,1.0880,-2.2241,5.0847
11836,11.0,-0.006563,-0.004146,-0.312602,-0.007484,0.041321,0.009177,-3.5377,-0.9556,3.8571,-0.00061535,0.00003157,-0.13169794,-0.00450831,-0.01708392,-0.01317816,-0.2443,0.4958,-9.9721,-0.013745,-0.084112,-0.007429,26.8987,17.5681,33.7145,-3.5142,0.3120,117,0,0,-0.010592,-0.000180,-0.312140,0.002477,0.072009,0.024232,1.0982,-2.2640,5.0916
11847,11.0,-0.006190,-0.004126,-0.312508,-0.002114,0.035619,0.007945,-3.6128,-1.0490,3.9269,-0.00055151,0.00011463,-0.13169417,-0.00588456,-0.01513346,-0.01305033,-0.2118,0.5632,-9.9167,-0.054915,-0.078069,-0.004774,26.8987,17.5681,33.7145,-3.5142,0.3120,117,0,0,-0.009876,-0.000044,-0.311677,0.011746,0.069108,0.022048,1.1727,-2.4316,5.1676
11858,11.0,-0.005874,-0.004133,-0.311745,0.002290,0.030910,0.016343,-3.6970,-1.1145,3.9973,-0.00047768,0.00016950,-0.13169120,-0.00708320,-0.01327606,-0.01835658,-0.1677,0.6265,-9.7597,-0.065083,-0.062071,0.004040,26.8987,17.5681,33.7145,-3.5142,0.3120,115,0,0,-0.009511,-0.000028,-0.311331,0.016031,0.068284,0.023022,1.2188,-2.5182,5.2359
11869,11.0,-0.005714,-0.003036,-0.311555,0.004520,0.040780,0.018204,-3.6768,-1.1439,4.0498,-0.00060558,0.00018188,-0.13168520,-0.00801830,-0.01604851,-0.01849424,-0.1268,0.6529,-9.6352,-0.075516,-0.041460,0.008206,26.8987,17.5681,33.7145,-3.5142,0.3140,119,0,1,-0.009196,-0.000019,-0.311101,0.019394,0.067169,0.023772,1.1921,-2.5647,5.2504
11880,11.0,-0.005566,-0.001890,-0.311231,0.006252,0.050554,0.022597,-3.6436,-1.1787,4.1236,-0.00073030,0.00020721,-0.13168052,-0.00849607,-0.01845190,-0.01949374,-0.1415,0.7034,-9.5197,-0.045674,-0.043462,0.011490,26.8987,17.5681,33.7145,-3.5142,0.3140,117,0,1,-0.008801,0.000861,-0.312448,0.023181,0.076631,0.010429,1.2506,-2.6278,5.1165
11891,11.0,-0.005794,-0.000733,-0.311149,0.002017,0.058795,0.021964,-3.6143,-1.1920,4.2388,-0.00082310,0.00017870,-0.13168263,-0.00726154,-0.02111618,-0.01830256,-0.2699,0.6966,-9.6713,-0.023831,-0.055099,0.013518,26.8987,17.5681,33.7145,-3.5512,0.3120,113,-1,1,-0.009012,0.001296,-0.312329,0.019467,0.081280,0.013503,1.3293,-2.6672,5.2098
11902,11.0,-0.005984,-0.000701,-0.310824,-0.002055,0.051340,0.021420,-3.6886,-1.1918,4.3624,-0.00070737,0.00013178,-0.13169017,-0.00647064,-0.01896071,-0.01894243,-0.3544,0.6257,-9.9543,-0.031143,-0.043453,0.004387,26.8987,17.5681,33.7145,-3.5512,0.3120,112,-1,0,-0.009427,0.001767,-0.311575,0.011826,0.083226,0.019725,1.3952,-2.7292,5.3513
11913,11.0,-0.005982,-0.000695,-0.310600,-0.002871,0.044426,0.019320,-3.7708,-1.1962,4.4952,-0.00060246,0.00017344,-0.13169526,-0.00579505,-0.01692905,-0.01884318,-0.3452,0.6219,-9.9945,-0.054968,0.008727,0.001048,26.8987,17.5681,33.7145,-3.5512,0.3120,112,0,0,-0.009694,0.001770,-0.311273,0.007543,0.080735,0.019610,1.3785,-2.7462,5.4101
11924,11.0,-0.006142,-0.000743,-0.310791,-0.005163,0.037911,0.012980,-3.8659,-1.1458,4.6030,-0.00049539,0.00014089,-0.13170187,-0.00525048,-0.01530282,-0.01572386,-0.2824,0.6451,-9.9566,-0.078511,0.049354,-0.009924,26.8987,17.5681,33.7145,-3.5512,0.3120,112,0,0,-0.009696,0.001760,-0.311086,0.007077,0.079094,0.018143,1.4185,-2.7643,5.5032
11935,11.0,-0.006407,-0.000824,-0.310650,-0.008076,0.032386,0.012669,-3.9678,-1.0793,4.7300,-0.00038359,0.00010798,-0.13171050,-0.00422193,-0.01382810,-0.01566168,-0.2413,0.7085,-9.8248,-0.089523,0.073369,-0.003764,26.8987,17.5681,33.7145,-3.5512,0.3140,112,0,0,-0.009800,0.001729,-0.310916,0.005790,0.076796,0.016812,1.3797,-2.7452,5.5522
11946,11.0,-0.006684,-0.000874,-0.310377,-0.010236,0.028448,0.016494,-4.0355,-1.0118,4.8462,-0.00029951,0.00006175,-0.13171774,-0.00355543,-0.01242912,-0.01653312,-0.1646,0.7429,-9.5802,-0.054541,0.068834,0.002220,27.6863,17.2154,34.1052,-3.5512,0.3140,117,0,0,-0.010315,0.002031,-0.312478,0.001115,0.079105,-0.000867,1.3675,-2.6644,5.6942
11957,11.0,-0.006795,-0.000863,-0.311824,-0.009971,0.025584,-0.000730,-4.0756,-0.9858,4.9327,-0.00021584,0.00004862,-0.13171968,-0.00341987,-0.01240954,-0.00417614,-0.1388,0.7451,-9.6036,-0.015437,0.024114,0.004341,27.6863,17.2154,34.1052,-3.5512,0.3140,113,0,0,-0.010566,0.001985,-0.312345,-0.000268,0.078444,0.003176,1.4056,-2.6402,5.7986
11968,11.0,-0.006765,-0.000790,-0.311734,-0.009043,0.022441,0.001374,-4.0786,-0.9975,5.0184,-0.00016848,0.00007672,-0.13171838,-0.00385727,-0.01163564,-0.00483844,-0.2478,0.6227,-9.7020,0.023438,-0.013089,0.012529,27.6863,17.2154,34.1052,-3.5512,0.3120,113,0,0,-0.010733,0.002054,-0.311829,0.001083,0.078077,0.012122,1.4703,-2.6387,5.9300
11979,11.0,-0.006688,-0.000704,-0.311723,-0.007457,0.019221,0.000549,-4.0556,-1.0278,5.1218,-0.00017892,0.00013932,-0.13171722,-0.00405498,-0.01033760,-0.00474939,-0.2492,0.5496,-9.8720,0.033887,-0.025877,0.008694,27.6863,17.2154,34.1052,-3.5512,0.3120,112,0,0,-0.010689,0.002150,-0.311606,0.002378,0.077345,0.014454,1.4967,-2.6584,5.9751
11990,11.0,-0.006638,-0.000623,-0.311354,-0.006741,0.016145,0.003136,-4.0458,-1.0433,5.1963,-0.00014882,0.00016832,-0.13171557,-0.00452067,-0.00972075,-0.00746338,-0.2793,0.5554,-9.9617,0.032910,-0.018403,-0.004858,27.6863,17.2154,34.1052,-3.5512,0.3120,116,0,0,-0.010615,0.002250,-0.311463,0.004171,0.077144,0.014308,1.6059,-2.6839,5.7463
12001,11.0,-0.006605,-0.000602,-0.311327,-0.005721,0.013272,0.001778,-4.0509,-1.0546,5.2878,-0.00014973,0.00020687,-0.13171563,-0.00462466,-0.00862203,-0.00738851,-0.2259,0.5802,-9.9216,-0.006501,-0.008392,-0.008856,27.6863,17.2154,34.1052,-3.5512,0.3140,114,0,0,-0.010500,0.002438,-0.312514,0.006377,0.076165,-0.002470,1.7238,-2.7449,5.8773
12012,11.0,-0.006478,-0.000620,-0.311185,-0.003747,0.011303,0.003597,-4.0890,-1.0766,5.3599,-0.00010675,0.00024953,-0.13171314,-0.00520929,-0.00797657,-0.00824208,-0.2121,0.6821,-9.7583,-0.038335,-0.023364,-0.004863,27.6863,17.2154,34.1052,-3.5512,0.3140,112,0,0,-0.010448,0.002487,-0.312544,0.007495,0.075477,-0.003128,1.7266,-2.7563,5.9134
12023,11.0,-0.006232,-0.000601,-0.312237,0.000452,0.010906,-0.008610,-4.1151,-1.1159,5.4013,-0.00005019,0.00028422,-0.13170624,-0.00635456,-0.00838805,-0.00032575,-0.0928,0.7702,-9.7243,-0.014201,-0.054436,0.002907,27.6863,17.2154,34.1052,-3.5512,0.3140,116,0,0,-0.010159,0.002542,-0.312461,0.011807,0.076291,0.000088,1.7659,-2.8254,6.0273
12034,11.0,-0.005972,-0.000570,-0.312235,0.003937,0.011457,-0.006702,-4.1263,-1.1633,5.4737,-0.00002027,0.00034475,-0.13170096,-0.00711250,-0.00794480,-0.00097273,-0.1356,0.8414,-9.7027,-0.002359,-0.058197,0.014231,25.7079,16.5023,33.2548,-3.5512,0.3130,120,0,0,-0.009921,0.002596,-0.312369,0.015676,0.078334,0.002368,1.8362,-2.8907,6.1107
12045,11.0,-0.005718,-0.000548,-0.312307,0.006229,0.011161,-0.006338,-4.1534,-1.2055,5.5549,0.00004451,0.00040111,-0.13169634,-0.00765331,-0.00798958,-0.00096981,-0.2182,0.7988,-9.7428,-0.012333,-0.053638,0.027906,25.7079,16.5023,33.2548,-3.5512,0.3130,116,0,0,-0.009670,0.002673,-0.312342,0.018772,0.080033,0.003826,1.8261,-2.9239,6.1331
12057,12.0,-0.006363,-0.000606,-0.312168,-0.002457,0.010012,-0.003440,-4.1725,-1.1740,5.7508,0.00007982,0.00021010,-0.13171779,-0.00551324,-0.00750139,-0.00247069,-0.2193,0.8003,-9.7416,-0.010127,-0.039287,0.020847,25.7079,16.5023,33.2548,-3.4931,0.3130,127,-2,0,-0.009199,0.002796,-0.312121,0.022842,0.082891,0.007627,1.8779,-3.0152,6.2716
12068,11.0,-0.006176,-0.000615,-0.312212,-0.000578,0.009569,-0.004542,-4.2130,-1.2099,5.8339,0.00015733,0.00028772,-0.13171333,-0.00581078,-0.00758957,-0.00247520,-0.2681,0.8256,-9.8748,-0.030185,-0.036471,0.020758,25.7079,16.5023,33.2548,-3.4931,0.3140,125,0,0,-0.009896,0.002750,-0.312042,0.013637,0.083350,0.008766,1.9410,-3.0267,6.4229
12080,12.0,-0.006034,-0.000650,-0.312179,0.000365,0.008457,-0.005826,-4.2614,-1.2265,5.9293,0.00020229,0.00032553,-0.13171057,-0.00624102,-0.00701046,-0.00315877,-0.2835,0.7918,-9.9866,-0.051832,-0.021803,0.022894,25.7079,16.5023,33.2548,-3.4931,0.3140,124,0,0,-0.009553,0.002796,-0.312822,0.016864,0.084973,-0.000904,1.9581,-3.0761,6.2829
12091,11.0,-0.005939,-0.000649,-0.312699,0.000621,0.007742,-0.013585,-4.2850,-1.2456,6.0272,0.00025363,0.00038577,-0.13170980,-0.00597403,-0.00721748,-0.00013672,-0.3071,0.7905,-10.0138,-0.014638,-0.017823,0.009659,25.7079,16.5023,33.2548,-3.4931,0.3140,129,0,0,-0.009417,0.002814,-0.312843,0.017524,0.085046,-0.002260,1.9183,-3.0936,6.3397
12102,11.0,-0.005903,-0.000645,-0.312786,0.000817,0.007779,-0.015263,-4.2944,-1.2452,6.1133,0.00027831,0.00039180,-0.13170995,-0.00605359,-0.00690699,-0.00065847,-0.2280,0.8383,-10.0095,-0.003149,-0.007086,0.003794,25.7079,16.5023,33.2548,-3.4931,0.3120,127,0,0,-0.009310,0.002853,-0.312741,0.017765,0.086254,-0.002277,1.9782,-3.1300,6.4443
12113,11.0,-0.005988,-0.000654,-0.312958,-0.000288,0.007490,-0.015917,-4.3132,-1.2199,6.2110,0.00033648,0.00036383,-0.13171391,-0.00575002,-0.00707131,-0.00067589,-0.2129,0.8202,-9.8335,-0.005376,0.020105,0.004231,25.7079,16.5023,33.2548,-3.4772,0.3120,127,0,0,-0.009256,0.002958,-0.311782,0.017647,0.088679,0.005320,2.0334,-3.1525,6.5994
12125,12.0,-0.006007,-0.000635,-0.311924,-0.000736,0.007914,-0.001602,-4.3143,-1.2091,6.3123,0.00035637,0.00035638,-0.13171543,-0.00587254,-0.00621600,-0.00886728,-0.2251,0.8428,-9.7676,0.007605,0.003091,0.007260,25.7079,16.5023,33.2548,-3.4772,0.3120,130,0,0,-0.009321,0.003004,-0.311734,0.016508,0.089122,0.005392,2.0136,-3.1305,6.6548
12136,11.0,-0.005938,-0.000583,-0.311942,0.000005,0.008185,-0.001556,-4.3076,-1.2215,6.3891,0.00039770,0.00038324,-0.13171321,-0.00600513,-0.00642939,-0.00888020,-0.2217,0.8058,-9.7788,0.028219,-0.020215,0.005014,25.7079,16.5023,33.2548,-3.4772,0.3140,130,0,0,-0.009352,0.003047,-0.311678,0.015832,0.090540,0.006314,2.0788,-3.1438,6.7678
12147,11.0,-0.005834,-0.000548,-0.311867,0.000764,0.008397,-0.000828,-4.3052,-1.2367,6.4695,0.00041828,0.00041292,-0.13171035,-0.00629374,-0.00616199,-0.00950069,-0.2496,0.8185,-9.8181,0.013399,-0.024798,0.012808,25.7105,15.0541,34.1052,-3.4772,0.3140,120,0,0,-0.009206,0.003242,-0.312614,0.017004,0.092857,-0.002794,2.1555,-3.1863,6.9206
12158,11.0,-0.005773,-0.000543,-0.312516,0.000839,0.007517,-0.008674,-4.3203,-1.2451,6.5705,0.00045430,0.00045271,-0.13171045,-0.00603720,-0.00630096,-0.00528071,-0.2750,0.7531,-9.8221,-0.009003,-0.011231,0.014594,25.7105,15.0541,34.1052,-3.4772,0.3140,117,0,0,-0.009017,0.003400,-0.312563,0.017952,0.094284,-0.000719,2.2092,-3.2332,7.0826
12169,11.0,-0.005672,-0.000576,-0.312543,0.001507,0.006693,-0.008400,-4.3545,-1.2524,6.6582,0.00049302,0.00047744,-0.13170888,-0.00627452,-0.00588131,-0.00573451,-0.2518,0.7886,-9.8341,-0.039322,-0.014745,0.016604,25.7105,15.0541,34.1052,-3.4772,0.3110,118,0,0,-0.008938,0.003454,-0.311200,0.017934,0.093839,0.014806,2.1899,-3.2412,7.1387
12180,11.0,-0.005604,-0.000650,-0.312635,0.001611,0.005748,-0.008208,-4.4145,-1.2532,6.7599,0.00057057,0.00050991,-0.13170959,-0.00614906,-0.00577587,-0.00572882,-0.2637,0.8230,-9.7600,-0.067791,-0.002296,0.018930,25.7105,15.0541,34.1052,-3.4772,0.3110,113,0,0,-0.008841,0.003469,-0.310976,0.018502,0.094250,0.016127,2.2264,-3.2726,7.2531
12191,11.0,-0.005511,-0.000707,-0.311193,0.001664,0.004579,0.010364,-4.4586,-1.2552,6.8543,0.00060669,0.00052925,-0.13170864,-0.00656407,-0.00458158,-0.01563620,-0.2942,0.7722,-9.7231,-0.056752,-0.009191,0.023530,25.7105,15.0541,34.1052,-3.3610,0.3110,117,0,0,-0.008682,0.003448,-0.310580,0.018597,0.093764,0.019251,2.2056,-3.2670,7.0166
12203,12.0,-0.005323,-0.000685,-0.311067,0.003100,0.003974,0.010593,-4.4673,-1.2881,6.9498,0.00061170,0.00060505,-0.13170385,-0.00676003,-0.00430163,-0.01561196,-0.2725,0.7385,-9.7748,-0.008158,-0.038731,0.017764,25.7105,15.0541,34.1052,-3.3610,0.3140,116,0,0,-0.008567,0.003469,-0.312113,0.018826,0.092845,0.001444,2.1481,-3.2749,7.0946
12214,11.0,-0.005150,-0.000616,-0.310903,0.004270,0.004061,0.010637,-4.4486,-1.3168,7.0192,0.00060806,0.00065105,-0.13169837,-0.00713569,-0.00429198,-0.01593693,-0.2708,0.7490,-9.8443,0.032215,-0.042439,0.007207,25.7105,15.0541,34.1052,-3.3610,0.3140,116,0,0,-0.008391,0.003531,-0.312095,0.020016,0.093308,0.002421,2.2027,-3.3224,7.2058
12225,11.0,-0.005122,-0.000590,-0.310894,0.003714,0.003504,0.009597,-4.4402,-1.3179,7.1168,0.00059693,0.00066554,-0.13170014,-0.00685614,-0.00412671,-0.01523421,-0.2732,0.7219,-9.7744,0.013404,-0.007233,-0.000250,25.7105,15.0541,34.1052,-3.3610,0.3120,114,0,0,-0.008092,0.003745,-0.311992,0.021479,0.094513,0.003568,2.2780,-3.3886,7.3699
12236,11.0,-0.005099,-0.000555,-0.310742,0.003287,0.002246,0.011588,-4.4310,-1.3157,7.1984,0.00059500,0.00066034,-0.13170065,-0.00682136,-0.00412357,-0.01548386,-0.2658,0.6300,-9.6623,0.017702,-0.007178,-0.005209,27.2911,16.4949,33.6915,-3.3610,0.3120,109,0,0,-0.008056,0.003830,-0.311480,0.020762,0.094251,0.009844,2.2732,-3.3866,7.4294
12247,11.0,-0.005370,-0.000580,-0.310610,-0.000660,0.000661,0.012454,-4.4230,-1.3181,7.3355,0.00054923,0.00058500,-0.13171344,-0.00574807,-0.00356989,-0.01546653,-0.2905,0.6452,-9.7218,0.003068,-0.033155,-0.004925,27.2911,16.4949,33.6915,-3.3610,0.3120,108,-1,0,-0.008396,0.003946,-0.311250,0.015096,0.092884,0.013959,2.3404,-3.3954,7.6149
12258,11.0,-0.005167,-0.000585,-0.311268,0.001967,-0.000060,0.003843,-4.4437,-1.3492,7.3992,0.00056110,0.00065639,-0.13170624,-0.00616036,-0.00386878,-0.01045257,-0.2158,0.6879,-9.7316,-0.026291,-0.040726,0.002930,27.2911,16.4949,33.6915,-3.3610,0.3130,109,0,0,-0.008676,0.003964,-0.311043,0.011509,0.092459,0.016135,2.3999,-3.4254,7.7363
12270,12.0,-0.004985,-0.000625,-0.311220,0.003296,-0.000104,0.004089,-4.4847,-1.3747,7.4861,0.00059679,0.00072887,-0.13170180,-0.00636354,-0.00385190,-0.01044614,-0.2773,0.7991,-9.7634,-0.047509,-0.030040,0.005933,27.2911,16.4949,33.6915,-3.4191,0.3130,112,0,0,-0.008481,0.004025,-0.311652,0.014173,0.092091,0.008916,2.3663,-3.4473,7.7837
12282,12.0,-0.004824,-0.000686,-0.311107,0.003958,-0.000252,0.003299,-4.5318,-1.3886,7.5784,0.00062364,0.00076956,-0.13169837,-0.00668122,-0.00358853,-0.01089148,-0.3019,0.8281,-9.9215,-0.058894,-0.022068,0.016295,27.2911,16.4949,33.6915,-3.4191,0.3130,108,0,0,-0.008155,0.004067,-0.311394,0.017241,0.093459,0.011584,2.3619,-3.4783,7.5500
12294,12.0,-0.004649,-0.000739,-0.310986,0.004756,-0.000707,0.002244,-4.5782,-1.4103,7.6839,0.00065715,0.00084501,-0.13169548,-0.00669322,-0.00347017,-0.01146012,-0.3101,0.8047,-9.9630,-0.055838,-0.025531,0.019643,27.2911,16.4949,33.6915,-3.4191,0.3120,105,0,0,-0.008006,0.004066,-0.311282,0.018184,0.094446,0.011212,2.3825,-3.5157,7.6642
12305,11.0,-0.004496,-0.000735,-0.310915,0.004564,-0.000432,0.001193,-4.5875,-1.4274,7.7657,0.00065791,0.00088374,-0.13169116,-0.00696996,-0.00342635,-0.01179994,-0.3779,0.8219,-9.9372,-0.010433,-0.028963,0.017565,27.2911,16.4949,33.6915,-3.4191,0.3120,114,0,0,-0.007698,0.004105,-0.311013,0.019465,0.095598,0.010556,2.3522,-3.5699,7.8541
12316,11.0,-0.004365,-0.000672,-0.310913,0.004355,-0.000084,-0.000916,-4.5655,-1.4565,7.8663,0.00063203,0.00097917,-0.13168865,-0.00659218,-0.00354563,-0.01181809,-0.3805,0.7708,-9.9772,0.033522,-0.032811,0.009091,27.2911,16.4949,33.6915,-3.4191,0.3120,113,0,0,-0.007561,0.004176,-0.310845,0.019333,0.096013,0.010710,2.3200,-3.5896,7.9296
12327,11.0,-0.004296,-0.000593,-0.311435,0.004189,0.000879,-0.008048,-4.5179,-1.5018,7.1560,0.00060275,0.00099660,-0.13153878,-0.00444231,-0.00332772,-0.00881495,-0.3406,0.7784,-9.9014,0.055413,-0.025103,0.009410,27.2911,16.4949,33.6915,-3.4191,0.3130,112,0,0,-0.007438,0.004277,-0.310744,0.019050,0.097230,0.009907,2.3897,-3.6302,8.0480
12338,11.0,-0.004274,-0.000529,-0.311525,0.003616,0.001257,-0.008357,-4.4880,-1.5051,7.2495,0.00057358,0.00100927,-0.13153911,-0.00421704,-0.00340931,-0.00882734,-0.2970,0.7513,-9.8136,0.045414,-0.011679,0.006536,27.6808,16.5098,34.4727,-3.3821,0.3130,115,0,0,-0.007276,0.004537,-0.311474,0.018511,0.099565,0.000597,2.4717,-3.6784,8.2439
12349,11.0,-0.004711,-0.000561,-0.311562,-0.001891,0.000160,-0.008019,-4.4806,-1.4741,7.3880,0.00056719,0.00083164,-0.13155740,-0.00306679,-0.00346811,-0.00921408,-0.2839,0.7135,-9.8210,0.015753,-0.000267,0.007810,27.6808,16.5098,34.4727,-3.3821,0.3130,115,-1,0,-0.007246,0.004660,-0.311471,0.018032,0.099908,0.001221,2.4704,-3.6775,8.3162
12360,11.0,-0.004745,-0.000577,-0.311265,-0.002699,-0.001155,-0.004493,-4.4833,-1.4674,7.4976,0.00052113,0.00087030,-0.13155994,-0.00271318,-0.00275245,-0.01149433,-0.3425,0.6624,-9.8859,-0.012235,0.009767,0.006083,27.6808,16.5098,34.4727,-3.3821,0.3120,117,0,0,-0.007693,0.004757,-0.311368,0.012099,0.099022,0.002680,2.5121,-3.6724,8.5443
12371,11.0,-0.005258,-0.000705,-0.311275,-0.008647,-0.003426,-0.004673,-4.5186,-1.4184,7.6357,0.00053931,0.00068405,-0.13157949,-0.00154214,-0.00264502,-0.01178323,-0.3178,0.6819,-9.8579,-0.047321,0.027540,0.008020,27.6808,16.5098,34.4727,-3.3821,0.3120,122,-1,0,-0.008161,0.004723,-0.311156,0.006327,0.097807,0.004647,2.5495,-3.6669,8.6930
12382,11.0,-0.005401,-0.000770,-0.311330,-0.009443,-0.004109,-0.005356,-4.5405,-1.3897,7.7330,0.00052884,0.00068427,-0.13158253,-0.00124982,-0.00242151,-0.01177338,-0.2781,0.7395,-9.8522,-0.033930,0.035946,0.002407,27.6808,16.5098,34.4727,-3.3821,0.3120,125,0,0,-0.008671,0.004656,-0.311065,0.000767,0.095620,0.005345,2.4941,-3.6292,8.7961
12393,11.0,-0.005640,0.000355,-0.311102,-0.011309,0.008906,-0.001922,-4.4950,-1.3758,7.7494,0.00007212,0.00068966,-0.13156210,-0.00115733,-0.00538781,-0.01369736,-0.2783,0.7703,-9.7791,-0.012396,0.017596,0.005663,27.6808,16.5098,34.4727,-3.3821,0.3120,123,0,1,-0.008909,0.004655,-0.310882,0.000857,0.095132,0.007220,2.4946,-3.5661,8.5544
12404,11.0,-0.005688,0.000368,-0.311122,-0.010525,0.007598,-0.001683,-4.4952,-1.3693,7.8367,0.00008687,0.00072257,-0.13156149,-0.00127005,-0.00492668,-0.01365838,-0.2488,0.7247,-9.7717,0.004271,0.006923,0.002356,27.6808,16.5098,34.4727,-3.3821,0.3120,122,0,0,-0.009051,0.005123,-0.310975,0.000511,0.100947,0.006530,2.5544,-3.5740,8.6595
12415,11.0,-0.005716,0.000397,-0.311041,-0.009592,0.006255,-0.000269,-4.4906,-1.3668,7.9139,0.00011091,0.00075440,-0.13155931,-0.00149272,-0.00471562,-0.01422305,-0.2500,0.6918,-9.7750,0.014846,0.000693,-0.001669,27.6808,16.5098,34.4727,-3.4931,0.3120,122,0,0,-0.009117,0.005247,-0.310729,0.002388,0.100562,0.009872,2.5729,-3.5804,8.8336
12426,11.0,-0.005700,0.000458,-0.309910,-0.008860,0.005329,0.012879,-4.4654,-1.3797,7.9983,0.00008229,0.00083914,-0.13155685,-0.00166883,-0.00378061,-0.02070917,-0.3126,0.6869,-9.8092,0.035296,-0.012104,-0.011817,27.6808,16.5098,34.4727,-3.4931,0.3100,123,0,0,-0.009125,0.005335,-0.310633,0.003426,0.100007,0.010914,2.5548,-3.5748,8.8909
12437,11.0,-0.005626,0.000511,-0.309694,-0.006790,0.004667,0.013687,-4.4409,-1.4312,7.2731,0.00009388,0.00090963,-0.13138647,0.00024519,-0.00292583,-0.02113379,-0.2664,0.6831,-9.8120,0.027068,-0.025138,-0.014574,28.0787,16.5023,34.4958,-3.4931,0.3100,125,0,0,-0.009103,0.005439,-0.309585,0.004439,0.100536,0.022013,2.6278,-3.6047,8.9862
12448,11.0,-0.005519,0.000540,-0.309547,-0.005005,0.004068,0.013157,-4.4387,-1.4534,7.3422,0.00009545,0.00099698,-0.13138087,-0.00006744,-0.00264482,-0.02110419,-0.2769,0.7267,-9.8485,0.005627,-0.026621,-0.013247,28.0787,16.5023,34.4958,-3.4931,0.3100,118,0,0,-0.008948,0.005649,-0.309138,0.007965,0.101123,0.023212,2.6750,-3.6500,9.1285
12459,11.0,-0.005416,0.000536,-0.309650,-0.003231,0.003001,0.010369,-4.4554,-1.4688,7.4063,0.00012159,0.00105922,-0.13137603,-0.00039414,-0.00257240,-0.01967620,-0.2547,0.7043,-9.7911,-0.019062,-0.020801,-0.015878,28.0787,16.5023,34.4958,-3.4931,0.3110,116,0,0,-0.008845,0.005735,-0.308787,0.009599,0.100955,0.025047,2.6438,-3.6585,9.1740
12470,11.0,-0.005308,0.000540,-0.309534,-0.001754,0.002966,0.010617,-4.4682,-1.4853,7.4707,0.00015540,0.00111988,-0.13137132,-0.00069811,-0.00255817,-0.01966648,-0.2603,0.7896,-9.7716,-0.010703,-0.022819,-0.015551,28.0787,16.5023,34.4958,-3.4931,0.3110,119,0,0,-0.008740,0.005793,-0.309420,0.011290,0.101126,0.016256,2.6748,-3.6920,9.2749
12481,11.0,-0.005125,0.000565,-0.309328,0.000005,0.003545,0.010361,-4.4714,-1.5156,7.5298,0.00017126,0.00120373,-0.13136372,-0.00119632,-0.00240218,-0.02020528,-0.2983,0.8405,-9.9196,0.000529,-0.040810,-0.015275,28.0787,16.5023,34.4958,-3.4931,0.3110,114,0,0,-0.008490,0.005930,-0.308992,0.014284,0.102650,0.019091,2.6960,-3.7005,8.9591
12492,11.0,-0.005265,-0.000629,-0.309069,-0.002107,-0.008970,0.009889,-4.5470,-1.5126,7.6959,0.00075834,0.00110088,-0.13139604,-0.00049593,0.00002060,-0.02090315,-0.3019,0.9200,-9.9954,-0.010078,-0.026091,-0.001698,28.0787,16.5023,34.4958,-3.4350,0.3100,112,-1,-1,-0.008682,0.005510,-0.308813,0.011646,0.097630,0.018648,2.6305,-3.7014,9.0331
12503,11.0,-0.005270,-0.000674,-0.308911,-0.002405,-0.006918,0.009042,-4.5609,-1.5048,7.7754,0.00074066,0.00111186,-0.13139419,-0.00055998,-0.00005776,-0.02124151,-0.2919,0.9341,-9.9245,-0.020762,0.004984,0.002591,28.0787,16.5023,34.4958,-3.4350,0.3100,112,0,0,-0.008841,0.005104,-0.308666,0.009591,0.096259,0.014880,2.5878,-3.7242,9.2179
12514,11.0,-0.005792,-0.000788,-0.308809,-0.008485,-0.005841,0.009438,-4.5885,-1.4608,7.9111,0.00081403,0.00092162,-0.13141663,0.00075311,-0.00091848,-0.02133962,-0.2915,0.9408,-9.7470,-0.020837,0.026413,0.005989,28.0787,16.5023,34.4958,-3.4350,0.3100,110,-1,0,-0.008861,0.005116,-0.308442,0.009308,0.098586,0.015987,2.6137,-3.7343,9.3336
12525,11.0,-0.005892,-0.000825,-0.309313,-0.009231,-0.004193,0.002881,-4.5961,-1.4396,8.0077,0.00080571,0.00092212,-0.13141623,0.00085810,-0.00123258,-0.01800183,-0.2941,0.9172,-9.7305,-0.008614,0.022388,0.026003,28.0787,16.5023,34.4958,-3.4350,0.3110,112,0,0,-0.009379,0.005057,-0.308285,0.003186,0.098831,0.017242,2.5446,-3.6887,9.4309
12537,12.0,-0.005951,-0.000825,-0.309281,-0.009153,-0.003806,0.002483,-4.5897,-1.4330,8.1200,0.00078295,0.00097612,-0.13141340,0.00095405,-0.00130861,-0.01801059,-0.2970,0.7776,-9.8259,0.010690,0.007034,0.033577,27.2911,17.2154,33.2778,-3.4350,0.3110,114,0,0,-0.009537,0.005121,-0.309142,0.002528,0.101255,0.008149,2.5157,-3.6706,9.6467
12548,11.0,-0.006032,-0.000813,-0.309180,-0.009095,-0.004145,0.002772,-4.5708,-1.4466,7.6155,0.00076154,0.00098957,-0.13127139,0.00281194,-0.00078610,-0.01844968,-0.3073,0.6868,-9.8580,0.017872,0.011373,0.025080,27.2911,17.2154,33.2778,-3.4350,0.3110,106,0,0,-0.009577,0.005183,-0.309059,0.002863,0.102022,0.008888,2.5584,-3.6848,9.7784
12559,11.0,-0.006179,-0.000795,-0.307928,-0.009803,-0.005000,0.016889,-4.5412,-1.4244,7.7186,0.00064275,0.00099400,-0.13127314,0.00286525,0.00029950,-0.02496255,-0.2854,0.6216,-9.8166,0.026916,0.025751,0.013592,27.2911,17.2154,33.2778,-3.4350,0.3080,105,0,0,-0.009723,0.005334,-0.308780,0.002816,0.100999,0.010734,2.5800,-3.6759,9.9864
12570,11.0,-0.006290,-0.000780,-0.307696,-0.009909,-0.005614,0.018075,-4.5263,-1.4076,7.7948,0.00060821,0.00099719,-0.13127150,0.00285106,0.00012388,-0.02521497,-0.2645,0.6392,-9.7505,0.021938,0.018349,-0.002460,27.2911,17.2154,33.2778,-3.3821,0.3080,107,0,0,-0.009855,0.005410,-0.307636,0.002428,0.099874,0.022672,2.5681,-3.6466,10.0562
12581,11.0,-0.006295,-0.000787,-0.307497,-0.008945,-0.006537,0.018070,-4.5183,-1.4095,7.8800,0.00050250,0.00106772,-0.13126729,0.00274568,0.00074638,-0.02516690,-0.2796,0.6170,-9.8134,-0.005445,-0.000268,0.001271,27.2911,17.2154,33.2778,-3.3821,0.3080,106,0,0,-0.009956,0.005479,-0.307356,0.002476,0.099634,0.024651,2.6190,-3.6495,10.1667
12592,11.0,-0.006233,-0.000791,-0.307074,-0.007169,-0.006641,0.020019,-4.5232,-1.4214,7.9417,0.00047987,0.00114258,-0.13125940,0.00232920,0.00073273,-0.02636690,-0.2528,0.6962,-9.8713,-0.008169,-0.014805,-0.011267,27.2911,17.2154,33.2778,-3.3821,0.3080,105,0,0,-0.009940,0.005595,-0.306782,0.004924,0.098353,0.026688,2.6373,-3.6309,9.9293
12603,11.0,-0.006189,-0.000813,-0.306860,-0.005921,-0.005681,0.019000,-4.5369,-1.4285,8.0027,0.00049165,0.00120393,-0.13125314,0.00207592,0.00043481,-0.02638341,-0.2504,0.8240,-9.8916,-0.015117,-0.008782,-0.015059,27.2911,17.2154,33.2778,-3.3821,0.3110,112,0,0,-0.009878,0.005658,-0.308679,0.006440,0.098044,0.003631,2.5800,-3.6259,9.9855
12613,10.0,-0.006208,-0.000863,-0.306614,-0.005746,-0.004322,0.020002,-4.5566,-1.4195,8.0736,0.00049418,0.00122247,-0.13125139,0.00197382,0.00047554,-0.02667036,-0.2513,0.9113,-9.7561,-0.030304,0.009821,-0.000959,27.2911,17.2154,33.2778,-3.3821,0.3110,112,0,0,-0.009829,0.005700,-0.308645,0.007586,0.099428,0.003689,2.6073,-3.6481,10.0793
12624,11.0,-0.006267,-0.000884,-0.308295,-0.006024,-0.002320,-0.000344,-4.5713,-1.4073,8.1516,0.00057522,0.00123129,-0.13124956,0.00230009,-0.00114449,-0.01673141,-0.2454,0.9456,-9.6021,-0.001114,0.012107,0.008564,27.6890,16.8477,32.8869,-3.3610,0.3110,111,0,0,-0.009860,0.005740,-0.308494,0.007424,0.102096,0.007438,2.5567,-3.6377,10.2445
12636,12.0,-0.005834,-0.000801,-0.308254,-0.001079,0.000713,0.001490,-4.5560,-1.4316,8.2023,0.00056248,0.00146749,-0.13122356,0.00115496,-0.00114481,-0.01690499,-0.2757,0.9379,-9.6633,0.023795,-0.010205,0.016183,27.6890,16.8477,32.8869,-3.3610,0.3080,105,1,0,-0.009894,0.005792,-0.307594,0.007146,0.103277,0.019310,2.5022,-3.6167,10.3025
12647,11.0,-0.005747,-0.000755,-0.308238,-0.000749,0.001587,0.001304,-4.5458,-1.4495,8.2997,0.00058612,0.00155446,-0.13121867,0.00123137,-0.00147897,-0.01693239,-0.3170,0.8377,-9.8031,0.026463,-0.024004,0.028343,27.6890,16.8477,32.8869,-3.3610,0.3080,109,0,0,-0.009395,0.006054,-0.307168,0.012147,0.106975,0.023539,2.5075,-3.6515,10.4642
12658,11.0,-0.005707,-0.000733,-0.309131,-0.000910,0.001755,-0.009418,-4.5319,-1.4805,7.7664,0.00059340,0.00157892,-0.13105181,0.00343972,-0.00113359,-0.01227522,-0.3471,0.7841,-9.8025,0.013434,-0.011987,0.028553,27.6890,16.8477,32.8869,-3.3610,0.3110,122,0,0,-0.009310,0.006157,-0.306871,0.012351,0.107971,0.025164,2.5514,-3.6815,10.5868
12669,11.0,-0.005707,-0.000706,-0.309237,-0.001317,0.001070,-0.009833,-4.5185,-1.4805,7.8739,0.00055024,0.00162024,-0.13105217,0.00366558,-0.00084569,-0.01225954,-0.3156,0.7040,-9.8301,0.017132,-0.002976,0.024809,27.6890,16.8477,32.8869,-3.3610,0.3110,122,0,0,-0.009257,0.006251,-0.308678,0.011985,0.107333,0.003375,2.4949,-3.6786,10.6783
12680,11.0,-0.005733,-0.000678,-0.309300,-0.002099,0.000269,-0.009855,-4.5080,-1.4726,7.9640,0.00053986,0.00161788,-0.13105200,0.00367175,-0.00087879,-0.01251736,-0.3267,0.6914,-9.8479,0.019507,0.002525,0.013059,27.6890,16.8477,32.8869,-3.3610,0.3110,120,0,0,-0.009250,0.006425,-0.308562,0.010970,0.105937,0.004956,2.5218,-3.6512,10.4432
12691,11.0,-0.005757,-0.000652,-0.308068,-0.002708,-0.000311,0.004296,-4.4914,-1.4710,8.0579,0.00048919,0.00166013,-0.13105287,0.00376520,-0.00007942,-0.01932627,-0.3261,0.7033,-9.9363,0.020267,0.001575,0.000069,27.6890,16.8477,32.8869,-3.3610,0.3080,127,0,0,-0.009278,0.006514,-0.308515,0.010202,0.105510,0.005109,2.5659,-3.6606,10.5601
12702,11.0,-0.005744,-0.000682,-0.307993,-0.002592,-0.000620,0.003140,-4.5109,-1.4663,8.1403,0.00050466,0.00167909,-0.13105160,0.00366677,0.00001911,-0.01950757,-0.2859,0.7830,-9.9395,-0.024850,0.001415,0.002860,27.6890,16.8477,32.8869,-3.3610,0.3080,130,0,0,-0.009287,0.006653,-0.307472,0.009500,0.104831,0.013693,2.5592,-3.6606,10.7382
12713,11.0,-0.005761,-0.000746,-0.307957,-0.002337,-0.000969,0.003364,-4.5466,-1.4518,8.2292,0.00054364,0.00167025,-0.13105211,0.00357625,0.00007586,-0.01950001,-0.2300,0.7964,-9.7740,-0.046292,0.011526,0.013321,27.6890,16.8477,32.8869,-3.3081,0.3080,120,0,0,-0.009269,0.006682,-0.307315,0.009646,0.104289,0.013776,2.4848,-3.6440,10.8064
12724,11.0,-0.005763,-0.000753,-0.308449,-0.001690,-0.000884,-0.001602,-4.5525,-1.4465,8.3181,0.00054390,0.00168133,-0.13105099,0.00361264,-0.00014344,-0.01682971,-0.2042,0.7679,-9.6805,-0.005011,0.000467,0.013365,28.8717,17.2154,33.6915,-3.3081,0.3100,126,0,0,-0.009275,0.006687,-0.307174,0.009835,0.104190,0.015189,2.4835,-3.6491,10.9259
12735,11.0,-0.005742,-0.000708,-0.308466,-0.001128,-0.001033,-0.001496,-4.5275,-1.4497,8.4002,0.00047450,0.00170126,-0.13104822,0.00348298,0.00009035,-0.01680970,-0.2433,0.6968,-9.7896,0.030834,-0.011211,0.002699,28.8717,17.2154,33.6915,-3.3081,0.3100,126,0,0,-0.009268,0.006807,-0.308202,0.010424,0.103510,0.005552,2.4477,-3.6395,11.1114
12746,11.0,-0.005753,-0.000694,-0.308454,-0.001138,-0.001213,-0.001240,-4.5219,-1.4441,8.4847,0.00046152,0.00170359,-0.13104752,0.00347062,0.00003748,-0.01695802,-0.2535,0.7316,-9.8037,0.010907,0.000202,0.005216,28.8717,17.2154,33.6915,-3.3081,0.3100,120,0,0,-0.009683,0.006824,-0.308149,0.005739,0.101831,0.006469,2.4173,-3.6100,11.1915
12757,11.0,-0.005783,-0.000704,-0.307092,-0.001310,-0.001619,0.014997,-4.5235,-1.4326,8.5728,0.00043109,0.00169377,-0.13104878,0.00330313,0.00078899,-0.02370441,-0.2464,0.7259,-9.7793,-0.004941,0.007527,0.003390,28.8717,17.2154,33.6915,-3.3081,0.3070,116,0,0,-0.009692,0.006895,-0.308048,0.006165,0.102041,0.007739,2.4510,-3.6220,11.2960
12768,11.0,-0.005733,-0.000702,-0.306907,-0.000512,-0.001887,0.014898,-4.5186,-1.4659,8.0188,0.00043208,0.00172310,-0.13086119,0.00551708,0.00155640,-0.02380953,-0.2707,0.7176,-9.8361,-0.002865,-0.012433,0.005079,28.8717,17.2154,33.6915,-3.3081,0.3070,116,0,0,-0.009720,0.006998,-0.306660,0.006921,0.101137,0.021678,2.4258,-3.6110,11.4569
12779,11.0,-0.005627,-0.000656,-0.306751,0.000968,-0.001583,0.013504,-4.5011,-1.4822,8.0931,0.00038764,0.00176653,-0.13085477,0.00515805,0.00159480,-0.02379845,-0.2292,0.7367,-9.9306,0.024091,-0.028667,0.001580,28.8717,17.2154,33.6915,-3.3081,0.3070,112,0,0,-0.009662,0.007073,-0.306419,0.007809,0.100590,0.022421,2.3774,-3.6054,11.5141
12790,11.0,-0.005524,-0.000591,-0.307308,0.002091,-0.001048,0.003207,-4.4757,-1.5008,8.1670,0.00035228,0.00181714,-0.13084881,0.00503875,0.00116586,-0.02044326,-0.2501,0.7491,-10.0032,0.039034,-0.030258,-0.002134,28.8717,17.2154,33.6915,-3.3980,0.3090,118,0,0,-0.009569,0.007170,-0.306198,0.009510,0.101449,0.022366,2.4394,-3.6014,11.1364
12801,11.0,-0.005475,-0.000549,-0.307286,0.002233,-0.000074,0.000803,-4.4622,-1.5075,8.2497,0.00036543,0.00183894,-0.13084625,0.00501939,0.00076692,-0.02047368,-0.2673,0.8266,-10.0114,0.029501,-0.015791,0.006922,28.8717,17.2154,33.6915,-3.3980,0.3090,111,0,0,-0.009395,0.007402,-0.307150,0.011665,0.103059,0.006635,2.4480,-3.6275,11.2872
12812,11.0,-0.005475,-0.000533,-0.307226,0.001669,0.000575,-0.000159,-4.4551,-1.5016,8.3433,0.00035720,0.00182875,-0.13084698,0.00505636,0.00074960,-0.02077980,-0.2786,0.8242,-9.9465,0.014294,-0.001771,0.016266,28.8717,17.2154,33.6915,-3.3980,0.3090,113,0,0,-0.009355,0.007503,-0.307096,0.011789,0.103518,0.005467,2.4069,-3.6179,11.3456
12823,11.0,-0.005501,-0.000524,-0.307088,0.000692,0.000815,0.000083,-4.4541,-1.4938,8.4435,0.00037764,0.00183532,-0.13084938,0.00532353,0.00058939,-0.02151009,-0.3025,0.8032,-9.9283,0.010440,0.004790,0.018407,28.8717,17.2154,33.6915,-3.3980,0.3080,109,0,0,-0.009341,0.007582,-0.306969,0.011605,0.104601,0.005823,2.4395,-3.6299,11.4533
12834,11.0,-0.005417,-0.001633,-0.307044,0.001362,-0.012029,-0.000057,-4.4884,-1.4735,8.5687,0.00093022,0.00179596,-0.13087240,0.00538005,0.00318765,-0.02153304,-0.2731,0.7273,-9.8650,0.026063,0.015046,0.012013,26.8906,16.5098,32.4047,-3.3980,0.3080,109,0,-1,-0.009397,0.007713,-0.306954,0.009768,0.104348,0.004810,2.4093,-3.6112,11.6408
12845,11.0,-0.005538,-0.001632,-0.307046,-0.000590,-0.010685,-0.000215,-4.4688,-1.4511,8.6666,0.00085586,0.00176647,-0.13087603,0.00582451,0.00281492,-0.02157434,-0.2951,0.7662,-9.8117,0.025878,0.023179,0.013078,26.8906,16.5098,32.4047,-3.3980,0.3080,106,0,0,-0.009378,0.007358,-0.306912,0.009708,0.098600,0.005068,2.3495,-3.5836,11.7184
12856,11.0,-0.005694,-0.001648,-0.308044,-0.002266,-0.009568,-0.011199,-4.4559,-1.4193,8.7630,0.00079347,0.00170073,-0.13088031,0.00624905,0.00214714,-0.01689224,-0.2432,0.7608,-9.7383,0.016640,0.031661,0.016992,26.8906,16.5098,32.4047,-3.4561,0.3100,106,0,0,-0.009470,0.007426,-0.306861,0.008210,0.099248,0.005762,2.3882,-3.5779,11.8311
12867,11.0,-0.005813,-0.001649,-0.308164,-0.004087,-0.008648,-0.010614,-4.4394,-1.4011,8.8656,0.00072850,0.00171018,-0.13088329,0.00673972,0.00190873,-0.01692413,-0.3195,0.7484,-9.7401,0.021551,0.022627,0.016230,26.8906,16.5098,32.4047,-3.4561,0.3100,109,0,0,-0.009730,0.007531,-0.308223,0.004741,0.099375,-0.005903,2.3697,-3.5255,12.0241
12878,11.0,-0.005709,-0.002806,-0.308202,-0.003000,-0.020801,-0.010421,-4.4800,-1.4100,8.4210,0.00127094,0.00170528,-0.13072038,0.00886182,0.00515758,-0.01712136,-0.3162,0.7287,-9.8680,0.001597,0.012933,0.017879,26.8906,16.5098,32.4047,-3.4561,0.3100,105,0,-1,-0.009843,0.007592,-0.308196,0.003139,0.098893,-0.003436,2.3276,-3.4957,12.0999
12889,11.0,-0.005827,-0.002893,-0.307577,-0.004843,-0.019488,-0.002181,-4.4983,-1.3868,8.5204,0.00119057,0.00172926,-0.13072200,0.00928260,0.00509571,-0.02061567,-0.3303,0.7621,-9.8301,-0.035221,0.033211,0.014695,26.8906,16.5098,32.4047,-3.4561,0.3080,105,0,0,-0.009871,0.007234,-0.308269,0.002567,0.093833,-0.002680,2.2920,-3.4425,11.8405
12900,11.0,-0.005994,-0.002972,-0.307531,-0.006582,-0.017943,-0.000273,-4.5095,-1.3511,8.6088,0.00111551,0.00168427,-0.13072355,0.00947927,0.00476813,-0.02095247,-0.2713,0.7770,-9.6919,-0.023401,0.041143,0.011689,26.8906,16.5098,32.4047,-3.4561,0.3080,107,0,0,-0.009984,0.007213,-0.307531,0.001025,0.093984,0.006303,2.2920,-3.4286,11.9538
12911,11.0,-0.006059,-0.002999,-0.307528,-0.007035,-0.015119,0.000840,-4.5088,-1.3416,8.6876,0.00109301,0.00171884,-0.13071872,0.00956344,0.00394416,-0.02101895,-0.2598,0.8725,-9.6878,0.006101,0.012209,0.006973,26.8906,16.5098,32.4047,-3.4561,0.3080,107,0,0,-0.010230,0.007214,-0.307285,-0.001178,0.094136,0.011245,2.2307,-3.3800,12.1386
12922,11.0,-0.005647,-0.002929,-0.308253,-0.002078,-0.011747,-0.006322,-4.4913,-1.3619,8.7402,0.00101412,0.00198018,-0.13068928,0.00859330,0.00335712,-0.01761236,-0.2524,0.8424,-9.6562,0.020907,-0.003838,0.012667,26.8906,16.5098,32.4047,-3.4561,0.3100,116,1,0,-0.009845,0.007359,-0.307170,0.003562,0.096135,0.013298,2.1742,-3.3787,12.1864
12933,11.0,-0.005816,-0.001801,-0.308318,-0.004205,0.002398,-0.005575,-4.4410,-1.3635,8.7994,0.00039898,0.00202312,-0.13066432,0.00880388,0.00030686,-0.01786205,-0.2727,0.7965,-9.7236,0.002767,-0.002439,0.018307,27.2884,17.2228,34.0821,-3.5089,0.3100,116,0,1,-0.009942,0.007866,-0.308365,0.002374,0.102595,0.001466,2.2169,-3.3882,12.2910
12945,12.0,-0.005778,-0.001783,-0.308275,-0.004073,0.001336,-0.003328,-4.4433,-1.3679,8.8976,0.00040839,0.00206933,-0.13066004,0.00859361,0.00039631,-0.01834306,-0.3108,0.6817,-9.7166,0.001623,-0.010058,0.018805,27.2884,17.2228,34.0821,-3.5089,0.3100,118,0,0,-0.010011,0.008445,-0.308212,0.001609,0.106362,0.005813,2.1950,-3.3888,12.4693
12956,11.0,-0.005715,-0.001760,-0.308128,-0.003297,0.000446,0.000264,-4.4348,-1.3795,8.9932,0.00034822,0.00214950,-0.13065626,0.00849769,0.00093200,-0.01909206,-0.2791,0.6532,-9.6599,0.005564,-0.015591,0.015902,27.2884,17.2228,34.0821,-3.5089,0.3090,113,0,0,-0.009974,0.008526,-0.308143,0.001993,0.104449,0.007524,2.1417,-3.3855,12.5468
12967,11.0,-0.005642,-0.001721,-0.308038,-0.002346,0.000052,0.002661,-4.4253,-1.3922,9.0719,0.00033776,0.00220712,-0.13065025,0.00824532,0.00092186,-0.01945789,-0.2611,0.6800,-9.6703,0.017050,-0.020217,0.003649,27.2884,17.2228,34.0821,-3.5089,0.3090,122,0,0,-0.009855,0.008709,-0.307955,0.003937,0.101959,0.012002,2.1152,-3.4026,12.7223
12978,11.0,-0.005555,-0.001677,-0.308008,-0.001594,-0.000512,0.002936,-4.4073,-1.4105,9.1635,0.00026542,0.00230083,-0.13064563,0.00820209,0.00127921,-0.01943084,-0.2970,0.6566,-9.7783,0.019166,-0.023278,0.008807,27.2884,17.2228,34.0821,-3.5089,0.3090,122,0,0,-0.009786,0.008807,-0.307705,0.004927,0.101509,0.015564,2.1417,-3.4256,12.8218
12990,12.0,-0.005404,-0.001662,-0.308473,0.000318,-0.001089,-0.003535,-4.4082,-1.4572,8.7458,0.00027334,0.00238346,-0.13045633,0.01002316,0.00183071,-0.01722345,-0.2608,0.6792,-9.8645,-0.007351,-0.033363,0.015314,27.2884,17.2228,34.0821,-3.5089,0.3100,120,0,0,-0.009706,0.008913,-0.307552,0.005841,0.100368,0.016690,2.1243,-3.3994,12.4467
13001,11.0,-0.005285,-0.001669,-0.308517,0.001334,-0.002156,-0.004496,-4.4173,-1.4725,8.8412,0.00021552,0.00246178,-0.13045242,0.00989379,0.00230561,-0.01718487,-0.2849,0.6508,-9.8895,-0.021904,-0.021760,0.015843,27.2884,17.2228,34.0821,-3.5089,0.3100,122,0,0,-0.009430,0.009073,-0.308437,0.008884,0.098638,0.005198,2.0689,-3.4357,12.6183
13012,11.0,-0.005181,-0.001651,-0.308440,0.002041,-0.002810,-0.005188,-4.4186,-1.4857,8.9258,0.00019860,0.00251078,-0.13044739,0.00967227,0.00228367,-0.01781652,-0.2916,0.6718,-10.0144,-0.000531,-0.022451,0.009770,27.2884,17.2228,34.0821,-3.6041,0.3100,121,0,0,-0.009315,0.009133,-0.308388,0.009832,0.097842,0.005139,2.0711,-3.4590,12.7217
13023,11.0,-0.005151,-0.001672,-0.308761,0.001129,-0.003498,-0.010043,-4.4291,-1.4897,9.0244,0.00016226,0.00258331,-0.13044883,0.01010764,0.00238024,-0.01670342,-0.3647,0.7067,-9.9717,-0.019390,-0.001546,0.007105,27.2884,17.2228,34.0821,-3.6041,0.3100,120,0,0,-0.009135,0.009277,-0.308794,0.010226,0.096121,-0.002569,2.0259,-3.4753,12.8903
13034,11.0,-0.005199,-0.001699,-0.308769,-0.000396,-0.004079,-0.009373,-4.4388,-1.4731,9.1127,0.00015012,0.00255613,-0.13045080,0.01020636,0.00235925,-0.01719091,-0.3384,0.7089,-9.8506,-0.013185,0.014495,0.008669,28.4739,17.2228,34.4958,-3.6041,0.3100,114,0,0,-0.009115,0.009314,-0.308715,0.009195,0.094907,-0.002025,1.9607,-3.4626,12.9634
13045,11.0,-0.005429,-0.000569,-0.308873,-0.003751,0.008206,-0.009637,-4.3910,-1.4671,9.1705,-0.00048474,0.00258980,-0.13042942,0.01079898,-0.00009632,-0.01739967,-0.3442,0.7102,-9.8194,-0.007141,0.011713,0.001401,28.4739,17.2228,34.4958,-3.6041,0.3100,116,0,1,-0.009149,0.009342,-0.308736,0.007766,0.094397,-0.001718,1.9659,-3.4584,13.0703
13056,11.0,-0.005446,-0.000548,-0.308905,-0.003871,0.007129,-0.008916,-4.3899,-1.4620,9.2552,-0.00044850,0.00259768,-0.13043021,0.01074724,0.00008420,-0.01771370,-0.2823,0.7279,-9.8101,0.009496,0.001438,0.001596,28.4739,17.2228,34.4958,-3.6041,0.3100,112,0,0,-0.009417,0.010297,-0.308973,0.003350,0.102395,-0.002421,1.9576,-3.4353,13.2287
13067,11.0,-0.005480,-0.000525,-0.309003,-0.003930,0.006447,-0.008953,-4.3843,-1.4555,9.3387,-0.00042230,0.00260258,-0.13043147,0.01076570,0.00021997,-0.01770360,-0.2563,0.7461,-9.7990,0.015067,0.003774,-0.001301,28.4739,17.2228,34.4958,-3.6041,0.3100,118,0,0,-0.009432,0.010370,-0.308998,0.003150,0.101030,-0.001704,1.9062,-3.4179,13.2958
13078,11.0,-0.005578,-0.000519,-0.308966,-0.005177,0.005480,-0.007627,-4.3820,-1.4360,9.4201,-0.00039407,0.00257153,-0.13043553,0.01086363,0.00038035,-0.01831014,-0.3041,0.7382,-9.8248,0.010319,0.019587,-0.006397,28.4739,17.2228,34.4958,-3.6041,0.3100,116,0,0,-0.009458,0.010439,-0.308873,0.003026,0.100694,0.000728,1.9255,-3.4212,13.3960
13089,11.0,-0.005685,-0.000540,-0.309022,-0.005869,0.004239,-0.007509,-4.3905,-1.4140,9.5076,-0.00037609,0.00254821,-0.13044043,0.01102272,0.00067587,-0.01841825,-0.2554,0.7190,-9.8188,-0.009474,0.024470,-0.000533,28.4739,17.2228,34.4958,-3.5089,0.3100,116,0,0,-0.009632,0.010535,-0.308855,0.001204,0.098883,0.001862,1.9104,-3.3534,13.0724
13100,11.0,-0.005713,-0.000558,-0.309025,-0.005787,0.004040,-0.006375,-4.3958,-1.4311,9.0284,-0.00032764,0.00255735,-0.13022281,0.01336546,0.00169178,-0.01875288,-0.2722,0.7935,-9.7752,-0.011828,0.006612,-0.002905,28.4739,17.2228,34.4958,-3.5089,0.3100,116,0,0,-0.009723,0.010564,-0.309079,0.000616,0.097362,-0.000010,1.8464,-3.3188,13.1386
13111,11.0,-0.005746,-0.000564,-0.309092,-0.005405,0.003838,-0.005814,-4.4049,-1.4213,9.1106,-0.00028001,0.00255437,-0.13022213,0.01322426,0.00168248,-0.01874972,-0.2190,0.7851,-9.7436,-0.003947,0.006587,0.005640,28.4739,17.2228,34.4958,-3.5089,0.3100,114,0,0,-0.009756,0.010595,-0.309076,0.000431,0.097120,0.000985,1.8483,-3.3177,13.2350
13122,11.0,-0.005643,-0.000521,-0.309554,-0.004243,0.004613,-0.012097,-4.3957,-1.4412,9.1881,-0.00026601,0.00263867,-0.13021439,0.01294482,0.00163659,-0.01708615,-0.2829,0.8491,-9.9491,0.019220,-0.027377,0.001832,28.4739,17.2228,34.4958,-3.5089,0.3110,108,0,0,-0.009763,0.010715,-0.308919,0.001454,0.096923,0.003885,1.8035,-3.3080,13.3928
13133,11.0,-0.005566,-0.000513,-0.309696,-0.003769,0.004867,-0.013816,-4.4113,-1.4558,9.2845,-0.00017357,0.00273908,-0.13021021,0.01298148,0.00134623,-0.01711002,-0.3166,0.8553,-9.9419,-0.005110,-0.016376,0.023223,26.4981,16.5023,34.4958,-3.5089,0.3110,112,0,0,-0.009672,0.010816,-0.309770,0.002524,0.097217,-0.006149,1.7489,-3.3105,13.4517
13144,11.0,-0.005544,-0.000500,-0.309754,-0.004025,0.003808,-0.014196,-4.4155,-1.4559,9.3777,-0.00014885,0.00277039,-0.13020808,0.01283947,0.00148692,-0.01754510,-0.3402,0.7239,-9.9417,0.000259,-0.004851,0.019954,26.4981,16.5023,34.4958,-3.5089,0.3110,105,0,0,-0.009536,0.010955,-0.309819,0.002898,0.097187,-0.006452,1.6950,-3.3283,13.6356
13156,12.0,-0.005613,-0.000467,-0.309408,-0.005120,0.003172,-0.007737,-4.3983,-1.4482,9.4836,-0.00016365,0.00280468,-0.13021116,0.01309531,0.00178965,-0.01969027,-0.3238,0.7198,-9.7535,0.025746,0.009244,0.010734,26.4981,16.5023,34.4958,-3.4878,0.3100,107,0,0,-0.009522,0.011017,-0.309766,0.002453,0.096483,-0.005487,1.7037,-3.3359,13.7441
13167,11.0,-0.005704,-0.000424,-0.309412,-0.005703,0.002860,-0.005552,-4.3750,-1.4348,9.5691,-0.00017129,0.00278862,-0.13021246,0.01314899,0.00177930,-0.02001084,-0.2576,0.7104,-9.6815,0.039165,0.011538,0.004719,26.4981,16.5023,34.4958,-3.4878,0.3100,103,0,0,-0.009646,0.011171,-0.309550,0.000474,0.094760,0.000200,1.6927,-3.3154,13.9261
13178,11.0,-0.005757,-0.000414,-0.309463,-0.005678,0.001880,-0.003719,-4.3659,-1.4248,9.6587,-0.00021181,0.00279451,-0.13021332,0.01313598,0.00218233,-0.01997996,-0.2479,0.6606,-9.6376,0.009162,0.008793,0.007442,26.4981,16.5023,34.4958,-3.4878,0.3100,107,0,0,-0.009725,0.011249,-0.309447,-0.000108,0.093621,0.003205,1.6592,-3.2898,13.9952
13189,11.0,-0.005787,-0.000415,-0.309714,-0.005429,0.000832,-0.004093,-4.3700,-1.4180,9.7432,-0.00020089,0.00281064,-0.13021219,0.01310109,0.00216088,-0.01905567,-0.2502,0.6580,-9.6039,-0.001933,0.005579,0.005648,26.4981,16.5023,34.4958,-3.4878,0.3110,107,0,0,-0.009776,0.011305,-0.309406,-0.000058,0.092852,0.005599,1.6958,-3.2616,13.6252
13200,11.0,-0.005790,-0.000373,-0.309756,-0.005127,-0.000172,-0.003557,-4.3450,-1.4226,9.8270,-0.00029170,0.00286667,-0.13021067,0.01311374,0.00264821,-0.01901993,-0.2844,0.6119,-9.7577,0.025768,-0.005348,-0.005735,26.4981,16.5023,34.4958,-3.4878,0.3110,112,0,0,-0.009837,0.011416,-0.309867,0.000008,0.090412,0.004356,1.6565,-3.2417,13.7917
13211,11.0,-0.005797,-0.000335,-0.309709,-0.004694,-0.000781,-0.003975,-4.3218,-1.4467,9.3909,-0.00029895,0.00289067,-0.12999061,0.01527497,0.00339531,-0.01942508,-0.2775,0.6494,-9.9456,0.026594,-0.005389,-0.009967,26.4981,16.5023,34.4958,-3.4878,0.3110,103,0,0,-0.009842,0.011506,-0.309823,0.000203,0.089136,0.005403,1.6269,-3.2315,13.8532
13223,12.0,-0.005886,-0.000335,-0.309906,-0.005672,-0.000982,-0.007107,-4.3155,-1.4341,9.4747,-0.00030962,0.00290744,-0.12999272,0.01555034,0.00332818,-0.01886196,-0.2978,0.7339,-9.9235,0.010447,0.016068,-0.014481,26.8933,16.1421,32.8412,-3.4878,0.3110,110,0,0,-0.009903,0.011647,-0.310029,-0.000158,0.088268,0.001423,1.6093,-3.2177,13.9963
13234,11.0,-0.006013,-0.000389,-0.309909,-0.006190,-0.000881,-0.005886,-4.3332,-1.4074,9.5547,-0.00029149,0.00287070,-0.12999693,0.01568268,0.00342290,-0.01916882,-0.2015,0.7913,-9.7639,-0.022862,0.030901,-0.005858,26.8933,16.1421,32.8412,-3.4878,0.3110,109,0,0,-0.009992,0.011667,-0.309927,-0.001247,0.088549,0.002622,1.6162,-3.2060,14.0849
13245,11.0,-0.006104,-0.000417,-0.309961,-0.006545,-0.000581,-0.003634,-4.3430,-1.3877,9.6393,-0.00026163,0.00284842,-0.12999773,0.01567266,0.00330096,-0.01917744,-0.2210,0.7802,-9.5902,-0.007211,0.020128,0.008105,26.8933,16.1421,32.8412,-3.4878,0.3110,119,0,0,-0.010101,0.011666,-0.309901,-0.001940,0.088003,0.003725,1.5464,-3.1667,14.1443
13256,11.0,-0.006098,-0.000406,-0.310492,-0.005875,-0.000010,-0.006675,-4.3395,-1.3892,9.7241,-0.00026337,0.00288962,-0.12999357,0.01557474,0.00315148,-0.01713306,-0.2274,0.7658,-9.5393,0.008288,-0.004279,0.009728,26.8933,16.1421,32.8412,-3.4878,0.3120,119,0,0,-0.010199,0.011674,-0.309854,-0.002505,0.088156,0.006343,1.5469,-3.1532,14.2410
