timestamp_ms,dt_ms,pos_x,pos_y,pos_z,vel_x,vel_y,vel_z,roll_deg,pitch_deg,yaw_deg,gyro_bias_x,gyro_bias_y,gyro_bias_z,accel_bias_x,accel_bias_y,accel_bias_z,raw_accel_x,raw_accel_y,raw_accel_z,raw_gyro_x,raw_gyro_y,raw_gyro_z,raw_mag_x,raw_mag_y,raw_mag_z,raw_baro_alt,raw_tof,raw_flow_squal,raw_flow_dx,raw_flow_dy,dev_pos_x,dev_pos_y,dev_pos_z,dev_vel_x,dev_vel_y,dev_vel_z,dev_roll_deg,dev_pitch_deg,dev_yaw_deg
11327,10.0,-0.000460,-0.000050,-0.316938,-0.047630,-0.000541,-0.001187,-0.0058,0.0089,0.0633,0.00000000,0.00000000,-0.13171183,-0.00151348,0.00339971,0.00000000,-0.3293,0.8976,-9.8495,-0.006445,-0.001856,-0.022963,26.1084,16.4875,33.7145,-3.3768,0.3170,111,-1,0,-0.002872,-0.000981,-0.316721,-0.014061,0.003677,0.007945,-2.8117,-2.0271,1.4500
11338,11.0,-0.001041,-0.000563,-0.316951,-0.050500,-0.024921,-0.001319,-2.7413,-0.9230,0.1688,0.00000958,0.00000345,-0.13171184,-0.00149976,0.00373947,0.00000004,-0.3261,0.9189,-9.7298,-0.028913,0.006086,-0.009972,26.1084,16.4875,33.7145,-3.3768,0.3180,101,-1,-1,-0.003321,-0.000975,-0.317053,-0.018827,0.004629,0.002869,-2.8699,-1.9620,1.5617
11349,11.0,-0.001083,-0.001158,-0.315067,-0.035212,-0.031950,0.083339,-2.8614,-1.0746,0.2362,0.00000983,0.00000382,-0.13171178,-0.00206400,0.00411082,-0.00003387,-0.3580,0.8705,-9.6397,-0.023997,0.006939,-0.003052,26.1084,17.5681,34.5420,-3.3768,0.3180,112,0,-1,-0.003775,-0.001461,-0.317024,-0.023041,0.000321,0.003160,-2.9145,-1.9084,1.7345
11361,12.0,-0.001103,-0.001175,-0.317314,-0.025165,-0.022412,-0.011502,-3.2004,-1.6633,0.3048,0.00001483,0.00000930,-0.13171159,-0.00274183,0.00355334,0.00003412,-0.4203,0.7224,-9.8293,0.007949,-0.012069,-0.016042,26.1084,17.5681,34.5420,-3.3768,0.3180,110,0,0,-0.003834,-0.001941,-0.316882,-0.018181,-0.002028,0.005535,-2.9423,-2.0572,1.8337
11372,11.0,-0.001080,-0.001172,-0.317341,-0.020117,-0.015278,-0.010792,-3.0934,-1.7920,0.3341,0.00001428,0.00001002,-0.13171136,-0.00338712,0.00306280,-0.00001650,-0.4606,0.7286,-9.9777,0.019696,-0.009696,-0.032908,26.1084,17.5681,34.5420,-3.3768,0.3170,108,0,0,-0.003822,-0.001921,-0.316562,-0.015564,-0.000619,0.008002,-2.8676,-2.1562,1.8559
11384,12.0,-0.001197,-0.001157,-0.317480,-0.017703,-0.011153,-0.012229,-3.4990,-1.9747,0.3878,0.00002517,0.00001377,-0.13171118,-0.00370839,0.00257266,-0.00003188,-0.4071,0.8599,-9.8787,0.005144,0.014278,-0.031572,26.1084,17.5681,34.5420,-3.3768,0.3170,110,0,0,-0.003848,-0.001880,-0.316387,-0.012438,0.003367,0.005307,-2.6953,-2.2943,1.9222
11395,11.0,-0.001317,-0.001088,-0.316418,-0.014924,-0.005172,0.009322,-3.3781,-1.9930,0.4195,0.00002437,0.00001409,-0.13171102,-0.00392244,0.00208488,-0.00076883,-0.1990,0.8416,-9.7623,0.067762,0.010307,-0.052410,26.1084,17.5681,34.5420,-3.3768,0.3170,113,0,0,-0.003985,-0.001880,-0.316260,-0.012683,0.007283,0.006153,-2.5742,-2.3053,1.9845
11406,11.0,-0.001427,-0.000906,-0.316310,-0.013909,-0.000763,0.010447,-3.8187,-1.9053,0.4584,0.00004699,0.00001028,-0.13171080,-0.00412396,0.00118340,-0.00081185,-0.2501,1.0900,-9.6450,0.097891,0.007603,-0.017675,26.1084,17.5681,34.5420,-3.3768,0.3180,113,0,0,-0.004094,-0.001791,-0.316199,-0.011671,0.009660,0.006465,-2.5186,-2.2934,1.9897
11417,11.0,-0.001453,-0.001322,-0.316083,-0.009808,-0.003536,0.013282,-3.9539,-1.9531,0.5587,0.00005028,0.00001113,-0.13171078,-0.00454066,0.00277791,-0.00088933,-0.1283,1.0616,-9.6446,0.081022,-0.010699,0.018109,26.1084,17.5681,34.5420,-3.3768,0.3180,123,0,-1,-0.004249,-0.001549,-0.316978,-0.008214,0.019488,-0.000150,-2.3468,-2.3150,2.0591
11428,11.0,-0.001415,-0.001261,-0.316685,-0.007284,-0.001725,0.003378,-4.1097,-1.9503,0.6165,0.00006228,0.00000818,-0.13171029,-0.00511803,0.00218704,0.00056604,-0.2646,0.8983,-9.7309,0.030584,-0.013888,0.024484,26.1084,17.5681,34.5420,-3.3768,0.3180,120,0,0,-0.004259,-0.001889,-0.316976,-0.005112,0.017877,0.001077,-2.2820,-2.3574,2.1721
11439,11.0,-0.001826,-0.001736,-0.316598,-0.012678,-0.009214,0.002946,-4.2909,-1.8130,0.8075,0.00006748,0.00000433,-0.13171174,-0.00371187,0.00411503,0.00046336,-0.3313,0.7135,-9.8829,0.015947,-0.020037,0.025388,26.1084,17.5681,34.5420,-3.3768,0.3160,117,-1,-1,-0.004602,-0.002214,-0.316016,-0.007234,0.014770,0.011452,-2.2316,-2.3509,2.4002
11450,11.0,-0.001815,-0.001750,-0.316577,-0.010158,-0.008093,0.000664,-4.2167,-1.8777,0.8630,0.00006273,0.00000680,-0.13171116,-0.00437403,0.00377129,0.00046235,-0.3212,0.6785,-9.9918,0.002366,-0.007032,0.007410,26.8960,17.5756,32.8640,-3.4878,0.3160,121,0,0,-0.004531,-0.002179,-0.315912,-0.004901,0.014572,0.009720,-2.1735,-2.4040,2.4494
11462,12.0,-0.001951,-0.001738,-0.315509,-0.009231,-0.006243,0.011205,-4.1492,-1.8510,0.9370,0.00006091,0.00000659,-0.13171107,-0.00441224,0.00354712,-0.00394651,-0.2268,0.7358,-9.9758,0.026876,0.019610,-0.013498,26.8960,17.5756,32.8640,-3.4878,0.3160,122,0,0,-0.004499,-0.002164,-0.315722,-0.002951,0.015386,0.008905,-2.0715,-2.4507,2.5275
11473,11.0,-0.002100,-0.001673,-0.315392,-0.009606,-0.003923,0.010144,-4.1736,-1.7404,0.9964,0.00007154,-0.00000354,-0.13171098,-0.00433889,0.00268427,-0.00400869,-0.1964,0.8645,-9.8712,0.048422,0.024773,-0.008574,26.8960,17.5756,32.8640,-3.4878,0.3170,124,0,0,-0.004710,-0.002074,-0.316102,-0.002069,0.018910,-0.000283,-1.9018,-2.4295,2.6675
11484,11.0,-0.002177,-0.002097,-0.315167,-0.007744,-0.008603,0.011832,-4.2808,-1.7345,1.1044,0.00007998,-0.00000323,-0.13171141,-0.00443824,0.00463468,-0.00456845,-0.1567,0.8452,-9.7455,0.055094,0.006439,0.006099,26.8960,17.5756,32.8640,-3.4878,0.3170,116,0,-1,-0.004837,-0.001994,-0.316111,-0.002052,0.021039,-0.001096,-1.8579,-2.3922,2.5969
11495,11.0,-0.002155,-0.002493,-0.315589,-0.005546,-0.013138,0.006266,-4.3814,-1.6754,1.1696,0.00009331,-0.00001744,-0.13171107,-0.00515044,0.00578281,-0.00086802,-0.1195,0.8000,-9.6983,0.070976,-0.013174,0.013037,26.8960,17.5756,32.8640,-3.4878,0.3170,116,0,-1,-0.004903,-0.002361,-0.316123,-0.000508,0.018327,-0.001002,-1.7857,-2.4056,2.7100
11506,11.0,-0.002163,-0.002423,-0.315436,-0.003538,-0.009769,0.007962,-4.2670,-1.6938,1.2359,0.00008748,-0.00001606,-0.13171050,-0.00540975,0.00474573,-0.00154372,-0.1744,0.7488,-9.7163,0.072719,-0.012378,0.008139,26.8960,17.5756,32.8640,-3.4878,0.3160,120,0,0,-0.004879,-0.002599,-0.315988,0.003748,0.018352,0.002617,-1.6171,-2.4314,2.8334
11517,11.0,-0.002267,-0.002414,-0.315345,-0.004444,-0.008315,0.008420,-4.1833,-1.6548,1.3356,0.00007625,-0.00001800,-0.13171072,-0.00508838,0.00430354,-0.00158109,-0.2848,0.6499,-9.7458,0.025033,0.018407,0.015268,26.8960,17.5756,32.8640,-3.4878,0.3160,116,0,0,-0.004867,-0.002486,-0.315657,0.004998,0.020717,0.006810,-1.5316,-2.4279,2.8620
11528,11.0,-0.002369,-0.002437,-0.315076,-0.005884,-0.008607,0.010168,-4.1680,-1.6199,1.4179,0.00007368,-0.00001956,-0.13171084,-0.00488712,0.00401878,-0.00312636,-0.3547,0.5896,-9.8208,-0.010014,0.023688,-0.004310,26.8960,17.5756,32.8640,-3.4508,0.3160,119,0,0,-0.005032,-0.002408,-0.315513,0.003445,0.022382,0.007564,-1.3613,-2.4175,3.0425
11539,11.0,-0.002462,-0.002497,-0.314973,-0.006710,-0.008234,0.008416,-4.1812,-1.6415,1.5128,0.00007202,-0.00000613,-0.13171116,-0.00443879,0.00383893,-0.00315037,-0.3993,0.7132,-9.9403,-0.035106,0.022544,-0.012760,27.6863,16.1347,33.6915,-3.4508,0.3160,112,0,0,-0.005122,-0.002411,-0.315502,0.002158,0.022868,0.006519,-1.2730,-2.4186,3.1397
11550,11.0,-0.002638,-0.002554,-0.314804,-0.009177,-0.006291,0.007792,-4.1926,-1.5823,1.6045,0.00007094,-0.00001003,-0.13171177,-0.00397882,0.00376284,-0.00401844,-0.3767,0.8741,-9.9221,-0.026031,0.042488,-0.008533,27.6863,16.1347,33.6915,-3.4508,0.3160,108,0,0,-0.005193,-0.002424,-0.315446,0.000968,0.023223,0.005148,-1.2641,-2.4211,3.2021
11561,11.0,-0.002857,-0.002524,-0.314881,-0.011035,-0.003732,0.005925,-4.2382,-1.5297,1.6929,0.00009755,-0.00001126,-0.13171233,-0.00325274,0.00243844,-0.00255192,-0.2941,0.9591,-9.7586,0.027199,0.042008,-0.005185,27.6863,16.1347,33.6915,-3.4508,0.3160,115,0,0,-0.005488,-0.002452,-0.315280,-0.002524,0.027465,0.004137,-1.1944,-2.3924,3.3587
11572,11.0,-0.003009,-0.002420,-0.314752,-0.011796,0.000948,0.006500,-4.1440,-1.5077,1.7693,0.00009124,-0.00001250,-0.13171214,-0.00313579,0.00182498,-0.00327740,-0.2888,0.9781,-9.7846,0.100915,0.015383,-0.000815,27.6863,16.1347,33.6915,-3.4508,0.3150,112,0,0,-0.005678,-0.002420,-0.315237,-0.003996,0.031422,0.004595,-1.0819,-2.3823,3.4668
11583,11.0,-0.003165,-0.002278,-0.314691,-0.012349,0.003307,0.004619,-4.0874,-1.5033,1.8546,0.00010318,-0.00000665,-0.13171193,-0.00285818,0.00073172,-0.00336529,-0.3061,0.8317,-9.9457,0.110843,0.013349,0.011162,27.6863,16.1347,33.6915,-3.4508,0.3150,117,0,0,-0.005984,-0.002158,-0.314720,-0.005397,0.038817,0.008083,-0.8580,-2.3752,3.2576
11594,11.0,-0.003465,-0.002211,-0.314299,-0.015176,0.003642,0.009365,-4.0462,-1.4241,1.9782,0.00010115,-0.00001568,-0.13171336,-0.00217088,0.00081189,-0.00683304,-0.2998,0.6856,-9.7203,0.056419,0.055769,0.021600,27.6863,16.1347,33.6915,-3.4297,0.3150,110,0,0,-0.006150,-0.002025,-0.314564,-0.006144,0.040393,0.007969,-0.7906,-2.3645,3.3249
11605,11.0,-0.003780,-0.002612,-0.314183,-0.017148,-0.003217,0.011866,-4.0715,-1.3368,2.1280,0.00010999,-0.00002865,-0.13171653,-0.00149637,0.00335842,-0.00668283,-0.2110,0.5782,-9.5699,0.063140,0.060607,0.005595,27.6863,16.1347,33.6915,-3.4297,0.3160,114,0,-1,-0.006419,-0.001942,-0.314482,-0.008112,0.041501,0.008698,-0.6670,-2.3446,3.4531
11616,11.0,-0.003946,-0.002542,-0.313961,-0.016328,-0.002234,0.015230,-4.0111,-1.3229,2.1943,0.00010309,-0.00002724,-0.13171594,-0.00161981,0.00288847,-0.00752948,-0.1783,0.6302,-9.5759,0.063067,0.021094,-0.006185,27.6863,16.1347,33.6915,-3.4297,0.3160,104,0,0,-0.006904,-0.002631,-0.315121,-0.009307,0.031622,0.004526,-0.5396,-2.2918,3.6637
11627,11.0,-0.004024,-0.002966,-0.314541,-0.013898,-0.007452,0.008837,-4.0769,-1.2860,2.2521,0.00013696,-0.00004847,-0.13171561,-0.00242567,0.00414877,0.00035965,-0.0556,0.7284,-9.5432,0.041561,0.010442,-0.000543,27.6863,16.1347,33.6915,-3.4297,0.3160,107,0,-1,-0.007041,-0.002535,-0.315066,-0.008414,0.033060,0.006936,-0.4632,-2.2791,3.6940
11638,11.0,-0.004072,-0.002943,-0.314376,-0.010769,-0.005772,0.011204,-4.0405,-1.3000,2.3130,0.00012971,-0.00004134,-0.13171430,-0.00290536,0.00370863,-0.00027572,-0.0582,0.7042,-9.6369,0.030221,-0.000872,0.000348,27.6863,16.1347,33.6915,-3.4297,0.3130,101,0,0,-0.007108,-0.002915,-0.314886,-0.005667,0.030248,0.010758,-0.3768,-2.3014,3.7889
11649,11.0,-0.003982,-0.002998,-0.314256,-0.007467,-0.006049,0.010512,-4.0527,-1.3314,2.3658,0.00011933,-0.00003487,-0.13171194,-0.00407176,0.00392696,-0.00022548,-0.1719,0.6360,-9.8520,-0.039017,-0.018494,0.016888,26.5089,15.7521,34.1743,-3.4297,0.3130,107,0,0,-0.007113,-0.002834,-0.313278,0.000019,0.034754,0.027579,-0.2281,-2.3330,3.8694
11660,11.0,-0.003684,-0.003091,-0.312980,-0.002507,-0.008285,0.020286,-4.1111,-1.4301,2.4051,0.00012142,-0.00000350,-0.13170800,-0.00613180,0.00494401,-0.01188694,-0.2845,0.5414,-10.1905,-0.084250,-0.058212,0.019193,26.5089,15.7521,34.1743,-3.4297,0.3130,107,0,0,-0.006996,-0.002842,-0.312930,0.002827,0.034987,0.027942,-0.2209,-2.3599,3.8969
11671,11.0,-0.003383,-0.003183,-0.312794,0.001347,-0.009793,0.013570,-4.1626,-1.5180,2.4502,0.00012182,0.00002636,-0.13170452,-0.00761397,0.00496913,-0.01184527,-0.3433,0.6071,-10.4110,-0.078276,-0.056978,0.010751,26.5089,15.7521,34.1743,-3.5037,0.3150,107,0,0,-0.006732,-0.002890,-0.312666,0.006827,0.034761,0.025010,-0.1765,-2.4362,3.9734
11682,11.0,-0.003807,-0.003236,-0.312579,-0.004830,-0.008178,0.007834,-4.1615,-1.4419,2.5881,0.00011524,-0.00001624,-0.13170923,-0.00575591,0.00473969,-0.01295578,-0.2878,0.8478,-10.4224,-0.010794,-0.007860,-0.007839,26.5089,15.7521,34.1743,-3.5037,0.3150,105,-1,0,-0.006665,-0.003006,-0.313712,0.007144,0.035838,-0.000737,-0.0728,-2.5294,3.8284
11693,11.0,-0.003957,-0.003227,-0.313385,-0.005922,-0.004650,-0.008213,-4.1294,-1.4026,2.6757,0.00010567,-0.00002643,-0.13171011,-0.00515635,0.00376042,-0.00479552,-0.2317,0.9655,-10.3060,0.030891,0.027354,-0.007083,26.5089,15.7521,34.1743,-3.5037,0.3150,105,0,0,-0.006610,-0.003006,-0.313750,0.008040,0.039038,-0.006729,0.0104,-2.5638,3.9112
11704,11.0,-0.004195,-0.003186,-0.313408,-0.007878,-0.001442,-0.009533,-4.0842,-1.3403,2.7893,0.00009592,-0.00004567,-0.13171212,-0.00447495,0.00344927,-0.00561487,-0.1993,0.9152,-9.9827,0.053878,0.043497,0.014915,26.5089,15.7521,34.1743,-3.5037,0.3140,113,0,0,-0.006880,-0.002926,-0.313744,0.005881,0.047599,-0.012957,0.2275,-2.5602,4.1113
11715,11.0,-0.004421,-0.003081,-0.313516,-0.009041,0.001016,-0.009987,-4.0338,-1.2735,2.8776,0.00011025,-0.00008112,-0.13171285,-0.00430932,0.00232853,-0.00570173,-0.1312,0.8215,-9.8231,0.093539,0.034039,0.027550,26.5089,15.7521,34.1743,-3.5037,0.3140,120,0,0,-0.007090,-0.002852,-0.313798,0.004324,0.051617,-0.013452,0.3493,-2.5474,4.2297
11726,11.0,-0.005186,-0.002984,-0.313315,-0.018032,0.001716,-0.006101,-3.9529,-1.1364,3.0731,0.00009606,-0.00015977,-0.13172188,-0.00175434,0.00203170,-0.00863679,-0.2213,0.6473,-9.7729,0.106405,0.047483,0.028785,26.5089,15.7521,34.1743,-3.5037,0.3140,116,-1,0,-0.007988,-0.002607,-0.314071,-0.003935,0.055821,-0.012828,0.5541,-2.4643,4.4339
11737,11.0,-0.005976,-0.002896,-0.313385,-0.026250,0.001859,-0.006747,-3.8646,-1.0232,3.2714,0.00006680,-0.00021776,-0.13173033,0.00083062,0.00196303,-0.00870019,-0.2451,0.5879,-9.8574,0.101518,0.050116,0.031039,26.5089,15.7521,34.1743,-3.5037,0.3140,116,-1,0,-0.008704,-0.002486,-0.313837,-0.011145,0.056257,-0.008702,0.6356,-2.4028,4.5296
11747,10.0,-0.006307,-0.002907,-0.313370,-0.027093,-0.000512,-0.007567,-3.8694,-0.9656,3.3716,0.00006866,-0.00022662,-0.13173135,0.00108340,0.00208305,-0.00955188,-0.1818,0.4638,-10.0035,-0.001950,0.072444,0.031821,26.1084,16.8477,34.1282,-3.4772,0.3140,117,0,0,-0.009001,-0.002375,-0.313931,-0.012165,0.056012,-0.009882,0.7661,-2.3891,4.6470
11758,11.0,-0.006872,-0.003095,-0.313329,-0.030441,-0.004429,-0.004798,-3.9325,-0.8347,3.5217,0.00003647,-0.00026047,-0.13173611,0.00214807,0.00388276,-0.01048487,-0.1559,0.4465,-9.6849,-0.123372,0.139491,0.031497,26.1084,16.8477,34.1282,-3.4772,0.3140,119,0,0,-0.009755,-0.002426,-0.314052,-0.015460,0.052107,-0.010417,0.8303,-2.2865,4.8308
11770,12.0,-0.007431,-0.003304,-0.313288,-0.032228,-0.008213,0.000317,-4.0465,-0.7104,3.6423,0.00005468,-0.00028825,-0.13173917,0.00292500,0.00446222,-0.01112826,-0.0767,0.4918,-9.4580,-0.139072,0.131912,0.017776,26.1084,16.8477,34.1282,-3.4772,0.3130,116,0,0,-0.010282,-0.002581,-0.313305,-0.018401,0.048739,0.001043,0.7794,-2.1845,4.8904
11781,11.0,-0.007710,-0.003440,-0.313265,-0.030535,-0.010151,0.004016,-4.1097,-0.6709,3.7236,0.00006046,-0.00027847,-0.13173842,0.00265945,0.00462343,-0.01111319,-0.0537,0.5370,-9.4709,-0.090680,0.066252,0.011287,26.1084,16.8477,34.1282,-3.4772,0.3130,120,0,0,-0.010763,-0.002751,-0.313201,-0.019929,0.046587,0.005586,0.7773,-2.1182,4.9940
11792,11.0,-0.007295,-0.003009,-0.312574,-0.020765,-0.003989,0.013160,-4.0815,-0.7584,3.7329,-0.00001390,-0.00016338,-0.13172701,-0.00033836,0.00306570,-0.01660960,-0.1137,0.6153,-9.6556,-0.049320,0.002560,0.004714,26.1084,16.8477,34.1282,-3.4772,0.3130,115,1,1,-0.010792,-0.002448,-0.312897,-0.011499,0.052167,0.013811,0.8839,-2.1187,4.9043
11803,11.0,-0.007294,-0.002159,-0.312423,-0.017314,0.006627,0.014283,-4.0120,-0.7817,3.7894,-0.00017831,-0.00013632,-0.13172099,-0.00162154,0.00029560,-0.01675503,-0.0745,0.5801,-9.7062,-0.077382,-0.009531,0.014763,26.1084,16.8477,34.1282,-3.4772,0.3140,119,0,2,-0.010807,-0.002023,-0.312753,-0.008936,0.057313,0.015636,0.8961,-2.1303,4.9213
11814,11.0,-0.007342,-0.001245,-0.312144,-0.014844,0.015522,0.018071,-3.9473,-0.7987,3.8529,-0.00030925,-0.00010729,-0.13171664,-0.00230688,-0.00282446,-0.01787562,-0.0813,0.4898,-9.5895,-0.044176,-0.003150,-0.001486,26.1084,16.8477,34.1282,-3.5142,0.3140,119,0,2,-0.010811,-0.001179,-0.313332,-0.005940,0.067421,0.009236,0.9838,-2.1723,5.0040
11825,11.0,-0.007171,-0.001221,-0.312649,-0.010827,0.012910,0.010797,-3.9554,-0.8593,3.9199,-0.00031326,-0.00004794,-0.13171330,-0.00328787,-0.00204979,-0.01193008,-0.1712,0.5687,-9.7099,-0.010086,-0.042354,-0.011565,26.1084,16.8477,34.1282,-3.5142,0.3140,116,0,0,-0.010761,-0.000248,-0.312999,-0.000762,0.073761,0.014930,1.0880,-2.2241,5.0847
11836,11.0,-0.006805,-0.001183,-0.312458,-0.005502,0.009584,0.010012,-3.9776,-0.9583,3.9700,-0.00029305,0.00003178,-0.13170741,-0.00504802,-0.00154920,-0.01257360,-0.2443,0.4958,-9.9721,-0.013745,-0.084112,-0.007429,26.8987,17.5681,33.7145,-3.5142,0.3120,117,0,0,-0.010592,-0.000180,-0.312140,0.002477,0.072009,0.024232,1.0982,-2.2640,5.0916
11847,11.0,-0.006430,-0.001209,-0.312354,-0.000302,0.006902,0.008785,-4.0119,-1.0508,4.0425,-0.00030140,0.00011448,-0.13170290,-0.00641982,-0.00036245,-0.01247292,-0.2118,0.5632,-9.9167,-0.054915,-0.078069,-0.004774,26.8987,17.5681,33.7145,-3.5142,0.3120,117,0,0,-0.009876,-0.000044,-0.311677,0.011746,0.069108,0.022048,1.1727,-2.4316,5.1676
11858,11.0,-0.006111,-0.001254,-0.311591,0.003953,0.004802,0.017081,-4.0688,-1.1157,4.1110,-0.00027606,0.00016917,-0.13169904,-0.00760665,0.00047348,-0.01775686,-0.1677,0.6265,-9.7597,-0.065083,-0.062071,0.004040,26.8987,17.5681,33.7145,-3.5142,0.3120,115,0,0,-0.009511,-0.000028,-0.311331,0.016031,0.068284,0.023022,1.2188,-2.5182,5.2359
11869,11.0,-0.005903,-0.000849,-0.311393,0.006606,0.008990,0.018944,-4.0787,-1.1451,4.1726,-0.00035095,0.00018247,-0.13169464,-0.00858045,-0.00050567,-0.01780265,-0.1268,0.6529,-9.6352,-0.075516,-0.041460,0.008206,26.8987,17.5681,33.7145,-3.5142,0.3140,119,0,1,-0.009196,-0.000019,-0.311101,0.019394,0.067169,0.023772,1.1921,-2.5647,5.2504
11880,11.0,-0.005705,-0.000402,-0.311061,0.008730,0.013608,0.023334,-4.0778,-1.1799,4.2503,-0.00041249,0.00020874,-0.13169119,-0.00908574,-0.00166528,-0.01874672,-0.1415,0.7034,-9.5197,-0.045674,-0.043462,0.011490,26.8987,17.5681,33.7145,-3.5142,0.3140,117,0,1,-0.008801,0.000861,-0.312448,0.023181,0.076631,0.010429,1.2506,-2.6278,5.1165
11891,11.0,-0.005941,0.000045,-0.310982,0.004117,0.017336,0.022562,-4.0659,-1.1871,4.3781,-0.00047268,0.00017009,-0.13169557,-0.00767533,-0.00289541,-0.01739427,-0.2699,0.6966,-9.6713,-0.023831,-0.055099,0.013518,26.8987,17.5681,33.7145,-3.5512,0.3120,113,-1,1,-0.009012,0.001296,-0.312329,0.019467,0.081280,0.013503,1.3293,-2.6672,5.2098
11902,11.0,-0.006188,0.000015,-0.310651,-0.000856,0.013720,0.022025,-4.1048,-1.1812,4.4948,-0.00043475,0.00011272,-0.13170172,-0.00667783,-0.00216676,-0.01810744,-0.3544,0.6257,-9.9543,-0.031143,-0.043453,0.004387,26.8987,17.5681,33.7145,-3.5512,0.3120,112,-1,0,-0.009427,0.001767,-0.311575,0.011826,0.083226,0.019725,1.3952,-2.7292,5.3513
11913,11.0,-0.006185,-0.000033,-0.310420,-0.001758,0.010415,0.019932,-4.1475,-1.1861,4.6188,-0.00042280,0.00015726,-0.13170445,-0.00601695,-0.00105837,-0.01804431,-0.3452,0.6219,-9.9945,-0.054968,0.008727,0.001048,26.8987,17.5681,33.7145,-3.5512,0.3120,112,0,0,-0.009694,0.001770,-0.311273,0.007543,0.080735,0.019610,1.3785,-2.7462,5.4101
11924,11.0,-0.006344,-0.000127,-0.310629,-0.004124,0.007063,0.013315,-4.2142,-1.1363,4.7123,-0.00038412,0.00012698,-0.13170846,-0.00548251,-0.00059597,-0.01479560,-0.2824,0.6451,-9.9566,-0.078511,0.049354,-0.009924,26.8987,17.5681,33.7145,-3.5512,0.3120,112,0,0,-0.009696,0.001760,-0.311086,0.007077,0.079094,0.018143,1.4185,-2.7643,5.5032
11935,11.0,-0.006608,-0.000252,-0.310484,-0.007108,0.004460,0.013005,-4.2849,-1.0704,4.8291,-0.00035257,0.00009667,-0.13171479,-0.00446136,0.00014744,-0.01476185,-0.2413,0.7085,-9.8248,-0.089523,0.073369,-0.003764,26.8987,17.5681,33.7145,-3.5512,0.3140,112,0,0,-0.009800,0.001729,-0.310916,0.005790,0.076796,0.016812,1.3797,-2.7452,5.5522
11946,11.0,-0.006884,-0.000340,-0.310207,-0.009333,0.003091,0.016828,-4.3307,-1.0034,4.9334,-0.00032629,0.00005245,-0.13171983,-0.00380562,0.00061784,-0.01568106,-0.1646,0.7429,-9.5802,-0.054541,0.068834,0.002220,27.6863,17.2154,34.1052,-3.5512,0.3140,117,0,0,-0.010315,0.002031,-0.312478,0.001115,0.079105,-0.000867,1.3675,-2.6644,5.6942
11957,11.0,-0.006993,-0.000365,-0.311682,-0.009133,0.002616,-0.000770,-4.3448,-0.9779,5.0139,-0.00031496,0.00004168,-0.13172001,-0.00367670,0.00000572,-0.00311662,-0.1388,0.7451,-9.6036,-0.015437,0.024114,0.004341,27.6863,17.2154,34.1052,-3.5512,0.3140,113,0,0,-0.010566,0.001985,-0.312345,-0.000268,0.078444,0.003176,1.4056,-2.6402,5.7986
11968,11.0,-0.006963,-0.000322,-0.311593,-0.008260,0.001545,0.001337,-4.3306,-0.9901,5.0921,-0.00031724,0.00007160,-0.13171706,-0.00412723,0.00002155,-0.00382484,-0.2478,0.6227,-9.7020,0.023438,-0.013089,0.012529,27.6863,17.2154,34.1052,-3.5512,0.3120,113,0,0,-0.010733,0.002054,-0.311829,0.001083,0.078077,0.012122,1.4703,-2.6387,5.9300
11979,11.0,-0.006886,-0.000264,-0.311583,-0.006726,0.000237,0.000516,-4.2877,-1.0208,5.1913,-0.00038757,0.00013631,-0.13171446,-0.00433428,0.00085131,-0.00376472,-0.2492,0.5496,-9.8720,0.033887,-0.025877,0.008694,27.6863,17.2154,34.1052,-3.5512,0.3120,112,0,0,-0.010689,0.002150,-0.311606,0.002378,0.077345,0.014454,1.4967,-2.6584,5.9751
11990,11.0,-0.006835,-0.000208,-0.311241,-0.006054,-0.001172,0.002788,-4.2642,-1.0367,5.2589,-0.00040005,0.00016698,-0.13171127,-0.00480571,0.00084335,-0.00631970,-0.2793,0.5554,-9.9617,0.032910,-0.018403,-0.004858,27.6863,17.2154,34.1052,-3.5512,0.3120,116,0,0,-0.010615,0.002250,-0.311463,0.004171,0.077144,0.014308,1.6059,-2.6839,5.7463
12001,11.0,-0.006801,-0.000210,-0.311217,-0.005077,-0.002497,0.001429,-4.2531,-1.0484,5.3463,-0.00045340,0.00020742,-0.13171002,-0.00491600,0.00157187,-0.00626782,-0.2259,0.5802,-9.9216,-0.006501,-0.008392,-0.008856,27.6863,17.2154,34.1052,-3.5512,0.3140,114,0,0,-0.010500,0.002438,-0.312514,0.006377,0.076165,-0.002470,1.7238,-2.7449,5.8773
12012,11.0,-0.006674,-0.000248,-0.311079,-0.003142,-0.003103,0.003245,-4.2800,-1.0707,5.4129,-0.00044775,0.00025154,-0.13170625,-0.00550922,0.00171256,-0.00715249,-0.2121,0.6821,-9.7583,-0.038335,-0.023364,-0.004863,27.6863,17.2154,34.1052,-3.5512,0.3140,112,0,0,-0.010448,0.002487,-0.312544,0.007495,0.075477,-0.003128,1.7266,-2.7563,5.9134
12023,11.0,-0.006427,-0.000248,-0.312150,0.001018,-0.002225,-0.009143,-4.2922,-1.1104,5.4526,-0.00043913,0.00028797,-0.13169838,-0.00666188,0.00098226,0.00084992,-0.0928,0.7702,-9.7243,-0.014201,-0.054436,0.002907,27.6863,17.2154,34.1052,-3.5512,0.3140,116,0,0,-0.010159,0.002542,-0.312461,0.011807,0.076291,0.000088,1.7659,-2.8254,6.0273
12034,11.0,-0.006167,-0.000234,-0.312154,0.004469,-0.000567,-0.007245,-4.2944,-1.1580,5.5222,-0.00044160,0.00034980,-0.13169220,-0.00743025,0.00100733,0.00017533,-0.1356,0.8414,-9.7027,-0.002359,-0.058197,0.014231,25.7079,16.5023,33.2548,-3.5512,0.3130,120,0,0,-0.009921,0.002596,-0.312369,0.015676,0.078334,0.002368,1.8362,-2.8907,6.1107
12045,11.0,-0.005912,-0.000227,-0.312232,0.006728,0.000164,-0.006888,-4.3105,-1.2005,5.6024,-0.00041702,0.00040767,-0.13168682,-0.00797865,0.00072513,0.00016385,-0.2182,0.7988,-9.7428,-0.012333,-0.053638,0.027906,25.7079,16.5023,33.2548,-3.5512,0.3130,116,0,0,-0.009670,0.002673,-0.312342,0.018772,0.080033,0.003826,1.8261,-2.9239,6.1331
12057,12.0,-0.006677,-0.000321,-0.312103,-0.003406,-0.000258,-0.004033,-4.3223,-1.1604,5.8059,-0.00040981,0.00018617,-0.13171034,-0.00547684,0.00086043,-0.00134418,-0.2193,0.8003,-9.7416,-0.010127,-0.039287,0.020847,25.7079,16.5023,33.2548,-3.4931,0.3130,127,-2,0,-0.009199,0.002796,-0.312121,0.022842,0.082891,0.007627,1.8779,-3.0152,6.2716
12068,11.0,-0.006492,-0.000343,-0.312153,-0.001408,0.000159,-0.005142,-4.3535,-1.1976,5.8862,-0.00036826,0.00026938,-0.13170473,-0.00581374,0.00058116,-0.00135893,-0.2681,0.8256,-9.8748,-0.030185,-0.036471,0.020758,25.7079,16.5023,33.2548,-3.4931,0.3140,125,0,0,-0.009896,0.002750,-0.312042,0.013637,0.083350,0.008766,1.9410,-3.0267,6.4229
12080,12.0,-0.006352,-0.000397,-0.312128,-0.000355,-0.000225,-0.006433,-4.3956,-1.2152,5.9768,-0.00034877,0.00031166,-0.13170074,-0.00628542,0.00086765,-0.00205976,-0.2835,0.7918,-9.9866,-0.051832,-0.021803,0.022894,25.7079,16.5023,33.2548,-3.4931,0.3140,124,0,0,-0.009553,0.002796,-0.312822,0.016864,0.084973,-0.000904,1.9581,-3.0761,6.2829
12091,11.0,-0.006257,-0.000406,-0.312650,-0.000003,-0.000232,-0.014142,-4.4110,-1.2352,6.0712,-0.00033036,0.00037668,-0.13169880,-0.00604742,0.00050793,0.00092015,-0.3071,0.7905,-10.0138,-0.014638,-0.017823,0.009659,25.7079,16.5023,33.2548,-3.4931,0.3140,129,0,0,-0.009417,0.002814,-0.312843,0.017524,0.085046,-0.002260,1.9183,-3.0936,6.3397
12102,11.0,-0.006222,-0.000410,-0.312743,0.000279,0.000420,-0.015827,-4.4151,-1.2356,6.1526,-0.00032803,0.00038646,-0.13169777,-0.00615775,0.00057655,0.00038220,-0.2280,0.8383,-10.0095,-0.003149,-0.007086,0.003794,25.7079,16.5023,33.2548,-3.4931,0.3120,127,0,0,-0.009310,0.002853,-0.312741,0.017765,0.086254,-0.002277,1.9782,-3.1300,6.4443
12113,11.0,-0.006308,-0.000427,-0.312921,-0.000749,0.000707,-0.016487,-4.4271,-1.2112,6.2470,-0.00029854,0.00036251,-0.13170071,-0.00587533,0.00029342,0.00035754,-0.2129,0.8202,-9.8335,-0.005376,0.020105,0.004231,25.7079,16.5023,33.2548,-3.4772,0.3120,127,0,0,-0.009256,0.002958,-0.311782,0.017647,0.088679,0.005320,2.0334,-3.1525,6.5994
12125,12.0,-0.006329,-0.000422,-0.311885,-0.001127,0.001613,-0.002077,-4.4240,-1.2009,6.3444,-0.00029702,0.00035818,-0.13170126,-0.00602306,0.00095468,-0.00790645,-0.2251,0.8428,-9.7676,0.007605,0.003091,0.007260,25.7079,16.5023,33.2548,-3.4772,0.3120,130,0,0,-0.009321,0.003004,-0.311734,0.016508,0.089122,0.005392,2.0136,-3.1305,6.6548
12136,11.0,-0.006261,-0.000376,-0.311908,-0.000325,0.002363,-0.002036,-4.4114,-1.2140,6.4189,-0.00028153,0.00038848,-0.13169821,-0.00617339,0.00064513,-0.00792630,-0.2217,0.8058,-9.7788,0.028219,-0.020215,0.005014,25.7079,16.5023,33.2548,-3.4772,0.3140,130,0,0,-0.009352,0.003047,-0.311678,0.015832,0.090540,0.006314,2.0788,-3.1438,6.7678
12147,11.0,-0.006157,-0.000347,-0.311839,0.000488,0.002988,-0.001313,-4.4052,-1.2297,6.4961,-0.00027842,0.00042081,-0.13169448,-0.00648151,0.00073825,-0.00855894,-0.2496,0.8185,-9.8181,0.013399,-0.024798,0.012808,25.7105,15.0541,34.1052,-3.4772,0.3140,120,0,0,-0.009206,0.003242,-0.312614,0.017004,0.092857,-0.002794,2.1555,-3.1863,6.9206
12158,11.0,-0.006097,-0.000348,-0.312484,0.000611,0.002500,-0.009055,-4.4151,-1.2386,6.5949,-0.00026636,0.00046349,-0.13169380,-0.00623902,0.00052497,-0.00440519,-0.2750,0.7531,-9.8221,-0.009003,-0.011231,0.014594,25.7105,15.0541,34.1052,-3.4772,0.3140,117,0,0,-0.009017,0.003400,-0.312563,0.017952,0.094284,-0.000719,2.2092,-3.2332,7.0826
12169,11.0,-0.005996,-0.000385,-0.312515,0.001323,0.002013,-0.008785,-4.4459,-1.2463,6.6796,-0.00024318,0.00049044,-0.13169144,-0.00649108,0.00079569,-0.00486811,-0.2518,0.7886,-9.8341,-0.039322,-0.014745,0.016604,25.7105,15.0541,34.1052,-3.4772,0.3110,118,0,0,-0.008938,0.003454,-0.311200,0.017934,0.093839,0.014806,2.1899,-3.2412,7.1387
12180,11.0,-0.005928,-0.000465,-0.312611,0.001465,0.001389,-0.008597,-4.5015,-1.2474,6.7794,-0.00018659,0.00052533,-0.13169149,-0.00637484,0.00084029,-0.00486448,-0.2637,0.8230,-9.7600,-0.067791,-0.002296,0.018930,25.7105,15.0541,34.1052,-3.4772,0.3110,113,0,0,-0.008841,0.003469,-0.310976,0.018502,0.094250,0.016127,2.2264,-3.2726,7.2531
12191,11.0,-0.005836,-0.000526,-0.311164,0.001554,0.000496,0.010076,-4.5429,-1.2497,6.8714,-0.00016284,0.00054645,-0.13168988,-0.00680193,0.00191632,-0.01483762,-0.2942,0.7722,-9.7231,-0.056752,-0.009191,0.023530,25.7105,15.0541,34.1052,-3.3610,0.3110,117,0,0,-0.008682,0.003448,-0.310580,0.018597,0.093764,0.019251,2.2056,-3.2670,7.0166
12203,12.0,-0.005647,-0.000512,-0.311042,0.003022,0.000140,0.010302,-4.5476,-1.2829,6.9654,-0.00017714,0.00062435,-0.13168451,-0.00700529,0.00214601,-0.01481745,-0.2725,0.7385,-9.7748,-0.008158,-0.038731,0.017764,25.7105,15.0541,34.1052,-3.3610,0.3140,116,0,0,-0.008567,0.003469,-0.312113,0.018826,0.092845,0.001444,2.1481,-3.2749,7.0946
12214,11.0,-0.005475,-0.000446,-0.310881,0.004219,0.000460,0.010344,-4.5262,-1.3119,7.0325,-0.00019350,0.00067193,-0.13167840,-0.00739005,0.00204263,-0.01515181,-0.2708,0.7490,-9.8443,0.032215,-0.042439,0.007207,25.7105,15.0541,34.1052,-3.3610,0.3140,116,0,0,-0.008391,0.003531,-0.312095,0.020016,0.093308,0.002421,2.2027,-3.3224,7.2058
12225,11.0,-0.005448,-0.000424,-0.310868,0.003686,0.000126,0.009385,-4.5142,-1.3132,7.1285,-0.00022238,0.00068819,-0.13167959,-0.00711595,0.00217115,-0.01449820,-0.2732,0.7219,-9.7744,0.013404,-0.007233,-0.000250,25.7105,15.0541,34.1052,-3.3610,0.3120,114,0,0,-0.008092,0.003745,-0.311992,0.021479,0.094513,0.003568,2.2780,-3.3886,7.3699
12236,11.0,-0.005424,-0.000392,-0.310718,0.003282,-0.000939,0.011375,-4.5026,-1.3113,7.2079,-0.00023583,0.00068429,-0.13167951,-0.00708731,0.00207513,-0.01475598,-0.2658,0.6300,-9.6623,0.017702,-0.007178,-0.005209,27.2911,16.4949,33.6915,-3.3610,0.3120,109,0,0,-0.008056,0.003830,-0.311480,0.020762,0.094251,0.009844,2.2732,-3.3866,7.4294
12247,11.0,-0.005757,-0.000428,-0.310588,-0.001337,-0.002428,0.012240,-4.4916,-1.3103,7.3508,-0.00029750,0.00059010,-0.13169393,-0.00585565,0.00259323,-0.01474575,-0.2905,0.6452,-9.7218,0.003068,-0.033155,-0.004925,27.2911,16.4949,33.6915,-3.3610,0.3120,108,-1,0,-0.008396,0.003946,-0.311250,0.015096,0.092884,0.013959,2.3404,-3.3954,7.6149
12258,11.0,-0.005554,-0.000435,-0.311244,0.001377,-0.002980,0.003685,-4.5099,-1.3420,7.4119,-0.00029689,0.00066495,-0.13168600,-0.00629240,0.00220727,-0.00976937,-0.2158,0.6879,-9.7316,-0.026291,-0.040726,0.002930,27.2911,16.4949,33.6915,-3.3610,0.3130,109,0,0,-0.008676,0.003964,-0.311043,0.011509,0.092459,0.016135,2.3999,-3.4254,7.7363
12270,12.0,-0.005373,-0.000482,-0.311198,0.002785,-0.002873,0.003928,-4.5479,-1.3681,7.4973,-0.00027634,0.00074112,-0.13168092,-0.00651190,0.00219593,-0.00976459,-0.2773,0.7991,-9.7634,-0.047509,-0.030040,0.005933,27.2911,16.4949,33.6915,-3.4191,0.3130,112,0,0,-0.008481,0.004025,-0.311652,0.014173,0.092091,0.008916,2.3663,-3.4473,7.7837
12282,12.0,-0.005214,-0.000547,-0.311087,0.003518,-0.002891,0.003135,-4.5929,-1.3824,7.5872,-0.00025943,0.00078472,-0.13167681,-0.00684748,0.00237983,-0.01021516,-0.3019,0.8281,-9.9215,-0.058894,-0.022068,0.016295,27.2911,16.4949,33.6915,-3.4191,0.3130,108,0,0,-0.008155,0.004067,-0.311394,0.017241,0.093459,0.011584,2.3619,-3.4783,7.5500
12294,12.0,-0.005040,-0.000605,-0.310963,0.004380,-0.003216,0.002125,-4.6366,-1.4045,7.6911,-0.00024018,0.00086330,-0.13167332,-0.00687182,0.00247569,-0.01080987,-0.3101,0.8047,-9.9630,-0.055838,-0.025531,0.019643,27.2911,16.4949,33.6915,-3.4191,0.3120,105,0,0,-0.008006,0.004066,-0.311282,0.018184,0.094446,0.011212,2.3825,-3.5157,7.6642
12305,11.0,-0.004887,-0.000602,-0.310894,0.004244,-0.002816,0.001072,-4.6440,-1.4220,7.7706,-0.00024871,0.00090446,-0.13166836,-0.00716190,0.00244878,-0.01115536,-0.3779,0.8219,-9.9372,-0.010433,-0.028963,0.017565,27.2911,16.4949,33.6915,-3.4191,0.3120,114,0,0,-0.007698,0.004105,-0.311013,0.019465,0.095598,0.010556,2.3522,-3.5699,7.8541
12316,11.0,-0.004757,-0.000541,-0.310894,0.004085,-0.002347,-0.001039,-4.6194,-1.4515,7.8695,-0.00028786,0.00100249,-0.13166526,-0.00679147,0.00231000,-0.01117634,-0.3805,0.7708,-9.9772,0.033522,-0.032811,0.009091,27.2911,16.4949,33.6915,-3.4191,0.3120,113,0,0,-0.007561,0.004176,-0.310845,0.019333,0.096013,0.010710,2.3200,-3.5896,7.9296
12327,11.0,-0.004681,-0.000459,-0.311414,0.003633,-0.001480,-0.008142,-4.5813,-1.4639,7.9460,-0.00032655,0.00102144,-0.13166134,-0.00680815,0.00179271,-0.00819543,-0.3406,0.7784,-9.9014,0.055413,-0.025103,0.009410,27.2911,16.4949,33.6915,-3.4191,0.3130,112,0,0,-0.007438,0.004277,-0.310744,0.019050,0.097230,0.009907,2.3897,-3.6302,8.0480
12338,11.0,-0.004661,-0.000396,-0.311506,0.003101,-0.000993,-0.008452,-4.5486,-1.4680,8.0395,-0.00036969,0.00104003,-0.13166118,-0.00657164,0.00169736,-0.00821057,-0.2970,0.7513,-9.8136,0.045414,-0.011679,0.006536,27.6808,16.5098,34.4727,-3.3821,0.3130,115,0,0,-0.007276,0.004537,-0.311474,0.018511,0.099565,0.000597,2.4717,-3.6784,8.2439
12349,11.0,-0.005159,-0.000445,-0.311543,-0.003043,-0.002168,-0.008115,-4.5399,-1.4338,8.1884,-0.00038266,0.00084232,-0.13168225,-0.00530188,0.00158240,-0.00860457,-0.2839,0.7135,-9.8210,0.015753,-0.000267,0.007810,27.6808,16.5098,34.4727,-3.3821,0.3130,115,-1,0,-0.007246,0.004660,-0.311471,0.018032,0.099908,0.001221,2.4704,-3.6775,8.3162
12360,11.0,-0.005194,-0.000463,-0.311246,-0.003725,-0.003387,-0.004576,-4.5401,-1.4282,8.2990,-0.00044160,0.00088966,-0.13168441,-0.00495581,0.00228666,-0.01089248,-0.3425,0.6624,-9.8859,-0.012235,0.009767,0.006083,27.6808,16.5098,34.4727,-3.3821,0.3120,117,0,0,-0.007693,0.004757,-0.311368,0.012099,0.099022,0.002680,2.5121,-3.6724,8.5443
12371,11.0,-0.005767,-0.000609,-0.311257,-0.010232,-0.005752,-0.004756,-4.5741,-1.3764,8.4464,-0.00042980,0.00068526,-0.13170645,-0.00368097,0.00234210,-0.01118704,-0.3178,0.6819,-9.8579,-0.047321,0.027540,0.008020,27.6808,16.5098,34.4727,-3.3821,0.3120,122,-1,0,-0.008161,0.004723,-0.311156,0.006327,0.097807,0.004647,2.5495,-3.6669,8.6930
12382,11.0,-0.005911,-0.000678,-0.311313,-0.010863,-0.006344,-0.005441,-4.5936,-1.3491,8.5437,-0.00045257,0.00069631,-0.13170879,-0.00340470,0.00255665,-0.01117792,-0.2781,0.7395,-9.8522,-0.033930,0.035946,0.002407,27.6808,16.5098,34.4727,-3.3821,0.3120,125,0,0,-0.008671,0.004656,-0.311065,0.000767,0.095620,0.005345,2.4941,-3.6292,8.7961
12393,11.0,-0.006065,-0.000226,-0.311086,-0.011654,-0.000739,-0.001994,-4.5783,-1.3348,8.5926,-0.00065500,0.00071033,-0.13169800,-0.00345888,0.00131909,-0.01296790,-0.2783,0.7703,-9.7791,-0.012396,0.017596,0.005663,27.6808,16.5098,34.4727,-3.3821,0.3120,123,0,1,-0.008909,0.004655,-0.310882,0.000857,0.095132,0.007220,2.4946,-3.5661,8.5544
12404,11.0,-0.006114,-0.000224,-0.311106,-0.010836,-0.001193,-0.001757,-4.5726,-1.3297,8.6750,-0.00068392,0.00075267,-0.13169536,-0.00356482,0.00159951,-0.01294481,-0.2488,0.7247,-9.7717,0.004271,0.006923,0.002356,27.6808,16.5098,34.4727,-3.3821,0.3120,122,0,0,-0.009051,0.005123,-0.310975,0.000511,0.100947,0.006530,2.5544,-3.5740,8.6595
12415,11.0,-0.006142,-0.000204,-0.311026,-0.009873,-0.001771,-0.000343,-4.5634,-1.3280,8.7453,-0.00069388,0.00079010,-0.13169104,-0.00380597,0.00158633,-0.01352782,-0.2500,0.6918,-9.7750,0.014846,0.000693,-0.001669,27.6808,16.5098,34.4727,-3.4931,0.3120,122,0,0,-0.009117,0.005247,-0.310729,0.002388,0.100562,0.009872,2.5729,-3.5804,8.8336
12426,11.0,-0.006127,-0.000152,-0.309890,-0.009116,-0.002002,0.012876,-4.5331,-1.3421,8.8266,-0.00075898,0.00088303,-0.13168707,-0.00397366,0.00237769,-0.02006263,-0.3126,0.6869,-9.8092,0.035296,-0.012104,-0.011817,27.6808,16.5098,34.4727,-3.4931,0.3100,123,0,0,-0.009125,0.005335,-0.310633,0.003426,0.100007,0.010914,2.5548,-3.5748,8.8909
12437,11.0,-0.006048,-0.000100,-0.309674,-0.007284,-0.002199,0.013687,-4.5146,-1.3621,8.8796,-0.00078020,0.00095907,-0.13167842,-0.00442838,0.00228974,-0.02050475,-0.2664,0.6831,-9.8120,0.027068,-0.025138,-0.014574,28.0787,16.5023,34.4958,-3.4931,0.3100,125,0,0,-0.009103,0.005439,-0.309585,0.004439,0.100536,0.022013,2.6278,-3.6047,8.9862
12448,11.0,-0.005942,-0.000075,-0.309526,-0.005476,-0.002191,0.013156,-4.5077,-1.3860,8.9450,-0.00081264,0.00105794,-0.13167109,-0.00470917,0.00245155,-0.02048704,-0.2769,0.7267,-9.8485,0.005627,-0.026621,-0.013247,28.0787,16.5023,34.4958,-3.4931,0.3100,118,0,0,-0.008948,0.005649,-0.309138,0.007965,0.101123,0.023212,2.6750,-3.6500,9.1285
12459,11.0,-0.005839,-0.000082,-0.309630,-0.003673,-0.002711,0.010365,-4.5208,-1.4022,9.0025,-0.00081233,0.00112576,-0.13166422,-0.00505273,0.00236389,-0.01907091,-0.2547,0.7043,-9.7911,-0.019062,-0.020801,-0.015878,28.0787,16.5023,34.4958,-3.4931,0.3110,116,0,0,-0.008845,0.005735,-0.308787,0.009599,0.100955,0.025047,2.6438,-3.6585,9.1740
12470,11.0,-0.005732,-0.000082,-0.309514,-0.002189,-0.002248,0.010611,-4.5295,-1.4202,9.0635,-0.00080758,0.00119728,-0.13165791,-0.00532386,0.00228319,-0.01907064,-0.2603,0.7896,-9.7716,-0.010703,-0.022819,-0.015551,28.0787,16.5023,34.4958,-3.4931,0.3110,119,0,0,-0.008740,0.005793,-0.309420,0.011290,0.101126,0.016256,2.6748,-3.6920,9.2749
12481,11.0,-0.005551,-0.000057,-0.309308,-0.000445,-0.001215,0.010354,-4.5296,-1.4514,9.1154,-0.00081379,0.00128600,-0.13164827,-0.00583099,0.00230616,-0.01962094,-0.2983,0.8405,-9.9196,0.000529,-0.040810,-0.015275,28.0787,16.5023,34.4958,-3.4931,0.3110,114,0,0,-0.008490,0.005930,-0.308992,0.014284,0.102650,0.019091,2.6960,-3.7005,8.9591
12492,11.0,-0.005824,-0.000612,-0.309051,-0.004059,-0.006167,0.009851,-4.5718,-1.4477,9.2662,-0.00052943,0.00116836,-0.13167328,-0.00490904,0.00292829,-0.02045185,-0.3019,0.9200,-9.9954,-0.010078,-0.026091,-0.001698,28.0787,16.5023,34.4958,-3.4350,0.3100,112,-1,-1,-0.008682,0.005510,-0.308813,0.011646,0.097630,0.018648,2.6305,-3.7014,9.0331
12503,11.0,-0.005831,-0.000653,-0.308894,-0.004227,-0.004516,0.009002,-4.5861,-1.4407,9.3445,-0.00053436,0.00118677,-0.13167095,-0.00501392,0.00292859,-0.02078294,-0.2919,0.9341,-9.9245,-0.020762,0.004984,0.002591,28.0787,16.5023,34.4958,-3.4350,0.3100,112,0,0,-0.008841,0.005104,-0.308666,0.009591,0.096259,0.014880,2.5878,-3.7242,9.2179
12514,11.0,-0.006411,-0.000787,-0.308792,-0.010835,-0.004067,0.009397,-4.6141,-1.3947,9.5003,-0.00045039,0.00098337,-0.13169836,-0.00359322,0.00214873,-0.02087440,-0.2915,0.9408,-9.7470,-0.020837,0.026413,0.005989,28.0787,16.5023,34.4958,-3.4350,0.3100,110,-1,0,-0.008861,0.005116,-0.308442,0.009308,0.098586,0.015987,2.6137,-3.7343,9.3336
12525,11.0,-0.006513,-0.000825,-0.309305,-0.011406,-0.002741,0.002749,-4.6217,-1.3745,9.5950,-0.00044957,0.00099348,-0.13169715,-0.00353982,0.00188977,-0.01748844,-0.2941,0.9172,-9.7305,-0.008614,0.022388,0.026003,28.0787,16.5023,34.4958,-3.4350,0.3110,112,0,0,-0.009379,0.005057,-0.308285,0.003186,0.098831,0.017242,2.5446,-3.6887,9.4309
12537,12.0,-0.006577,-0.000823,-0.309274,-0.011137,-0.002628,0.002350,-4.6147,-1.3696,9.7079,-0.00046638,0.00106198,-0.13169385,-0.00344342,0.00188242,-0.01749216,-0.2970,0.7776,-9.8259,0.010690,0.007034,0.033577,27.2911,17.2154,33.2778,-3.4350,0.3110,114,0,0,-0.009537,0.005121,-0.309142,0.002528,0.101255,0.008149,2.5157,-3.6706,9.6467
12548,11.0,-0.006654,-0.000808,-0.309175,-0.011131,-0.003367,0.002639,-4.6035,-1.3580,9.7967,-0.00048499,0.00108597,-0.13169022,-0.00356893,0.00181834,-0.01792770,-0.3073,0.6868,-9.8580,0.017872,0.011373,0.025080,27.2911,17.2154,33.2778,-3.4350,0.3110,106,0,0,-0.009577,0.005183,-0.309059,0.002863,0.102022,0.008888,2.5584,-3.6848,9.7784
12559,11.0,-0.006804,-0.000794,-0.307925,-0.011626,-0.004462,0.016745,-4.5733,-1.3375,9.9057,-0.00059975,0.00110643,-0.13169254,-0.00350414,0.00296200,-0.02443173,-0.2854,0.6216,-9.8166,0.026916,0.025751,0.013592,27.2911,17.2154,33.2778,-3.4350,0.3080,105,0,0,-0.009723,0.005334,-0.308780,0.002816,0.100999,0.010734,2.5800,-3.6759,9.9864
12570,11.0,-0.006918,-0.000781,-0.307694,-0.011554,-0.005271,0.017930,-4.5579,-1.3215,9.9797,-0.00062940,0.00111761,-0.13169006,-0.00355644,0.00281698,-0.02468119,-0.2645,0.6392,-9.7505,0.021938,0.018349,-0.002460,27.2911,17.2154,33.2778,-3.3821,0.3080,107,0,0,-0.009855,0.005410,-0.307636,0.002428,0.099874,0.022672,2.5681,-3.6466,10.0562
12581,11.0,-0.006925,-0.000787,-0.307497,-0.010408,-0.006323,0.017925,-4.5490,-1.3252,10.0671,-0.00073445,0.00120350,-0.13168567,-0.00364133,0.00348238,-0.02463169,-0.2796,0.6170,-9.8134,-0.005445,-0.000268,0.001271,27.2911,17.2154,33.2778,-3.3821,0.3080,106,0,0,-0.009956,0.005479,-0.307356,0.002476,0.099634,0.024651,2.6190,-3.6495,10.1667
12592,11.0,-0.006865,-0.000788,-0.307074,-0.008504,-0.006510,0.019897,-4.5532,-1.3381,10.1234,-0.00075440,0.00128546,-0.13167627,-0.00407911,0.00348975,-0.02584169,-0.2528,0.6962,-9.8713,-0.008169,-0.014805,-0.011267,27.2911,17.2154,33.2778,-3.3821,0.3080,105,0,0,-0.009940,0.005595,-0.306782,0.004924,0.098353,0.026688,2.6373,-3.6309,9.9293
12603,11.0,-0.006822,-0.000807,-0.306861,-0.007173,-0.005632,0.018876,-4.5659,-1.3470,10.1824,-0.00074325,0.00136122,-0.13166898,-0.00429545,0.00322923,-0.02585698,-0.2504,0.8240,-9.8916,-0.015117,-0.008782,-0.015059,27.2911,17.2154,33.2778,-3.3821,0.3110,112,0,0,-0.009878,0.005658,-0.308679,0.006440,0.098044,0.003631,2.5800,-3.6259,9.9855
12613,10.0,-0.006839,-0.000857,-0.306617,-0.006944,-0.004376,0.019876,-4.5849,-1.3389,10.2510,-0.00073891,0.00138624,-0.13166638,-0.00442570,0.00328227,-0.02614247,-0.2513,0.9113,-9.7561,-0.030304,0.009821,-0.000959,27.2911,17.2154,33.2778,-3.3821,0.3110,112,0,0,-0.009829,0.005700,-0.308645,0.007586,0.099428,0.003689,2.6073,-3.6481,10.0793
12624,11.0,-0.006899,-0.000880,-0.308296,-0.007196,-0.002483,-0.000439,-4.5984,-1.3284,10.3278,-0.00066005,0.00140925,-0.13166359,-0.00407501,0.00169151,-0.01621657,-0.2454,0.9456,-9.6021,-0.001114,0.012107,0.008564,27.6890,16.8477,32.8869,-3.3610,0.3110,111,0,0,-0.009860,0.005740,-0.308494,0.007424,0.102096,0.007438,2.5567,-3.6377,10.2445
12636,12.0,-0.006412,-0.000769,-0.308256,-0.001620,0.000764,0.001393,-4.5818,-1.3570,10.3537,-0.00067346,0.00167862,-0.13163044,-0.00532069,0.00171256,-0.01638950,-0.2757,0.9379,-9.6633,0.023795,-0.010205,0.016183,27.6890,16.8477,32.8869,-3.3610,0.3080,105,1,0,-0.009894,0.005792,-0.307594,0.007146,0.103277,0.019310,2.5022,-3.6167,10.3025
12647,11.0,-0.006328,-0.000720,-0.308242,-0.001307,0.001562,0.001206,-4.5704,-1.3762,10.4516,-0.00065192,0.00177492,-0.13162532,-0.00519833,0.00139920,-0.01641696,-0.3170,0.8377,-9.8031,0.026463,-0.024004,0.028343,27.6890,16.8477,32.8869,-3.3610,0.3080,109,0,0,-0.009395,0.006054,-0.307168,0.012147,0.106975,0.023539,2.5075,-3.6515,10.4642
12658,11.0,-0.006283,-0.000692,-0.309133,-0.001719,0.001491,-0.009484,-4.5640,-1.3803,10.5440,-0.00065219,0.00180699,-0.13162141,-0.00520768,0.00101894,-0.01177412,-0.3471,0.7841,-9.8025,0.013434,-0.011987,0.028553,27.6890,16.8477,32.8869,-3.3610,0.3110,122,0,0,-0.009310,0.006157,-0.306871,0.012351,0.107971,0.025164,2.5514,-3.6815,10.5868
12669,11.0,-0.006285,-0.000664,-0.309240,-0.002073,0.000726,-0.009899,-4.5493,-1.3817,10.6576,-0.00069920,0.00186136,-0.13162251,-0.00494060,0.00132080,-0.01175888,-0.3156,0.7040,-9.8301,0.017132,-0.002976,0.024809,27.6890,16.8477,32.8869,-3.3610,0.3110,122,0,0,-0.009257,0.006251,-0.308678,0.011985,0.107333,0.003375,2.4949,-3.6786,10.6783
12680,11.0,-0.006313,-0.000638,-0.309304,-0.002805,-0.000169,-0.009920,-4.5376,-1.3742,10.7469,-0.00071059,0.00186265,-0.13162185,-0.00494978,0.00128348,-0.01201682,-0.3267,0.6914,-9.8479,0.019507,0.002525,0.013059,27.6890,16.8477,32.8869,-3.3610,0.3110,120,0,0,-0.009250,0.006425,-0.308562,0.010970,0.105937,0.004956,2.5218,-3.6512,10.4432
12691,11.0,-0.006338,-0.000612,-0.308070,-0.003369,-0.000824,0.004250,-4.5198,-1.3739,10.8477,-0.00076481,0.00191721,-0.13162370,-0.00481028,0.00209416,-0.01883446,-0.3261,0.7033,-9.9363,0.020267,0.001575,0.000069,27.6890,16.8477,32.8869,-3.3610,0.3080,127,0,0,-0.009278,0.006514,-0.308515,0.010202,0.105510,0.005109,2.5659,-3.6606,10.5601
12702,11.0,-0.006325,-0.000642,-0.307995,-0.003230,-0.001170,0.003093,-4.5382,-1.3698,10.9284,-0.00075104,0.00194009,-0.13162172,-0.00492224,0.00218588,-0.01901616,-0.2859,0.7830,-9.9395,-0.024850,0.001415,0.002860,27.6890,16.8477,32.8869,-3.3610,0.3080,130,0,0,-0.009287,0.006653,-0.307472,0.009500,0.104831,0.013693,2.5592,-3.6606,10.7382
12713,11.0,-0.006339,-0.000707,-0.307960,-0.002939,-0.001536,0.003316,-4.5725,-1.3569,11.0192,-0.00071631,0.00194431,-0.13162203,-0.00496183,0.00225300,-0.01900897,-0.2300,0.7964,-9.7740,-0.046292,0.011526,0.013321,27.6890,16.8477,32.8869,-3.3081,0.3080,120,0,0,-0.009269,0.006682,-0.307315,0.009646,0.104289,0.013776,2.4848,-3.6440,10.8064
12724,11.0,-0.006342,-0.000715,-0.308451,-0.002285,-0.001447,-0.001639,-4.5772,-1.3521,11.1066,-0.00071821,0.00195934,-0.13162021,-0.00494221,0.00202535,-0.01634479,-0.2042,0.7679,-9.6805,-0.005011,0.000467,0.013365,28.8717,17.2154,33.6915,-3.3081,0.3100,126,0,0,-0.009275,0.006687,-0.307174,0.009835,0.104190,0.015189,2.4835,-3.6491,10.9259
12735,11.0,-0.006323,-0.000668,-0.308469,-0.001697,-0.001587,-0.001534,-4.5508,-1.3569,11.1902,-0.00079203,0.00199169,-0.13161725,-0.00501888,0.00226569,-0.01632656,-0.2433,0.6968,-9.7896,0.030834,-0.011211,0.002699,28.8717,17.2154,33.6915,-3.3081,0.3100,126,0,0,-0.009268,0.006807,-0.308202,0.010424,0.103510,0.005552,2.4477,-3.6395,11.1114
12746,11.0,-0.006335,-0.000655,-0.308458,-0.001690,-0.001787,-0.001279,-4.5441,-1.3518,11.2738,-0.00080710,0.00199757,-0.13161601,-0.00504440,0.00220368,-0.01647553,-0.2535,0.7316,-9.8037,0.010907,0.000202,0.005216,28.8717,17.2154,33.6915,-3.3081,0.3100,120,0,0,-0.009683,0.006824,-0.308149,0.005739,0.101831,0.006469,2.4173,-3.6100,11.1915
12757,11.0,-0.006366,-0.000668,-0.307095,-0.001825,-0.002212,0.014965,-4.5444,-1.3416,11.3659,-0.00084117,0.00199950,-0.13161767,-0.00515947,0.00295957,-0.02322610,-0.2464,0.7259,-9.7793,-0.004941,0.007527,0.003390,28.8717,17.2154,33.6915,-3.3081,0.3070,116,0,0,-0.009692,0.006895,-0.308048,0.006165,0.102041,0.007739,2.4510,-3.6220,11.2960
12768,11.0,-0.006310,-0.000659,-0.306911,-0.001203,-0.002577,0.014866,-4.5467,-1.3477,11.4437,-0.00085177,0.00203921,-0.13161290,-0.00533052,0.00292514,-0.02333331,-0.2707,0.7176,-9.8361,-0.002865,-0.012433,0.005079,28.8717,17.2154,33.6915,-3.3081,0.3070,116,0,0,-0.009720,0.006998,-0.306660,0.006921,0.101137,0.021678,2.4258,-3.6110,11.4569
12779,11.0,-0.006209,-0.000608,-0.306755,0.000277,-0.002185,0.013471,-4.5275,-1.3661,11.5160,-0.00090228,0.00209829,-0.13160536,-0.00560937,0.00297033,-0.02332506,-0.2292,0.7367,-9.9306,0.024091,-0.028667,0.001580,28.8717,17.2154,33.6915,-3.3081,0.3070,112,0,0,-0.009662,0.007073,-0.306419,0.007809,0.100590,0.022421,2.3774,-3.6054,11.5141
12790,11.0,-0.006110,-0.000537,-0.307313,0.001373,-0.001588,0.003170,-4.5008,-1.3855,11.5852,-0.00094122,0.00215348,-0.13159788,-0.00573609,0.00252985,-0.01997029,-0.2501,0.7491,-10.0032,0.039034,-0.030258,-0.002134,28.8717,17.2154,33.6915,-3.3980,0.3090,118,0,0,-0.009569,0.007170,-0.306198,0.009510,0.101449,0.022366,2.4394,-3.6014,11.1364
12801,11.0,-0.006065,-0.000493,-0.307292,0.001475,-0.000604,0.000764,-4.4857,-1.3941,11.6687,-0.00093331,0.00219078,-0.13159482,-0.00568768,0.00213531,-0.02000249,-0.2673,0.8266,-10.0114,0.029501,-0.015791,0.006922,28.8717,17.2154,33.6915,-3.3980,0.3090,111,0,0,-0.009395,0.007402,-0.307150,0.011665,0.103059,0.006635,2.4480,-3.6275,11.2872
12812,11.0,-0.006066,-0.000477,-0.307231,0.000880,0.000012,-0.000198,-4.4775,-1.3887,11.7622,-0.00094415,0.00218513,-0.13159506,-0.00567013,0.00210614,-0.02030911,-0.2786,0.8242,-9.9465,0.014294,-0.001771,0.016266,28.8717,17.2154,33.6915,-3.3980,0.3090,113,0,0,-0.009355,0.007503,-0.307096,0.011789,0.103518,0.005467,2.4069,-3.6179,11.3456
12823,11.0,-0.006093,-0.000471,-0.307094,-0.000092,0.000201,0.000043,-4.4750,-1.3826,11.8684,-0.00092835,0.00220709,-0.13159813,-0.00535603,0.00194402,-0.02103986,-0.3025,0.8032,-9.9283,0.010440,0.004790,0.018407,28.8717,17.2154,33.6915,-3.3980,0.3080,109,0,0,-0.009341,0.007582,-0.306969,0.011605,0.104601,0.005823,2.4395,-3.6299,11.4533
12834,11.0,-0.006082,-0.000924,-0.307051,-0.000167,-0.005380,-0.000098,-4.4796,-1.3633,11.9819,-0.00070674,0.00217097,-0.13161078,-0.00527664,0.00298532,-0.02118730,-0.2731,0.7273,-9.8650,0.026063,0.015046,0.012013,26.8906,16.5098,32.4047,-3.3980,0.3080,109,0,-1,-0.009397,0.007713,-0.306954,0.009768,0.104348,0.004810,2.4093,-3.6112,11.6408
12845,11.0,-0.006205,-0.000923,-0.307053,-0.002024,-0.004865,-0.000256,-4.4618,-1.3425,12.0898,-0.00074661,0.00215665,-0.13161686,-0.00480346,0.00275427,-0.02121731,-0.2951,0.7662,-9.8117,0.025878,0.023179,0.013078,26.8906,16.5098,32.4047,-3.3980,0.3080,106,0,0,-0.009378,0.007358,-0.306912,0.009708,0.098600,0.005068,2.3495,-3.5836,11.7184
12856,11.0,-0.006361,-0.000941,-0.308057,-0.003618,-0.004488,-0.011304,-4.4504,-1.3111,12.1912,-0.00077912,0.00209591,-0.13162245,-0.00442497,0.00222024,-0.01649670,-0.2432,0.7608,-9.7383,0.016640,0.031661,0.016992,26.8906,16.5098,32.4047,-3.4561,0.3100,106,0,0,-0.009470,0.007426,-0.306861,0.008210,0.099248,0.005762,2.3882,-3.5779,11.8311
12867,11.0,-0.006482,-0.000942,-0.308178,-0.005348,-0.004251,-0.010720,-4.4352,-1.2944,12.3042,-0.00081677,0.00212020,-0.13162786,-0.00390890,0.00209223,-0.01651999,-0.3195,0.7484,-9.7401,0.021551,0.022627,0.016230,26.8906,16.5098,32.4047,-3.4561,0.3100,109,0,0,-0.009730,0.007531,-0.308223,0.004741,0.099375,-0.005903,2.3697,-3.5255,12.0241
12878,11.0,-0.006438,-0.001429,-0.308217,-0.005042,-0.009709,-0.010525,-4.4551,-1.2804,12.4143,-0.00059225,0.00212939,-0.13163617,-0.00402336,0.00315514,-0.01683233,-0.3162,0.7287,-9.8680,0.001597,0.012933,0.017879,26.8906,16.5098,32.4047,-3.4561,0.3100,105,0,-1,-0.009843,0.007592,-0.308196,0.003139,0.098893,-0.003436,2.3276,-3.4957,12.0999
12889,11.0,-0.006554,-0.001511,-0.307599,-0.006683,-0.009710,-0.002351,-4.4773,-1.2588,12.5278,-0.00061219,0.00217097,-0.13164179,-0.00357098,0.00332846,-0.02028132,-0.3303,0.7621,-9.8301,-0.035221,0.033211,0.014695,26.8906,16.5098,32.4047,-3.4561,0.3080,105,0,0,-0.009871,0.007234,-0.308269,0.002567,0.093833,-0.002680,2.2920,-3.4425,11.8405
12900,11.0,-0.006718,-0.001589,-0.307555,-0.008275,-0.009351,-0.000443,-4.4917,-1.2236,12.6216,-0.00063497,0.00213113,-0.13164534,-0.00341543,0.00323892,-0.02059754,-0.2713,0.7770,-9.6919,-0.023401,0.041143,0.011689,26.8906,16.5098,32.4047,-3.4561,0.3080,107,0,0,-0.009984,0.007213,-0.307531,0.001025,0.093984,0.006303,2.2920,-3.4286,11.9538
12911,11.0,-0.006784,-0.001610,-0.307554,-0.008683,-0.007518,0.000669,-4.4939,-1.2163,12.7039,-0.00060964,0.00218296,-0.13164178,-0.00326601,0.00261425,-0.02064983,-0.2598,0.8725,-9.6878,0.006101,0.012209,0.006973,26.8906,16.5098,32.4047,-3.4561,0.3080,107,0,0,-0.010230,0.007214,-0.307285,-0.001178,0.094136,0.011245,2.2307,-3.3800,12.1386
12922,11.0,-0.006322,-0.001488,-0.308277,-0.003102,-0.004508,-0.006458,-4.4783,-1.2410,12.7302,-0.00064967,0.00247932,-0.13160458,-0.00430032,0.00224214,-0.01724386,-0.2524,0.8424,-9.6562,0.020907,-0.003838,0.012667,26.8906,16.5098,32.4047,-3.4561,0.3100,116,1,0,-0.009845,0.007359,-0.307170,0.003562,0.096135,0.013298,2.1742,-3.3787,12.1864
12933,11.0,-0.006423,-0.001016,-0.308344,-0.004440,0.001470,-0.005712,-4.4582,-1.2437,12.8078,-0.00089311,0.00253658,-0.13159245,-0.00407047,0.00090050,-0.01735796,-0.2727,0.7965,-9.7236,0.002767,-0.002439,0.018307,27.2884,17.2228,34.0821,-3.5089,0.3100,116,0,1,-0.009942,0.007866,-0.308365,0.002374,0.102595,0.001466,2.2169,-3.3882,12.2910
12945,12.0,-0.006386,-0.000996,-0.308302,-0.004294,0.000434,-0.003464,-4.4592,-1.2487,12.9028,-0.00088718,0.00258420,-0.13158710,-0.00427153,0.00097877,-0.01784088,-0.3108,0.6817,-9.7166,0.001623,-0.010058,0.018805,27.2884,17.2228,34.0821,-3.5089,0.3100,118,0,0,-0.010011,0.008445,-0.308212,0.001609,0.106362,0.005813,2.1950,-3.3888,12.4693
12956,11.0,-0.006325,-0.000969,-0.308146,-0.003491,-0.000376,0.000259,-4.4492,-1.2620,13.0028,-0.00095225,0.00267755,-0.13158390,-0.00429947,0.00150947,-0.01864488,-0.2791,0.6532,-9.6599,0.005564,-0.015591,0.015902,27.2884,17.2228,34.0821,-3.5089,0.3090,113,0,0,-0.009974,0.008526,-0.308143,0.001993,0.104449,0.007524,2.1417,-3.3855,12.5468
12967,11.0,-0.006255,-0.000926,-0.308056,-0.002556,-0.000681,0.002656,-4.4384,-1.2752,13.0775,-0.00096585,0.00273681,-0.13157664,-0.00454018,0.00149096,-0.01901265,-0.2611,0.6800,-9.6703,0.017050,-0.020217,0.003649,27.2884,17.2228,34.0821,-3.5089,0.3090,122,0,0,-0.009855,0.008709,-0.307955,0.003937,0.101959,0.012002,2.1152,-3.4026,12.7223
12978,11.0,-0.006171,-0.000877,-0.308025,-0.001793,-0.001169,0.002932,-4.4191,-1.2952,13.1735,-0.00104246,0.00284383,-0.13157263,-0.00451924,0.00183848,-0.01898922,-0.2970,0.6566,-9.7783,0.019166,-0.023278,0.008807,27.2884,17.2228,34.0821,-3.5089,0.3090,122,0,0,-0.009786,0.008807,-0.307705,0.004927,0.101509,0.015564,2.1417,-3.4256,12.8218
12990,12.0,-0.006018,-0.000848,-0.308486,-0.000014,-0.001687,-0.003491,-4.4252,-1.3207,13.2610,-0.00104772,0.00293636,-0.13156235,-0.00481587,0.00166191,-0.01680298,-0.2608,0.6792,-9.8645,-0.007351,-0.033363,0.015314,27.2884,17.2228,34.0821,-3.5089,0.3100,120,0,0,-0.009706,0.008913,-0.307552,0.005841,0.100368,0.016690,2.1243,-3.3994,12.4467
13001,11.0,-0.005900,-0.000846,-0.308530,0.001069,-0.002644,-0.004451,-4.4327,-1.3381,13.3612,-0.00111066,0.00303119,-0.13155901,-0.00487358,0.00212747,-0.01676818,-0.2849,0.6508,-9.8895,-0.021904,-0.021760,0.015843,27.2884,17.2228,34.0821,-3.5089,0.3100,122,0,0,-0.009430,0.009073,-0.308437,0.008884,0.098638,0.005198,2.0689,-3.4357,12.6183
13012,11.0,-0.005797,-0.000820,-0.308453,0.001794,-0.003218,-0.005142,-4.4327,-1.3519,13.4425,-0.00113067,0.00308311,-0.13155276,-0.00509071,0.00209713,-0.01740149,-0.2916,0.6718,-10.0144,-0.000531,-0.022451,0.009770,27.2884,17.2228,34.0821,-3.6041,0.3100,121,0,0,-0.009315,0.009133,-0.308388,0.009832,0.097842,0.005139,2.0711,-3.4590,12.7217
13023,11.0,-0.005765,-0.000839,-0.308773,0.000928,-0.003952,-0.009995,-4.4420,-1.3577,13.5524,-0.00117101,0.00317221,-0.13155636,-0.00461620,0.00217734,-0.01629068,-0.3647,0.7067,-9.9717,-0.019390,-0.001546,0.007105,27.2884,17.2228,34.0821,-3.6041,0.3100,120,0,0,-0.009135,0.009277,-0.308794,0.010226,0.096121,-0.002569,2.0259,-3.4753,12.8903
13034,11.0,-0.005812,-0.000870,-0.308780,-0.000567,-0.004629,-0.009323,-4.4504,-1.3416,13.6421,-0.00118522,0.00314823,-0.13155819,-0.00453333,0.00214657,-0.01677827,-0.3384,0.7089,-9.8506,-0.013185,0.014495,0.008669,28.4739,17.2228,34.4958,-3.6041,0.3100,114,0,0,-0.009115,0.009314,-0.308715,0.009195,0.094907,-0.002025,1.9607,-3.4626,12.9634
13045,11.0,-0.005970,-0.000417,-0.308884,-0.003127,0.000168,-0.009583,-4.4301,-1.3368,13.7246,-0.00148267,0.00319957,-0.13155152,-0.00395525,0.00117912,-0.01687034,-0.3442,0.7102,-9.8194,-0.007141,0.011713,0.001401,28.4739,17.2228,34.4958,-3.6041,0.3100,116,0,1,-0.009149,0.009342,-0.308736,0.007766,0.094397,-0.001718,1.9659,-3.4584,13.0703
13056,11.0,-0.005987,-0.000406,-0.308910,-0.003350,-0.000170,-0.008803,-4.4248,-1.3324,13.8066,-0.00148600,0.00321043,-0.13155022,-0.00400714,0.00119149,-0.01721996,-0.2823,0.7279,-9.8101,0.009496,0.001438,0.001596,28.4739,17.2228,34.4958,-3.6041,0.3100,112,0,0,-0.009417,0.010297,-0.308973,0.003350,0.102395,-0.002421,1.9576,-3.4353,13.2287
13067,11.0,-0.006021,-0.000393,-0.309007,-0.003512,-0.000175,-0.008840,-4.4151,-1.3279,13.8926,-0.00149870,0.00323108,-0.13155064,-0.00391367,0.00119267,-0.01722257,-0.2563,0.7461,-9.7990,0.015067,0.003774,-0.001301,28.4739,17.2228,34.4958,-3.6041,0.3100,118,0,0,-0.009432,0.010370,-0.308998,0.003150,0.101030,-0.001704,1.9062,-3.4179,13.2958
13078,11.0,-0.006118,-0.000401,-0.308969,-0.004832,-0.000632,-0.007513,-4.4092,-1.3091,13.9742,-0.00150237,0.00320311,-0.13155347,-0.00382644,0.00121422,-0.01783933,-0.3041,0.7382,-9.8248,0.010319,0.019587,-0.006397,28.4739,17.2228,34.4958,-3.6041,0.3100,116,0,0,-0.009458,0.010439,-0.308873,0.003026,0.100694,0.000728,1.9255,-3.4212,13.3960
13089,11.0,-0.006222,-0.000437,-0.309025,-0.005547,-0.001371,-0.007417,-4.4142,-1.2890,14.0677,-0.00151571,0.00319546,-0.13155854,-0.00360975,0.00139500,-0.01794954,-0.2554,0.7190,-9.8188,-0.009474,0.024470,-0.000533,28.4739,17.2228,34.4958,-3.5089,0.3100,116,0,0,-0.009632,0.010535,-0.308855,0.001204,0.098883,0.001862,1.9104,-3.3534,13.0724
13100,11.0,-0.006243,-0.000460,-0.309027,-0.005694,-0.001193,-0.006280,-4.4234,-1.2823,14.1464,-0.00150562,0.00321526,-0.13155684,-0.00369901,0.00146604,-0.01829367,-0.2722,0.7935,-9.7752,-0.011828,0.006612,-0.002905,28.4739,17.2228,34.4958,-3.5089,0.3100,116,0,0,-0.009723,0.010564,-0.309079,0.000616,0.097362,-0.000010,1.8464,-3.3188,13.1386
13111,11.0,-0.006275,-0.000475,-0.309093,-0.005394,-0.000906,-0.005721,-4.4292,-1.2750,14.2291,-0.00148431,0.00323083,-0.13155504,-0.00374666,0.00137288,-0.01829981,-0.2190,0.7851,-9.7436,-0.003947,0.006587,0.005640,28.4739,17.2228,34.4958,-3.5089,0.3100,114,0,0,-0.009756,0.010595,-0.309076,0.000431,0.097120,0.000985,1.8483,-3.3177,13.2350
13122,11.0,-0.006176,-0.000427,-0.309559,-0.004411,0.000374,-0.012058,-4.4172,-1.2959,14.2993,-0.00149260,0.00331915,-0.13154437,-0.00401229,0.00124003,-0.01662469,-0.2829,0.8491,-9.9491,0.019220,-0.027377,0.001832,28.4739,17.2228,34.4958,-3.5089,0.3110,108,0,0,-0.009763,0.010715,-0.308919,0.001454,0.096923,0.003885,1.8035,-3.3080,13.3928
13133,11.0,-0.006099,-0.000416,-0.309701,-0.004040,0.001039,-0.013777,-4.4299,-1.3129,14.3969,-0.00142198,0.00343780,-0.13153937,-0.00388829,0.00087856,-0.01665710,-0.3166,0.8553,-9.9419,-0.005110,-0.016376,0.023223,26.4981,16.5023,34.4958,-3.5089,0.3110,112,0,0,-0.009672,0.010816,-0.309770,0.002524,0.097217,-0.006149,1.7489,-3.3105,13.4517
13144,11.0,-0.006079,-0.000406,-0.309758,-0.004285,0.000293,-0.014154,-4.4316,-1.3139,14.4873,-0.00141476,0.00347300,-0.13153554,-0.00403058,0.00094968,-0.01709817,-0.3402,0.7239,-9.9417,0.000259,-0.004851,0.019954,26.4981,16.5023,34.4958,-3.5089,0.3110,105,0,0,-0.009536,0.010955,-0.309819,0.002898,0.097187,-0.006452,1.6950,-3.3283,13.6356
13156,12.0,-0.006150,-0.000385,-0.309416,-0.005381,-0.000134,-0.007746,-4.4119,-1.3082,14.6030,-0.00144657,0.00352475,-0.13154012,-0.00371952,0.00118322,-0.01923096,-0.3238,0.7198,-9.7535,0.025746,0.009244,0.010734,26.4981,16.5023,34.4958,-3.4878,0.3100,107,0,0,-0.009522,0.011017,-0.309766,0.002453,0.096483,-0.005487,1.7037,-3.3359,13.7441
13167,11.0,-0.006244,-0.000354,-0.309421,-0.005995,-0.000220,-0.005561,-4.3864,-1.2955,14.6885,-0.00146806,0.00351235,-0.13154057,-0.00367781,0.00111465,-0.01955571,-0.2576,0.7104,-9.6815,0.039165,0.011538,0.004719,26.4981,16.5023,34.4958,-3.4878,0.3100,103,0,0,-0.009646,0.011171,-0.309550,0.000474,0.094760,0.000200,1.6927,-3.3154,13.9261
13178,11.0,-0.006298,-0.000351,-0.309472,-0.005920,-0.000940,-0.003729,-4.3752,-1.2877,14.7837,-0.00152216,0.00353547,-0.13154195,-0.00362614,0.00146439,-0.01953105,-0.2479,0.6606,-9.6376,0.009162,0.008793,0.007442,26.4981,16.5023,34.4958,-3.4878,0.3100,107,0,0,-0.009725,0.011249,-0.309447,-0.000108,0.093621,0.003205,1.6592,-3.2898,13.9952
13189,11.0,-0.006327,-0.000357,-0.309726,-0.005624,-0.001734,-0.004137,-4.3773,-1.2816,14.8668,-0.00152249,0.00355533,-0.13153964,-0.00366979,0.00139622,-0.01859818,-0.2502,0.6580,-9.6039,-0.001933,0.005579,0.005648,26.4981,16.5023,34.4958,-3.4878,0.3110,107,0,0,-0.009776,0.011305,-0.309406,-0.000058,0.092852,0.005599,1.6958,-3.2616,13.6252
13200,11.0,-0.006333,-0.000318,-0.309768,-0.005263,-0.002498,-0.003601,-4.3504,-1.2883,14.9576,-0.00162411,0.00362798,-0.13153914,-0.00359992,0.00183548,-0.01856852,-0.2844,0.6119,-9.7577,0.025768,-0.005348,-0.005735,26.4981,16.5023,34.4958,-3.4878,0.3110,112,0,0,-0.009837,0.011416,-0.309867,0.000008,0.090412,0.004356,1.6565,-3.2417,13.7917
13211,11.0,-0.006340,-0.000280,-0.309722,-0.004920,-0.002983,-0.004018,-4.3319,-1.2913,15.0282,-0.00165305,0.00366203,-0.13153416,-0.00373165,0.00175054,-0.01897758,-0.2775,0.6494,-9.9456,0.026594,-0.005389,-0.009967,26.4981,16.5023,34.4958,-3.4878,0.3110,103,0,0,-0.009842,0.011506,-0.309823,0.000203,0.089136,0.005403,1.6269,-3.2315,13.8532
13223,12.0,-0.006430,-0.000292,-0.309921,-0.005903,-0.003108,-0.007169,-4.3237,-1.2810,15.1205,-0.00167273,0.00369799,-0.13153769,-0.00339650,0.00164384,-0.01841207,-0.2978,0.7339,-9.9235,0.010447,0.016068,-0.014481,26.8933,16.1421,32.8412,-3.4878,0.3110,110,0,0,-0.009903,0.011647,-0.310029,-0.000158,0.088268,0.001423,1.6093,-3.2177,13.9963
13234,11.0,-0.006551,-0.000361,-0.309924,-0.006458,-0.002902,-0.005949,-4.3398,-1.2550,15.2034,-0.00166142,0.00366551,-0.13154183,-0.00328977,0.00170696,-0.01872027,-0.2015,0.7913,-9.7639,-0.022862,0.030901,-0.005858,26.8933,16.1421,32.8412,-3.4878,0.3110,109,0,0,-0.009992,0.011667,-0.309927,-0.001247,0.088549,0.002622,1.6162,-3.2060,14.0849
13245,11.0,-0.006639,-0.000398,-0.309977,-0.006845,-0.002491,-0.003699,-4.3480,-1.2378,15.2911,-0.00163838,0.00366187,-0.13154274,-0.00321683,0.00155928,-0.01873303,-0.2210,0.7802,-9.5902,-0.007211,0.020128,0.008105,26.8933,16.1421,32.8412,-3.4878,0.3110,119,0,0,-0.010101,0.011666,-0.309901,-0.001940,0.088003,0.003725,1.5464,-3.1667,14.1443
