timestamp_ms,gyro_x,gyro_y,gyro_z,accel_x,accel_y,accel_z,ctrl_throttle,ctrl_roll,ctrl_pitch,ctrl_yaw
78630,-0.00791773572564125,-0.008687494322657585,0.002884979359805584,-0.3362545073032379,0.02736520580947399,-9.864910125732422,0.0,0.0,0.0,0.0
78633,-0.006331167183816433,-0.009231623262166977,0.0011222123866900802,-0.32740727066993713,0.023755798116326332,-9.857612609863281,0.0,0.0,0.0,0.0
78636,-0.005714016500860453,-0.009443281218409538,0.0023872973397374153,-0.32139837741851807,0.021734172478318214,-9.846150398254395,0.0,0.0,0.0,0.0
78638,-0.005473954137414694,-0.01212664507329464,0.002229137811809778,-0.32224705815315247,0.021655431017279625,-9.859747886657715,0.0,0.0,0.0,0.0
78651,-0.00603083148598671,-0.011219657957553864,0.001517358236014843,-0.3174545466899872,0.01845061592757702,-9.866310119628906,0.0,0.0,0.0,0.0
78651,-0.006897706538438797,-0.009566337801516056,0.002541002817451954,-0.3242524266242981,0.021923456341028214,-9.864718437194824,0.0,0.0,0.0,0.0
78651,-0.0065846494399011135,-0.00827296357601881,0.0035894429311156273,-0.3364884853363037,0.03019001893699169,-9.862772941589355,0.0,0.0,0.0,0.0
78651,-0.006462874822318554,-0.00972063560038805,0.004647527821362019,-0.3465026021003723,0.03587368503212929,-9.86168384552002,0.0,0.0,0.0,0.0
78660,-0.008366281166672707,-0.008983241394162178,0.005709364544600248,-0.3426293432712555,0.025360677391290665,-9.858965873718262,0.0,0.0,0.0,0.0
78660,-0.0078061604872345924,-0.009346664883196354,0.004171628504991531,-0.3372992277145386,0.01736520603299141,-9.873247146606445,0.0,0.0,0.0,0.0
78660,-0.007588281761854887,-0.010138288140296936,0.0035734730772674084,-0.3437959849834442,0.013940522447228432,-9.859121322631836,0.0,0.0,0.0,0.0
78660,-0.00815378874540329,-0.009145702235400677,0.004641315899789333,-0.33479195833206177,0.02571878395974636,-9.853316307067871,0.0,0.0,0.0,0.0
78661,-0.007073245942592621,-0.008109343238174915,0.0018054002430289984,-0.3329095244407654,0.03336934745311737,-9.857439994812012,0.0,0.0,0.0,0.0
78665,-0.0073031894862651825,-0.007055957335978746,0.0020027889404445887,-0.32342660427093506,0.03133299574255943,-9.862910270690918,0.0,0.0,0.0,0.0
78665,-0.00739263417199254,-0.005995948798954487,0.0020795699674636126,-0.3139009475708008,0.013335298746824265,-9.853331565856934,0.0,0.0,0.0,0.0
78667,-0.006777168717235327,-0.005583621561527252,0.0027596945874392986,-0.3075120449066162,0.02537979930639267,-9.843751907348633,0.0,0.0,0.0,0.0
78670,-0.005887504201382399,-0.00672374852001667,0.0010734786046668887,-0.32079076766967773,0.0310723427683115,-9.855243682861328,0.0,0.0,0.0,0.0
78677,-0.006841954309493303,-0.00846775621175766,0.0023683407343924046,-0.3303353190422058,0.033207159489393234,-9.852198600769043,0.0,0.0,0.0,0.0
78678,-0.005262446589767933,-0.009146148338913918,0.00222176406532526,-0.3261990547180176,0.02913501486182213,-9.85576057434082,0.0,0.0,0.0,0.0
78678,-0.006598816253244877,-0.0068090008571743965,0.001514489995315671,-0.3291501998901367,0.030014922842383385,-9.861969947814941,0.0,0.0,0.0,0.0
78688,-0.006468385923653841,-0.007850660011172295,0.001889629289507866,-0.32553529739379883,0.017864903435111046,-9.859126091003418,0.0,0.0,0.0,0.0
78688,-0.005767392460256815,-0.008906107395887375,0.00268581067211926,-0.326671302318573,0.02159539982676506,-9.855426788330078,0.0,0.0,0.0,0.0
78688,-0.00614497484639287,-0.0073658861219882965,0.0029955129139125347,-0.31993257999420166,0.0184169914573431,-9.857568740844727,0.0,0.0,0.0,0.0
78688,-0.004991332534700632,-0.006766763981431723,0.0031159822829067707,-0.32458677887916565,0.00926177017390728,-9.859822273254395,0.0,0.0,0.0,0.0
78692,-0.005192841403186321,-0.008484489284455776,0.002512585138902068,-0.32297930121421814,0.007294652052223682,-9.842120170593262,0.0,0.0,0.0,0.0
78701,-0.006571741309016943,-0.009802915155887604,0.003578389063477516,-0.3262932598590851,0.012514297850430012,-9.841687202453613,0.0,0.0,0.0,0.0
78701,-0.008408628404140472,-0.01031576283276081,0.003342712065204978,-0.33236366510391235,0.022812815383076668,-9.851980209350586,0.0,0.0,0.0,0.0
78701,-0.007822632789611816,-0.009214736521244049,0.0032510373275727034,-0.34103158116340637,0.020152436569333076,-9.85563850402832,0.0,0.0,0.0,0.0
78704,-0.0075946892611682415,-0.008786454796791077,0.003215377451851964,-0.33429718017578125,0.01971593126654625,-9.859794616699219,0.0,0.0,0.0,0.0
78704,-0.006855764891952276,-0.007969601079821587,0.004502022173255682,-0.3326323926448822,0.017364302650094032,-9.834729194641113,0.0,0.0,0.0,0.0
78707,-0.005918076727539301,-0.007651858031749725,0.004352249205112457,-0.34012851119041443,0.019207870587706566,-9.85545825958252,0.0,0.0,0.0,0.0
78708,-0.004903072491288185,-0.007528260815888643,0.004293989855796099,-0.32852351665496826,0.017079738900065422,-9.869175910949707,0.0,0.0,0.0,0.0
78713,-0.0032077357172966003,-0.007480183150619268,0.00427132798358798,-0.32096999883651733,0.02747705578804016,-9.85262680053711,0.0,0.0,0.0,0.0
78713,-0.006449824199080467,-0.007461481727659702,0.003612254746258259,-0.3167392611503601,0.02276487462222576,-9.864428520202637,0.0,0.0,0.0,0.0
78717,-0.0057601723819971085,-0.009404981508851051,0.0053066592663526535,-0.3206910789012909,0.027500584721565247,-9.854182243347168,0.0,0.0,0.0,0.0
78718,-0.005491908174008131,-0.01016097329556942,0.00466524064540863,-0.3313330411911011,0.023831624537706375,-9.856871604919434,0.0,0.0,0.0,0.0
78726,-0.004087041597813368,-0.009804784320294857,0.002464964520186186,-0.3383471667766571,0.024937355890870094,-9.859431266784668,0.0,0.0,0.0,0.0
78726,-0.006791860330849886,-0.008365715853869915,0.0022593492176383734,-0.33595436811447144,0.04030667245388031,-9.851383209228516,0.0,0.0,0.0,0.0
78726,-0.007193734869360924,-0.006505424156785011,0.0028296259697526693,-0.33250701427459717,0.031004302203655243,-9.852143287658691,0.0,0.0,0.0,0.0
78727,-0.007350057829171419,-0.006432057823985815,0.0037017129361629486,-0.3358440101146698,0.02474048174917698,-9.845193862915039,0.0,0.0,0.0,0.0
78737,-0.00676060700789094,-0.00900455191731453,0.003390683326870203,-0.34192731976509094,0.02966069057583809,-9.849730491638184,0.0,0.0,0.0,0.0
78737,-0.006531320046633482,-0.01000521145761013,0.0026194395031780005,-0.33901315927505493,0.039791494607925415,-9.854378700256348,0.0,0.0,0.0,0.0
78737,-0.007742647081613541,-0.007793420925736427,0.0010189214954152703,-0.3342202305793762,0.031769320368766785,-9.85382080078125,0.0,0.0,0.0,0.0
78738,-0.005612802226096392,-0.008233584463596344,0.0029973769560456276,-0.335750013589859,0.017793968319892883,-9.866151809692383,0.0,0.0,0.0,0.0
78745,-0.00738535774871707,-0.009055059403181076,0.003766965586692095,-0.33449968695640564,0.0289306677877903,-9.870950698852539,0.0,0.0,0.0,0.0
78745,-0.00677433842793107,-0.010024858638644218,0.004066323395818472,-0.3348529636859894,0.026739753782749176,-9.87258529663086,0.0,0.0,0.0,0.0
78745,-0.005886403378099203,-0.009101579897105694,0.004182768985629082,-0.3350508213043213,0.032887622714042664,-9.87244701385498,0.0,0.0,0.0,0.0
78754,-0.00684152590110898,-0.0087424386292696,0.005528580397367477,-0.3341080844402313,0.024741757661104202,-9.869208335876465,0.0,0.0,0.0,0.0
78757,-0.007213054224848747,-0.007952479645609856,0.004751564469188452,-0.3283121883869171,0.021232835948467255,-9.86423397064209,0.0,0.0,0.0,0.0
78757,-0.00930834747850895,-0.007645197678357363,0.005099575500935316,-0.3408694863319397,0.02137463353574276,-9.865662574768066,0.0,0.0,0.0,0.0
78761,-0.007522351574152708,-0.008826185949146748,0.004584688227623701,-0.33631351590156555,0.01302548497915268,-9.879105567932129,0.0,0.0,0.0,0.0
78761,-0.007477884646505117,-0.0105860885232687,0.005034663248807192,-0.32322603464126587,0.009402705356478691,-9.8718843460083,0.0,0.0,0.0,0.0
78764,-0.006810329854488373,-0.009970147162675858,0.003909180406481028,-0.33275288343429565,0.014748587273061275,-9.881536483764648,0.0,0.0,0.0,0.0
78764,-0.006550661288201809,-0.008430039510130882,0.002821126952767372,-0.3254460096359253,0.02090352401137352,-9.887996673583984,0.0,0.0,0.0,0.0
78767,-0.005799395963549614,-0.009131477214396,0.004998922813683748,-0.3224070072174072,0.027511613443493843,-9.872650146484375,0.0,0.0,0.0,0.0
78768,-0.0035563914570957422,-0.011355100199580193,0.006496309768408537,-0.3164905905723572,0.02067708782851696,-9.863000869750977,0.0,0.0,0.0,0.0
78770,-0.004634671378880739,-0.010269280523061752,0.0077290283516049385,-0.3237124979496002,0.015795504674315453,-9.868132591247559,0.0,0.0,0.0,0.0
78772,-0.006354621611535549,-0.007245881482958794,0.0036567305214703083,-0.3235432207584381,0.014114905148744583,-9.87205982208252,0.0,0.0,0.0,0.0
78781,-0.005072881933301687,-0.00802060030400753,0.002072669565677643,-0.32344838976860046,0.01844145730137825,-9.872152328491211,0.0,0.0,0.0,0.0
78781,-0.005874820984899998,-0.009622469544410706,0.0034072687849402428,-0.31918099522590637,0.015596900135278702,-9.859561920166016,0.0,0.0,0.0,0.0
78784,-0.006837020628154278,-0.01024557277560234,0.0026258910074830055,-0.32311224937438965,0.0076822396367788315,-9.858831405639648,0.0,0.0,0.0,0.0
78785,-0.007861560210585594,-0.011788466013967991,0.0029722051694989204,-0.33163556456565857,0.019052812829613686,-9.840511322021484,0.0,0.0,0.0,0.0
78785,-0.00630931556224823,-0.010437853634357452,0.003757174126803875,-0.3269273340702057,0.024367889389395714,-9.84289264678955,0.0,0.0,0.0,0.0
78795,-0.005705516319721937,-0.00926222838461399,0.004062514752149582,-0.31902241706848145,0.029452001675963402,-9.85054874420166,0.0,0.0,0.0,0.0
78799,-0.005470647942274809,-0.00880492851138115,0.0022305133752524853,-0.31248772144317627,0.03651389479637146,-9.852729797363281,0.0,0.0,0.0,0.0
78799,-0.005379287526011467,-0.009277303703129292,0.002168151317164302,-0.3214704990386963,0.034147825092077255,-9.84762954711914,0.0,0.0,0.0,0.0
78799,-0.007294523995369673,-0.008810792118310928,0.00604544160887599,-0.3275552988052368,0.03176902234554291,-9.851094245910645,0.0,0.0,0.0,0.0
78799,-0.00738926324993372,-0.010580100119113922,0.004952615592628717,-0.31832054257392883,0.027275942265987396,-9.856195449829102,0.0,0.0,0.0,0.0
78809,-0.008076373487710953,-0.010618075728416443,0.002576749073341489,-0.3215767443180084,0.02686651423573494,-9.849571228027344,0.0,0.0,0.0,0.0
78809,-0.006392874754965305,-0.00998258963227272,0.00360334780998528,-0.32761481404304504,0.0224229097366333,-9.846914291381836,0.0,0.0,0.0,0.0
78809,-0.007038535550236702,-0.009735395200550556,0.003352420637384057,-0.3278360366821289,0.028362620621919632,-9.850693702697754,0.0,0.0,0.0,0.0
78809,-0.006639429833739996,-0.008988982997834682,0.003254813840612769,-0.3353349268436432,0.009564453735947609,-9.859131813049316,0.0,0.0,0.0,0.0
78813,-0.006484183948487043,-0.00804838165640831,0.004517362453043461,-0.3258386254310608,0.01799989491701126,-9.863858222961426,0.0,0.0,0.0,0.0
78813,-0.008374569937586784,-0.008332760073244572,0.0024074423126876354,-0.32789474725723267,0.020617438480257988,-9.857023239135742,0.0,0.0,0.0,0.0
78817,-0.007809384260326624,-0.01039415318518877,0.002887231996282935,-0.3290463984012604,0.02524423599243164,-9.855301856994629,0.0,0.0,0.0,0.0
78818,-0.006939277984201908,-0.009245229884982109,0.0037241207901388407,-0.33285215497016907,0.027835700660943985,-9.841694831848145,0.0,0.0,0.0,0.0
78824,-0.008551593869924545,-0.009448573924601078,0.0020988835021853447,-0.338144451379776,0.02401932142674923,-9.850931167602539,0.0,0.0,0.0,0.0
78824,-0.007878243923187256,-0.009527672082185745,0.002767207333818078,-0.3337336778640747,0.0271496269851923,-9.862425804138184,0.0,0.0,0.0,0.0
78825,-0.007616321090608835,-0.011509213596582413,0.004327691160142422,-0.3323167562484741,0.03522433713078499,-9.866756439208984,0.0,0.0,0.0,0.0
78832,-0.006864179391413927,-0.009678971022367477,0.004934695083647966,-0.3188802897930145,0.021836264058947563,-9.872343063354492,0.0,0.0,0.0,0.0
78835,-0.006571607664227486,-0.007666518446058035,0.004520552232861519,-0.31346169114112854,0.0185518991202116,-9.877578735351562,0.0,0.0,0.0,0.0
78835,-0.005807544104754925,-0.009484737180173397,0.0037091991398483515,-0.31990888714790344,0.02619447186589241,-9.865761756896973,0.0,0.0,0.0,0.0
78838,-0.008111367002129555,-0.008891480974853039,0.0007925631944090128,-0.32668066024780273,0.022046498954296112,-9.871786117553711,0.0,0.0,0.0,0.0
78838,-0.009007519111037254,-0.00801045447587967,0.00030829483876004815,-0.3209913969039917,0.02183036506175995,-9.859356880187988,0.0,0.0,0.0,0.0
78845,-0.006755075883120298,-0.010919039137661457,0.0020706960931420326,-0.3230726718902588,0.026977166533470154,-9.843966484069824,0.0,0.0,0.0,0.0
78845,-0.005228652618825436,-0.009449401870369911,0.004056759178638458,-0.34214910864830017,0.036181312054395676,-9.861685752868652,0.0,0.0,0.0,0.0
78845,-0.0046348972246050835,-0.00822747778147459,0.00417904881760478,-0.3359766900539398,0.03080083429813385,-9.863181114196777,0.0,0.0,0.0,0.0
78854,-0.00635470962151885,-0.009052684530615807,0.002275843406096101,-0.3325195014476776,0.020412234589457512,-9.854537010192871,0.0,0.0,0.0,0.0
78857,-0.006373431999236345,-0.009373676963150501,0.004136558156460524,-0.32426172494888306,0.02829001471400261,-9.870766639709473,0.0,0.0,0.0,0.0
78857,-0.006380714941769838,-0.00949853751808405,0.004210089333355427,-0.3259579837322235,0.024273782968521118,-9.886178016662598,0.0,0.0,0.0,0.0
78857,-0.005733289755880833,-0.009547106921672821,0.004888949915766716,-0.32585448026657104,0.02202429436147213,-9.88532829284668,0.0,0.0,0.0,0.0
78858,-0.007432225625962019,-0.008915741927921772,0.005153016187250614,-0.33633220195770264,0.030246498063206673,-9.872209548950195,0.0,0.0,0.0,0.0
78869,-0.006792569067329168,-0.009970665909349918,0.003955218009650707,-0.34220075607299805,0.025369606912136078,-9.872236251831055,0.0,0.0,0.0,0.0
78869,-0.006543752737343311,-0.011031273752450943,0.002839034888893366,-0.3402198851108551,0.01631663739681244,-9.875411987304688,0.0,0.0,0.0,0.0
78870,-0.007097224704921246,-0.01014331728219986,0.002404856728389859,-0.33594968914985657,0.03547821193933487,-9.869815826416016,0.0,0.0,0.0,0.0
78870,-0.006012001074850559,-0.009797915816307068,0.0028862261679023504,-0.3440936505794525,0.03672845661640167,-9.85825252532959,0.0,0.0,0.0,0.0
78871,-0.006240123882889748,-0.009663560427725315,0.0043739876709878445,-0.3454943895339966,0.029000146314501762,-9.865472793579102,0.0,0.0,0.0,0.0
78873,-0.006328859832137823,-0.008961040526628494,0.0056029618717730045,-0.34627893567085266,0.010975101962685585,-9.88005256652832,0.0,0.0,0.0,0.0
78880,-0.007663893047720194,-0.008687770925462246,0.0028297235257923603,-0.3414505124092102,0.016682857647538185,-9.868200302124023,0.0,0.0,0.0,0.0
78880,-0.006882684305310249,-0.009881989099085331,0.001100718742236495,-0.342960387468338,0.030415479093790054,-9.86156177520752,0.0,0.0,0.0,0.0
78884,-0.00592854805290699,-0.009696263819932938,0.0017286785878241062,-0.3322167992591858,0.030732110142707825,-9.85573673248291,0.0,0.0,0.0,0.0
78884,-0.005557403899729252,-0.008323502726852894,0.0026232032105326653,-0.3367350399494171,0.01932017132639885,-9.858796119689941,0.0,0.0,0.0,0.0
78885,-0.006713550537824631,-0.008439778350293636,0.003621417563408613,-0.3403192460536957,0.008714068681001663,-9.861562728881836,0.0,0.0,0.0,0.0
78889,-0.007163273636251688,-0.008485008031129837,0.0033594495616853237,-0.32652321457862854,0.0090950271114707,-9.859951972961426,0.0,0.0,0.0,0.0
78899,-0.007338209077715874,-0.009152859449386597,0.002607290167361498,-0.3335460424423218,0.026165541261434555,-9.867478370666504,0.0,0.0,0.0,0.0
78899,-0.00545548228546977,-0.009412643499672413,0.002964969724416733,-0.3364259600639343,0.015708867460489273,-9.863265037536621,0.0,0.0,0.0,0.0
78899,-0.006023646332323551,-0.008863436989486217,0.003754359669983387,-0.3253961503505707,0.013012807816267014,-9.860905647277832,0.0,0.0,0.0,0.0
78899,-0.008845685981214046,-0.00930006243288517,0.006012193858623505,-0.3318611979484558,0.014663461595773697,-9.877494812011719,0.0,0.0,0.0,0.0
78902,-0.007992641068994999,-0.008819645270705223,0.004289424512535334,-0.3291608393192291,0.006105849519371986,-9.86150074005127,0.0,0.0,0.0,0.0
78903,-0.0063603040762245655,-0.00863276980817318,0.0049198102205991745,-0.336076945066452,-0.005008688196539879,-9.85254192352295,0.0,0.0,0.0,0.0
78912,-0.005075092427432537,-0.009860594756901264,0.005815278273075819,-0.33889707922935486,0.005623207427561283,-9.838042259216309,0.0,0.0,0.0,0.0
78912,-0.005225422792136669,-0.009037683717906475,0.004863085690885782,-0.3373159170150757,0.01789955049753189,-9.826760292053223,0.0,0.0,0.0,0.0
78916,-0.004633640870451927,-0.0074170674197375774,0.0038424392696470022,-0.3343231678009033,0.018454091623425484,-9.836244583129883,0.0,0.0,0.0,0.0
78916,-0.007654736749827862,-0.008737446740269661,0.004745939746499062,-0.3337005078792572,0.03456825762987137,-9.844717979431152,0.0,0.0,0.0,0.0
78916,-0.010130412876605988,-0.009251054376363754,0.006397903431206942,-0.3344053328037262,0.022522365674376488,-9.84524917602539,0.0,0.0,0.0,0.0
78920,-0.007191864307969809,-0.008800582028925419,0.003789201844483614,-0.3369072377681732,0.019989756867289543,-9.853975296020508,0.0,0.0,0.0,0.0
78934,-0.0066990721970796585,-0.009925871156156063,0.0021241989452391863,-0.327772855758667,0.02173195779323578,-9.864130973815918,0.0,0.0,0.0,0.0
78934,-0.007157641462981701,-0.011013848707079887,0.002777054673060775,-0.3331924080848694,0.014279194176197052,-9.855069160461426,0.0,0.0,0.0,0.0
78934,-0.005385244265198708,-0.008836023509502411,0.0017304894281551242,-0.3309600353240967,0.018533475697040558,-9.863690376281738,0.0,0.0,0.0,0.0
78934,-0.007947099395096302,-0.0073386249132454395,0.0019736497197300196,-0.3307632505893707,0.03039843589067459,-9.876947402954102,0.0,0.0,0.0,0.0
78940,-0.008943621069192886,-0.010007450357079506,0.00466926721855998,-0.33065304160118103,0.02966899238526821,-9.870676040649414,0.0,0.0,0.0,0.0
78940,-0.008030736818909645,-0.009745066054165363,0.0031167888082563877,-0.3337520360946655,0.04506399855017662,-9.864002227783203,0.0,0.0,0.0,0.0
78940,-0.00832589715719223,-0.008992744609713554,0.003163156798109412,-0.3397020399570465,0.04420458897948265,-9.869747161865234,0.0,0.0,0.0,0.0
78940,-0.007140193600207567,-0.011301134712994099,0.00188067730050534,-0.3377667963504791,0.03529466688632965,-9.87191104888916,0.0,0.0,0.0,0.0
78953,-0.008629747666418552,-0.010898547247052193,0.0026823284570127726,-0.3461650013923645,0.03030422516167164,-9.859426498413086,0.0,0.0,0.0,0.0
78953,-0.008558902889490128,-0.012042462825775146,0.005595190450549126,-0.3487616777420044,0.0412055067718029,-9.852434158325195,0.0,0.0,0.0,0.0
78953,-0.007881087251007557,-0.01053665392100811,0.005427732598036528,-0.3460018038749695,0.033614881336688995,-9.8558931350708,0.0,0.0,0.0,0.0
78953,-0.005666653625667095,-0.009300660341978073,0.0034118201583623886,-0.3434024155139923,0.03147051855921745,-9.860990524291992,0.0,0.0,0.0,0.0
78955,-0.006756046786904335,-0.007519361563026905,0.0019774031825363636,-0.33457151055336,0.020787324756383896,-9.863845825195312,0.0,0.0,0.0,0.0
78955,-0.0065295458771288395,-0.006826463621109724,0.001419437350705266,-0.3401610255241394,0.008482249453663826,-9.866497993469238,0.0,0.0,0.0,0.0
78955,-0.0044906665571033955,-0.006556937005370855,0.0025029131211340427,-0.3359167277812958,0.014233041554689407,-9.862715721130371,0.0,0.0,0.0,0.0
78965,-0.004347831942141056,-0.007102353498339653,0.0035746267531067133,-0.32405737042427063,0.017454054206609726,-9.859543800354004,0.0,0.0,0.0,0.0
78969,-0.005592787638306618,-0.008615028113126755,0.003991506993770599,-0.32057565450668335,0.018204569816589355,-9.863035202026367,0.0,0.0,0.0,0.0
78969,-0.006727314088493586,-0.010503951460123062,0.00415366655215621,-0.33232197165489197,0.03232135996222496,-9.85761547088623,0.0,0.0,0.0,0.0
78969,-0.007818885147571564,-0.0092879394069314,0.004867002367973328,-0.3367939293384552,0.026531735435128212,-9.857741355895996,0.0,0.0,0.0,0.0
78969,-0.008243490010499954,-0.009465186856687069,0.0057947370223701,-0.33403080701828003,0.006431832909584045,-9.849382400512695,0.0,0.0,0.0,0.0
78971,-0.007108138408511877,-0.00823361799120903,0.004204837139695883,-0.3303760588169098,0.0014953217469155788,-9.848915100097656,0.0,0.0,0.0,0.0
78975,-0.0066665043123066425,-0.007754556369036436,0.0035863907542079687,-0.32938259840011597,0.006105384323745966,-9.85286808013916,0.0,0.0,0.0,0.0
78975,-0.004543941468000412,-0.009518982842564583,0.003996082581579685,-0.3298797309398651,0.018169617280364037,-9.863510131835938,0.0,0.0,0.0,0.0
78977,-0.005018813069909811,-0.010205317288637161,0.0035051885060966015,-0.3196224570274353,0.019658926874399185,-9.850506782531738,0.0,0.0,0.0,0.0
78987,-0.009105078876018524,-0.009171775542199612,0.0033142382744699717,-0.32546666264533997,0.011010948568582535,-9.855866432189941,0.0,0.0,0.0,0.0
78987,-0.008093541488051414,-0.008769743144512177,0.003239961573854089,-0.3340078592300415,0.004060080274939537,-9.854654312133789,0.0,0.0,0.0,0.0
78987,-0.0037985206581652164,-0.009263616986572742,0.004511584993451834,-0.3272024989128113,0.003327618818730116,-9.850814819335938,0.0,0.0,0.0,0.0
78988,-0.006029372103512287,-0.007504952140152454,0.003055452834814787,-0.32865867018699646,0.01661379262804985,-9.841289520263672,0.0,0.0,0.0,0.0
78993,-0.005596622824668884,-0.008121374994516373,0.003789556212723255,-0.3305278420448303,0.026162508875131607,-9.865453720092773,0.0,0.0,0.0,0.0
78993,-0.005428289994597435,-0.008361154235899448,0.004075110889971256,-0.32630690932273865,0.029403595253825188,-9.873720169067383,0.0,0.0,0.0,0.0
78997,-0.006663327105343342,-0.007804166059941053,0.0028856713324785233,-0.3165677487850189,0.030165353789925575,-9.874135971069336,0.0,0.0,0.0,0.0
78998,-0.007793995551764965,-0.007587505970150232,0.0017727396916598082,-0.32059499621391296,0.025324158370494843,-9.869101524353027,0.0,0.0,0.0,0.0
79002,-0.007583550177514553,-0.007503228727728128,0.002640342339873314,-0.3291720747947693,0.028934037312865257,-9.859960556030273,0.0,0.0,0.0,0.0
79006,-0.010102721862494946,-0.008770962245762348,0.003628084436058998,-0.337136834859848,0.02779521234333515,-9.854840278625488,0.0,0.0,0.0,0.0
79006,-0.00848160870373249,-0.00991434883326292,0.0040123010985553265,-0.3426514267921448,0.022943073883652687,-9.862507820129395,0.0,0.0,0.0,0.0
79009,-0.0072007630951702595,-0.010359108448028564,0.004812013357877731,-0.33204373717308044,0.0191718228161335,-9.885766983032227,0.0,0.0,0.0,0.0
79012,-0.008653308264911175,-0.011832629330456257,0.003822572994977236,-0.32083451747894287,0.019166691228747368,-9.872455596923828,0.0,0.0,0.0,0.0
79021,-0.008568068034946918,-0.009154516272246838,0.004087953828275204,-0.3156098425388336,0.02443167194724083,-9.859731674194336,0.0,0.0,0.0,0.0
79021,-0.007234394550323486,-0.008112771436572075,0.003540924983099103,-0.3274334967136383,0.027380583807826042,-9.8641939163208,0.0,0.0,0.0,0.0
79021,-0.0073658740147948265,-0.010308580473065376,0.0020276233553886414,-0.3351094722747803,0.030085839331150055,-9.869853973388672,0.0,0.0,0.0,0.0
79022,-0.006116501521319151,-0.009862201288342476,0.0020892303436994553,-0.337301641702652,0.026333194226026535,-9.865649223327637,0.0,0.0,0.0,0.0
79023,-0.004329998977482319,-0.00968856643885374,0.002763452474027872,-0.33852946758270264,0.017909914255142212,-9.865401268005371,0.0,0.0,0.0,0.0
79027,-0.004935592878609896,-0.008970767259597778,0.004976488649845123,-0.3350028991699219,0.019513467326760292,-9.863155364990234,0.0,0.0,0.0,0.0
79034,-0.006471675354987383,-0.008691553957760334,0.003236293327063322,-0.32459908723831177,0.020411616191267967,-9.858736991882324,0.0,0.0,0.0,0.0
79037,-0.006418929900974035,-0.007932686246931553,0.0025593843311071396,-0.3272005021572113,0.015646813437342644,-9.867851257324219,0.0,0.0,0.0,0.0
79037,-0.007048670668154955,-0.006987240631133318,0.0009955610148608685,-0.33603253960609436,0.0034959111362695694,-9.865581512451172,0.0,0.0,0.0,0.0
79037,-0.007293629925698042,-0.007919993251562119,0.0010375159326940775,-0.3336043655872345,0.013547339476644993,-9.849559783935547,0.0,0.0,0.0,0.0
79038,-0.006088399328291416,-0.008933077566325665,0.003004609839990735,-0.33435148000717163,0.02023070678114891,-9.870085716247559,0.0,0.0,0.0,0.0
79047,-0.005619583651423454,-0.008026635274291039,0.004420036915689707,-0.327394962310791,0.010277630761265755,-9.871047019958496,0.0,0.0,0.0,0.0
79047,-0.006087479181587696,-0.007023785263299942,0.006921390537172556,-0.3213914632797241,0.020506490021944046,-9.862103462219238,0.0,0.0,0.0,0.0
79047,-0.006269483361393213,-0.007283950224518776,0.004643088206648827,-0.31697532534599304,0.033610664308071136,-9.864469528198242,0.0,0.0,0.0,0.0
79056,-0.005039764568209648,-0.008035408332943916,0.0037568635307252407,-0.32925185561180115,0.0251467302441597,-9.853151321411133,0.0,0.0,0.0,0.0
79063,-0.003911164589226246,-0.008327714167535305,0.0027618780732154846,-0.32980650663375854,0.031995370984077454,-9.85102653503418,0.0,0.0,0.0,0.0
79063,-0.004772672895342112,-0.007791158277541399,0.0036753599997609854,-0.32063502073287964,0.025295577943325043,-9.851943016052246,0.0,0.0,0.0,0.0
79063,-0.005107786040753126,-0.007582446560263634,0.004680948331952095,-0.3260338008403778,0.025757314637303352,-9.859831809997559,0.0,0.0,0.0,0.0
79063,-0.006538656074553728,-0.010102292522788048,0.0031213327310979366,-0.3258969187736511,0.017587363719940186,-9.857929229736328,0.0,0.0,0.0,0.0
79073,-0.005794726312160492,-0.011732731945812702,0.0031649242155253887,-0.3300345540046692,0.024600664153695107,-9.865291595458984,0.0,0.0,0.0,0.0
79073,-0.0061556072905659676,-0.010416174307465553,0.0018813646165654063,-0.3197091817855835,0.03168952092528343,-9.866254806518555,0.0,0.0,0.0,0.0
79073,-0.006946242414414883,-0.009253795258700848,0.002682595746591687,-0.3244616687297821,0.021963559091091156,-9.87100887298584,0.0,0.0,0.0,0.0
79073,-0.007253787014633417,-0.01075242180377245,0.004945036489516497,-0.32185566425323486,0.024944623932242393,-9.872617721557617,0.0,0.0,0.0,0.0
79074,-0.00607290118932724,-0.010685106739401817,0.0038743168115615845,-0.3182889223098755,0.015025033615529537,-9.869304656982422,0.0,0.0,0.0,0.0
79074,-0.005613554734736681,-0.011309179477393627,0.002157307229936123,-0.3120768964290619,0.017897648736834526,-9.855859756469727,0.0,0.0,0.0,0.0
79075,-0.006085134111344814,-0.009601160883903503,0.0027899332344532013,-0.3222939670085907,0.022667311131954193,-9.865185737609863,0.0,0.0,0.0,0.0
79084,-0.006268571130931377,-0.010887541808187962,0.006287305150181055,-0.3143201172351837,0.03166022151708603,-9.86408805847168,0.0,0.0,0.0,0.0
79089,-0.005689667537808418,-0.010087408125400543,0.003746180795133114,-0.32144325971603394,0.03248285874724388,-9.860312461853027,0.0,0.0,0.0,0.0
79089,-0.00611474085599184,-0.009776168502867222,0.004058238584548235,-0.3264864981174469,0.02346147783100605,-9.87610912322998,0.0,0.0,0.0,0.0
79089,-0.006280087865889072,-0.010305359028279781,0.002879108302295208,-0.32931119203567505,0.029997892677783966,-9.876527786254883,0.0,0.0,0.0,0.0
79089,-0.006344405468553305,-0.010511205531656742,0.0017701867036521435,-0.3266790211200714,0.046301789581775665,-9.862011909484863,0.0,0.0,0.0,0.0
79095,-0.007019681856036186,-0.009290761314332485,0.0032896073535084724,-0.3315261900424957,0.037522874772548676,-9.870738983154297,0.0,0.0,0.0,0.0
79095,-0.006632096134126186,-0.008816027082502842,0.004530896432697773,-0.3489910662174225,0.021016530692577362,-9.865091323852539,0.0,0.0,0.0,0.0
79095,-0.00583107303828001,-0.010582136921584606,0.00436348095536232,-0.3429695665836334,0.02757490798830986,-9.86192798614502,0.0,0.0,0.0,0.0
79105,-0.006169745698571205,-0.01061886828392744,0.00429835868999362,-0.3332754969596863,0.030194679275155067,-9.854887962341309,0.0,0.0,0.0,0.0
79109,-0.006301484070718288,-0.008032123558223248,0.004923285450786352,-0.3415422737598419,0.026394154876470566,-9.854105949401855,0.0,0.0,0.0,0.0
79109,-0.0070029860362410545,-0.006375662051141262,0.00386585621163249,-0.3461725115776062,0.02321191318333149,-9.857882499694824,0.0,0.0,0.0,0.0
79109,-0.006625601556152105,-0.007031840272247791,0.0034545324742794037,-0.3371766209602356,0.030911682173609734,-9.851569175720215,0.0,0.0,0.0,0.0
79109,-0.007779321167618036,-0.009237857535481453,0.0032945338170975447,-0.3310844600200653,0.026795746758580208,-9.874372482299805,0.0,0.0,0.0,0.0
79113,-0.009528616443276405,-0.010095964185893536,0.002582038752734661,-0.337154358625412,0.02554398775100708,-9.87450122833252,0.0,0.0,0.0,0.0
79113,-0.006957774981856346,-0.008478980511426926,0.002955147298052907,-0.3205362558364868,0.021682163700461388,-9.86087703704834,0.0,0.0,0.0,0.0
79120,-0.004006982780992985,-0.008500256575644016,0.0024500228464603424,-0.3122820556163788,0.015304874628782272,-9.861675262451172,0.0,0.0,0.0,0.0
79120,-0.005460202693939209,-0.009809048846364021,0.002253537066280842,-0.32346245646476746,0.020161530002951622,-9.861068725585938,0.0,0.0,0.0,0.0
79124,-0.0066757407039403915,-0.009017633274197578,0.0008765910752117634,-0.32234957814216614,0.019721025601029396,-9.863889694213867,0.0,0.0,0.0,0.0
79124,-0.00714856619015336,-0.008709784597158432,0.0016414965502917767,-0.3238334059715271,0.011045729741454124,-9.868630409240723,0.0,0.0,0.0,0.0
79125,-0.007332487963140011,-0.011841326020658016,0.0019390329252928495,-0.31939664483070374,0.016722414642572403,-9.849160194396973,0.0,0.0,0.0,0.0
79136,-0.006103514693677425,-0.01175893098115921,0.00465580215677619,-0.323233038187027,0.020955493673682213,-9.842469215393066,0.0,0.0,0.0,0.0
79145,-0.004324947018176317,-0.009776107035577297,0.003761809319257736,-0.3274889588356018,0.013844296336174011,-9.843989372253418,0.0,0.0,0.0,0.0
79145,-0.005583885591477156,-0.00835456047207117,0.002763801719993353,-0.3267119526863098,0.011968463659286499,-9.84062671661377,0.0,0.0,0.0,0.0
79145,-0.006073593162000179,-0.008451859466731548,0.0030258502811193466,-0.33997318148612976,0.018292808905243874,-9.860868453979492,0.0,0.0,0.0,0.0
79145,-0.005613823886960745,-0.010440480895340443,0.005078556947410107,-0.34845438599586487,0.016567213460803032,-9.86904525756836,0.0,0.0,0.0,0.0
79150,-0.004134465008974075,-0.009913507848978043,0.005226770415902138,-0.34688323736190796,0.024029279127717018,-9.857821464538574,0.0,0.0,0.0,0.0
79150,-0.006160048767924309,-0.008408007211983204,0.005284423008561134,-0.33968183398246765,0.025048062205314636,-9.852588653564453,0.0,0.0,0.0,0.0
79150,-0.004997196141630411,-0.009122907184064388,0.005306849256157875,-0.331434041261673,0.008761541917920113,-9.866515159606934,0.0,0.0,0.0,0.0
79150,-0.0051951222121715546,-0.009400992654263973,0.004015056416392326,-0.31627875566482544,0.02703232690691948,-9.86694049835205,0.0,0.0,0.0,0.0
79162,-0.005922370590269566,-0.009509162977337837,0.002212052932009101,-0.3193795680999756,0.02356935292482376,-9.870339393615723,0.0,0.0,0.0,0.0
79162,-0.004254484549164772,-0.008900981396436691,0.002160970587283373,-0.32427704334259033,0.016361888498067856,-9.865921020507812,0.0,0.0,0.0,0.0
79162,-0.005556476768106222,-0.008014149963855743,0.003441616427153349,-0.324912965297699,0.020753562450408936,-9.865553855895996,0.0,0.0,0.0,0.0
79162,-0.006713189650326967,-0.007669186685234308,0.0032895097974687815,-0.33475130796432495,0.030588332563638687,-9.869562149047852,0.0,0.0,0.0,0.0
79168,-0.005862617399543524,-0.008835517801344395,0.004530858714133501,-0.3381546139717102,0.03715035319328308,-9.858110427856445,0.0,0.0,0.0,0.0
79168,-0.007482531946152449,-0.00863894447684288,0.0037132082507014275,-0.3390072286128998,0.03239716589450836,-9.838000297546387,0.0,0.0,0.0,0.0
79168,-0.0074623953551054,-0.009212737902998924,0.0027448968030512333,-0.3342169225215912,0.03184204921126366,-9.847807884216309,0.0,0.0,0.0,0.0
79168,-0.008104820735752583,-0.009435934945940971,-0.00023279385641217232,-0.32942673563957214,0.037852559238672256,-9.848033905029297,0.0,0.0,0.0,0.0
79170,-0.007704456336796284,-0.008222239091992378,0.0025104789528995752,-0.34044015407562256,0.024361900985240936,-9.85342788696289,0.0,0.0,0.0,0.0
79176,-0.006898462772369385,-0.009700904600322247,0.002927311696112156,-0.3445016145706177,0.03471650183200836,-9.863823890686035,0.0,0.0,0.0,0.0
79176,-0.007885459810495377,-0.01027608197182417,0.0011386791011318564,-0.3330800235271454,0.03840896487236023,-9.850683212280273,0.0,0.0,0.0,0.0
79178,-0.00891964416950941,-0.009849559515714645,0.0043444763869047165,-0.3382720947265625,0.03310211002826691,-9.852805137634277,0.0,0.0,0.0,0.0
79181,-0.008021409623324871,-0.009033391252160072,0.0036407082807272673,-0.3348587453365326,0.03645117208361626,-9.848725318908691,0.0,0.0,0.0,0.0
79182,-0.006371494382619858,-0.007415398024022579,0.0020664373878389597,-0.33189335465431213,0.022523412480950356,-9.849600791931152,0.0,0.0,0.0,0.0
79190,-0.0057297032326459885,-0.007436281535774469,0.0027545862831175327,-0.3333931565284729,0.02631177008152008,-9.857466697692871,0.0,0.0,0.0,0.0
79190,-0.006130313966423273,-0.00874492060393095,0.0030222656205296516,-0.32685819268226624,0.03159433975815773,-9.85660457611084,0.0,0.0,0.0,0.0
79195,-0.007586661726236343,-0.00925396103411913,0.0011756146559491754,-0.32319796085357666,0.027178103104233742,-9.866656303405762,0.0,0.0,0.0,0.0
79195,-0.0068526421673595905,-0.0068509383127093315,0.003708586096763611,-0.3243085741996765,0.02575814351439476,-9.870180130004883,0.0,0.0,0.0,0.0
79198,-0.005266604013741016,-0.007216715253889561,0.005994388833642006,-0.3238770663738251,0.02074854075908661,-9.864778518676758,0.0,0.0,0.0,0.0
79199,-0.005299917887896299,-0.009960029274225235,0.004932757001370192,-0.3352246582508087,0.01794266700744629,-9.86280632019043,0.0,0.0,0.0,0.0
79206,-0.005312876310199499,-0.010376878082752228,0.004519798327237368,-0.3289375901222229,0.021638955920934677,-9.858541488647461,0.0,0.0,0.0,0.0
79206,-0.005317917093634605,-0.008588251657783985,0.006309937685728073,-0.328576922416687,0.023709243163466454,-9.855098724365234,0.0,0.0,0.0,0.0
79206,-0.004669619724154472,-0.009193019941449165,0.006356016267091036,-0.33258917927742004,0.013279527425765991,-9.840527534484863,0.0,0.0,0.0,0.0
79212,-0.004417442250996828,-0.009428265504539013,0.005073424428701401,-0.32008644938468933,0.011652136221528053,-9.851330757141113,0.0,0.0,0.0,0.0
79215,-0.004319348838180304,-0.008219256065785885,0.0045745158568024635,-0.31940510869026184,0.02970491722226143,-9.85527515411377,0.0,0.0,0.0,0.0
79215,-0.004931449890136719,-0.008399227634072304,0.005680964328348637,-0.3190234899520874,0.0208519846200943,-9.853269577026367,0.0,0.0,0.0,0.0
79219,-0.0032187739852815866,-0.009119492024183273,0.006111355498433113,-0.31670260429382324,0.021161319687962532,-9.869003295898438,0.0,0.0,0.0,0.0
79219,-0.00515360152348876,-0.009399663656949997,0.003677738830447197,-0.3238312602043152,0.024495290592312813,-9.860958099365234,0.0,0.0,0.0,0.0
79230,-0.006556477397680283,-0.010158903896808624,0.0007803256157785654,-0.3362525701522827,0.022148361429572105,-9.849077224731445,0.0,0.0,0.0,0.0
79230,-0.006451916415244341,-0.010454237461090088,0.0009537926525808871,-0.3516383171081543,0.027155276387929916,-9.863494873046875,0.0,0.0,0.0,0.0
79230,-0.00706150196492672,-0.009918859228491783,0.00297204265370965,-0.3402380049228668,0.0383882150053978,-9.868409156799316,0.0,0.0,0.0,0.0
79230,-0.006648363545536995,-0.009060347452759743,0.005707884673029184,-0.33385270833969116,0.035197630524635315,-9.862732887268066,0.0,0.0,0.0,0.0
79248,-0.00713791698217392,-0.011327431537210941,0.005471569020301104,-0.32290130853652954,0.020767733454704285,-9.855339050292969,0.0,0.0,0.0,0.0
79248,-0.006027829833328724,-0.012859550304710865,0.004729388281702995,-0.3220352828502655,0.02216770127415657,-9.85752010345459,0.0,0.0,0.0,0.0
79248,-0.0062462808564305305,-0.010854488238692284,0.002489916980266571,-0.3278716504573822,0.020844679325819016,-9.85452651977539,0.0,0.0,0.0,0.0
79248,-0.006331254728138447,-0.008774034678936005,0.0022690552286803722,-0.3311406075954437,0.02115722745656967,-9.852849960327148,0.0,0.0,0.0,0.0
79262,-0.0050637926906347275,-0.008615028113126755,0.0028334015514701605,-0.33191797137260437,0.03397513926029205,-9.845589637756348,0.0,0.0,0.0,0.0
79262,-0.007171801291406155,-0.009853692725300789,0.003052923595532775,-0.32497838139533997,0.03272587060928345,-9.852059364318848,0.0,0.0,0.0,0.0
79262,-0.007991784252226353,-0.012286288663744926,0.0031383142340928316,-0.32109150290489197,0.02465115860104561,-9.865164756774902,0.0,0.0,0.0,0.0
79262,-0.007010228931903839,-0.011281756684184074,0.00187101389747113,-0.32312875986099243,0.02434280514717102,-9.869344711303711,0.0,0.0,0.0,0.0
79267,-0.005327902734279633,-0.010891009122133255,0.002028311602771282,-0.3211091160774231,0.012580813840031624,-9.871685981750488,0.0,0.0,0.0,0.0
79267,-0.005974019877612591,-0.011389272287487984,0.004690529778599739,-0.3284064829349518,0.010207216255366802,-9.86983585357666,0.0,0.0,0.0,0.0
79267,-0.008826381526887417,-0.00963231548666954,0.00572609156370163,-0.3261722922325134,0.021520620211958885,-9.879335403442383,0.0,0.0,0.0,0.0
79267,-0.007334874011576176,-0.008948886767029762,0.004178135190159082,-0.33545663952827454,0.022589392960071564,-9.858317375183105,0.0,0.0,0.0,0.0
79272,-0.00610444275662303,-0.009983559139072895,0.0048765200190246105,-0.34697821736335754,0.026348724961280823,-9.850759506225586,0.0,0.0,0.0,0.0
79272,-0.00692634005099535,-0.010386030189692974,0.004497922956943512,-0.3407886028289795,0.025293610990047455,-9.860221862792969,0.0,0.0,0.0,0.0
79272,-0.005945529323071241,-0.009242069907486439,0.004350654780864716,-0.3299467861652374,0.04155977815389633,-9.865522384643555,0.0,0.0,0.0,0.0
79272,-0.006214267108589411,-0.008146828040480614,0.00299285352230072,-0.32808858156204224,0.03802759200334549,-9.8632230758667,0.0,0.0,0.0,0.0
79280,-0.006318802013993263,-0.008371054194867611,0.0011641738237813115,-0.33231568336486816,0.02445993572473526,-9.864042282104492,0.0,0.0,0.0,0.0
79280,-0.007659980561584234,-0.009108533151447773,0.002403619699180126,-0.3273082673549652,0.031610697507858276,-9.860286712646484,0.0,0.0,0.0,0.0
79280,-0.006230904255062342,-0.01004565879702568,0.0009349709143862128,-0.33293217420578003,0.02718726545572281,-9.86766529083252,0.0,0.0,0.0,0.0
79280,-0.00567501550540328,-0.009759928099811077,0.0029647215269505978,-0.3392428457736969,0.028923990204930305,-9.870744705200195,0.0,0.0,0.0,0.0
79281,-0.00675929943099618,-0.008998525328934193,0.0057050371542572975,-0.3290810286998749,0.023575300350785255,-9.864041328430176,0.0,0.0,0.0,0.0
79283,-0.007181069348007441,-0.007401835639029741,0.005470461677759886,-0.33076441287994385,0.02690093033015728,-9.863447189331055,0.0,0.0,0.0,0.0
79290,-0.00799538940191269,-0.00743100605905056,0.0034284412395209074,-0.3211715519428253,0.027710041031241417,-9.856793403625488,0.0,0.0,0.0,0.0
79290,-0.007011631038039923,-0.008742868900299072,0.0032843847293406725,-0.3210664391517639,0.014466799795627594,-9.863601684570312,0.0,0.0,0.0,0.0
79292,-0.0066289640963077545,-0.009253162890672684,0.0032283489126712084,-0.322061151266098,0.010209985077381134,-9.87162971496582,0.0,0.0,0.0,0.0
79297,-0.006480112671852112,-0.00880140159279108,0.0038568100426346064,-0.3205111622810364,0.01625431515276432,-9.875072479248047,0.0,0.0,0.0,0.0
79297,-0.005771954078227282,-0.009275931864976883,0.004101271741092205,-0.3133215606212616,0.022800453007221222,-9.88753604888916,0.0,0.0,0.0,0.0
79298,-0.006797007285058498,-0.011411290615797043,0.0028958474285900593,-0.3061339557170868,0.02962765283882618,-9.885035514831543,0.0,0.0,0.0,0.0
79309,-0.006545478943735361,-0.011591654270887375,0.0037274721544235945,-0.3179117739200592,0.04082655906677246,-9.861509323120117,0.0,0.0,0.0,0.0
79309,-0.007748154457658529,-0.009711039252579212,0.00405096122995019,-0.32345494627952576,0.04604548588395119,-9.843064308166504,0.0,0.0,0.0,0.0
79309,-0.006265202537178993,-0.009629766456782818,0.004176793619990349,-0.31813108921051025,0.043700747191905975,-9.84748363494873,0.0,0.0,0.0,0.0
79309,-0.006338614970445633,-0.008297636173665524,0.00422574020922184,-0.3162027895450592,0.04660174623131752,-9.863655090332031,0.0,0.0,0.0,0.0
79316,-0.007017429452389479,-0.007779458537697792,0.003594521665945649,-0.31828343868255615,0.032423026859760284,-9.86007022857666,0.0,0.0,0.0,0.0
79316,-0.006631219759583473,-0.006277379579842091,0.0033489875495433807,-0.3194488286972046,0.025535108521580696,-9.865437507629395,0.0,0.0,0.0,0.0
79316,-0.005830732174217701,-0.007643868215382099,0.0039037365932017565,-0.3190479874610901,0.026945047080516815,-9.857908248901367,0.0,0.0,0.0,0.0
79320,-0.0055193547159433365,-0.009475926868617535,0.005420041270554066,-0.32830560207366943,0.031949035823345184,-9.856851577758789,0.0,0.0,0.0,0.0
79329,-0.006048491690307856,-0.009538311511278152,0.004709344357252121,-0.3398122191429138,0.013680342584848404,-9.871009826660156,0.0,0.0,0.0,0.0
79329,-0.006904575973749161,-0.010212835855782032,0.004432894289493561,-0.3283463716506958,0.011876633390784264,-9.869457244873047,0.0,0.0,0.0,0.0
79329,-0.00983861181885004,-0.009824957698583603,0.0036751015577465296,-0.33035293221473694,0.007705663796514273,-9.88017749786377,0.0,0.0,0.0,0.0
79329,-0.010329647921025753,-0.008373563177883625,0.002079815836623311,-0.3304232060909271,0.010637362487614155,-9.884074211120605,0.0,0.0,0.0,0.0
79330,-0.007919621653854847,-0.009759766981005669,0.002109532244503498,-0.32308757305145264,0.019654402509331703,-9.880989074707031,0.0,0.0,0.0,0.0
79332,-0.006982158869504929,-0.01029897853732109,0.0034216076601296663,-0.32740747928619385,0.028919123113155365,-9.871886253356934,0.0,0.0,0.0,0.0
79343,-0.007267758250236511,-0.009858465753495693,0.0032817265018820763,-0.3340413272380829,0.02778685837984085,-9.875215530395508,0.0,0.0,0.0,0.0
79343,-0.006078335922211409,-0.010987629182636738,0.0038775731809437275,-0.32722124457359314,0.03347410634160042,-9.873920440673828,0.0,0.0,0.0,0.0
79347,-0.005615668836981058,-0.012077114544808865,0.002808832097798586,-0.3255084455013275,0.03455238789319992,-9.873194694519043,0.0,0.0,0.0,0.0
79347,-0.0047854408621788025,-0.009249617345631123,0.0017428504070267081,-0.33403125405311584,0.027781331911683083,-9.865413665771484,0.0,0.0,0.0,0.0
79350,-0.006413268856704235,-0.009450281038880348,0.0032789739780128,-0.3282691538333893,0.028203153982758522,-9.86316204071045,0.0,0.0,0.0,0.0
79350,-0.006396210752427578,-0.008878077380359173,0.003226244356483221,-0.3260953724384308,0.02527870237827301,-9.862955093383789,0.0,0.0,0.0,0.0
79356,-0.00638957554474473,-0.009305757470428944,0.003205733373761177,-0.3333064317703247,0.032069288194179535,-9.867053031921387,0.0,0.0,0.0,0.0
79356,-0.005086478311568499,-0.008821859955787659,0.0018972387770190835,-0.33523818850517273,0.02744412049651146,-9.860919952392578,0.0,0.0,0.0,0.0
79356,-0.005880109500139952,-0.009283890016376972,0.0026887706480920315,-0.3331594467163086,0.030121425166726112,-9.851162910461426,0.0,0.0,0.0,0.0
79364,-0.007489336188882589,-0.008813354186713696,0.0016961483052000403,-0.33831655979156494,0.02740669623017311,-9.862555503845215,0.0,0.0,0.0,0.0
79372,-0.00811530090868473,-0.007329806685447693,0.003911065403372049,-0.3359372019767761,0.024832608178257942,-9.859454154968262,0.0,0.0,0.0,0.0
79372,-0.0051075005903840065,-0.007402987685054541,0.004122376441955566,-0.33039024472236633,0.025498004630208015,-9.859824180603027,0.0,0.0,0.0,0.0
79372,-0.003937512636184692,-0.00743145402520895,0.0035543148405849934,-0.3304441273212433,0.029031407088041306,-9.872674942016602,0.0,0.0,0.0,0.0
79372,-0.004782921634614468,-0.008092785254120827,0.0033333476167172194,-0.3273136019706726,0.01836760900914669,-9.871443748474121,0.0,0.0,0.0,0.0
79382,-0.004461514763534069,-0.00835003238171339,0.00259713688865304,-0.32029232382774353,0.023984108120203018,-9.867593765258789,0.0,0.0,0.0,0.0
79382,-0.00563700869679451,-0.00845009833574295,0.0016605041455477476,-0.31846684217453003,0.021862048655748367,-9.863329887390137,0.0,0.0,0.0,0.0
79382,-0.007394773885607719,-0.009789537638425827,0.0032469425350427628,-0.33114081621170044,0.031209195032715797,-9.857780456542969,0.0,0.0,0.0,0.0
79382,-0.006778000853955746,-0.009010042995214462,0.001263010548427701,-0.3255966603755951,0.030123097822070122,-9.8546724319458,0.0,0.0,0.0,0.0
79383,-0.007838602177798748,-0.010007347911596298,0.0017918077064678073,-0.33091995120048523,0.027407633140683174,-9.867681503295898,0.0,0.0,0.0,0.0
79383,-0.008901417255401611,-0.009094768203794956,0.0026477596256881952,-0.3265265226364136,0.031154559925198555,-9.858111381530762,0.0,0.0,0.0,0.0
79385,-0.007364062126725912,-0.008739789016544819,0.0029807116370648146,-0.3356550633907318,0.03746749460697174,-9.863286972045898,0.0,0.0,0.0,0.0
79393,-0.00806657038629055,-0.010552480816841125,0.003110224846750498,-0.32180365920066833,0.03468193858861923,-9.851435661315918,0.0,0.0,0.0,0.0
79395,-0.008339835330843925,-0.00995707418769598,0.003810861613601446,-0.3298490643501282,0.027853893116116524,-9.857439994812012,0.0,0.0,0.0,0.0
79395,-0.006495357491075993,-0.009725470095872879,0.002782882424071431,-0.3396231532096863,0.015600942075252533,-9.865017890930176,0.0,0.0,0.0,0.0
79395,-0.004477367736399174,-0.009635379537940025,0.00173275638371706,-0.32824045419692993,0.022434499114751816,-9.862940788269043,0.0,0.0,0.0,0.0
79399,-0.006943691521883011,-0.008950077928602695,0.002624789485707879,-0.33134716749191284,0.030476253479719162,-9.872312545776367,0.0,0.0,0.0,0.0
79414,-0.007252794690430164,-0.008033248595893383,0.0010210025357082486,-0.34362295269966125,0.03919471800327301,-9.870186805725098,0.0,0.0,0.0,0.0
79414,-0.008023289032280445,-0.010927906259894371,-0.0002531037898734212,-0.334695041179657,0.032488640397787094,-9.875317573547363,0.0,0.0,0.0,0.0
79414,-0.006372225470840931,-0.012704141438007355,0.0025025787763297558,-0.3360159397125244,0.029786143451929092,-9.857120513916016,0.0,0.0,0.0,0.0
79414,-0.0050797294825315475,-0.010794037021696568,0.0029242385644465685,-0.3283272087574005,0.035647474229335785,-9.866945266723633,0.0,0.0,0.0,0.0
79417,-0.004576968494802713,-0.009400778450071812,0.0030882577411830425,-0.32823503017425537,0.025233976542949677,-9.868234634399414,0.0,0.0,0.0,0.0
79417,-0.0037311441265046597,-0.010159337893128395,0.003802316728979349,-0.32186198234558105,0.021508527919650078,-9.843670845031738,0.0,0.0,0.0,0.0
79417,-0.004702647682279348,-0.010454406030476093,0.003429816570132971,-0.31934601068496704,0.012046908028423786,-9.835180282592773,0.0,0.0,0.0,0.0
79424,-0.005080547649413347,-0.008618408814072609,0.002634661737829447,-0.3284725248813629,0.014122461900115013,-9.84938907623291,0.0,0.0,0.0,0.0
79428,-0.0052275448106229305,-0.009204749949276447,0.004276133142411709,-0.34622713923454285,0.018445691093802452,-9.86156177520752,0.0,0.0,0.0,0.0
79428,-0.005934982560575008,-0.010083085857331753,0.004264381714165211,-0.3382607698440552,0.013492129743099213,-9.857844352722168,0.0,0.0,0.0,0.0
79428,-0.005559906829148531,-0.009774487465620041,0.004910068586468697,-0.34012025594711304,0.020199783146381378,-9.849440574645996,0.0,0.0,0.0,0.0
79428,-0.006714523769915104,-0.011605220846831799,0.002560198772698641,-0.3327331840991974,0.033438876271247864,-9.855269432067871,0.0,0.0,0.0,0.0
79433,-0.006513393949717283,-0.01101683173328638,0.0048974258825182915,-0.3370242416858673,0.03874693810939789,-9.859587669372559,0.0,0.0,0.0,0.0
79433,-0.005784899927675724,-0.00753666739910841,0.0064568291418254375,-0.33415982127189636,0.034344982355833054,-9.857791900634766,0.0,0.0,0.0,0.0
79437,-0.00745230121538043,-0.008783970028162003,0.0044623808935284615,-0.3399304449558258,0.033986590802669525,-9.856786727905273,0.0,0.0,0.0,0.0
79438,-0.006800378207117319,-0.008618893101811409,0.0036865712609142065,-0.34105542302131653,0.038000140339136124,-9.855169296264648,0.0,0.0,0.0,0.0
79445,-0.007847306318581104,-0.008554680272936821,0.00208427757024765,-0.344846248626709,0.03392669931054115,-9.855317115783691,0.0,0.0,0.0,0.0
79445,-0.008904803544282913,-0.007229186594486237,0.002111267764121294,-0.34380877017974854,0.03480588272213936,-9.864882469177246,0.0,0.0,0.0,0.0
79445,-0.009316153824329376,-0.006713590119034052,0.0040725404396653175,-0.3263705372810364,0.03424474224448204,-9.870240211486816,0.0,0.0,0.0,0.0
79449,-0.008825904689729214,-0.007163289003074169,0.004835445433855057,-0.32819268107414246,0.03076973371207714,-9.861651420593262,0.0,0.0,0.0,0.0
79454,-0.007334688678383827,-0.008638731203973293,0.004481945652514696,-0.34290969371795654,0.026716241613030434,-9.85157299041748,0.0,0.0,0.0,0.0
79455,-0.005454112775623798,-0.0072618811391294,0.005644955672323704,-0.3332419693470001,0.02023160085082054,-9.845928192138672,0.0,0.0,0.0,0.0
79464,-0.0053728558123111725,-0.008026824332773685,0.004796832799911499,-0.3278270661830902,0.022920984774827957,-9.858570098876953,0.0,0.0,0.0,0.0
79464,-0.005991505924612284,-0.008974633179605007,0.0031664101406931877,-0.33532989025115967,0.02864159271121025,-9.860383033752441,0.0,0.0,0.0,0.0
79469,-0.005581893492490053,-0.009343315847218037,0.001881942618638277,-0.33005011081695557,0.028684984892606735,-9.859291076660156,0.0,0.0,0.0,0.0
79472,-0.006723076570779085,-0.008186211809515953,0.003983336500823498,-0.33236074447631836,0.03503071516752243,-9.846036911010742,0.0,0.0,0.0,0.0
79472,-0.0052162050269544125,-0.00773611618205905,0.005451004486531019,-0.3241727948188782,0.0238349586725235,-9.838613510131836,0.0,0.0,0.0,0.0
79472,-0.005930571351200342,-0.007561035919934511,0.00407113041728735,-0.31853315234184265,0.03652850538492203,-9.830240249633789,0.0,0.0,0.0,0.0
79477,-0.0068587069399654865,-0.008143190294504166,0.00418463908135891,-0.32591012120246887,0.04785243421792984,-9.835033416748047,0.0,0.0,0.0,0.0
79477,-0.005919221322983503,-0.007719381246715784,0.006179566029459238,-0.3216133713722229,0.036284249275922775,-9.835610389709473,0.0,0.0,0.0,0.0
79477,-0.008154807612299919,-0.007554525975137949,0.005655046086758375,-0.32658177614212036,0.026644203811883926,-9.830665588378906,0.0,0.0,0.0,0.0
79484,-0.007723900489509106,-0.006840141955763102,0.004800757858902216,-0.33884671330451965,0.023351965472102165,-9.841592788696289,0.0,0.0,0.0,0.0
79486,-0.006255768239498138,-0.007212515454739332,0.004468452651053667,-0.34676986932754517,0.033097267150878906,-9.855088233947754,0.0,0.0,0.0,0.0
79486,-0.006985203363001347,-0.008657879196107388,0.004339191131293774,-0.3448861837387085,0.017484180629253387,-9.86264705657959,0.0,0.0,0.0,0.0
79486,-0.006618684157729149,-0.009220103733241558,0.0029883943498134613,-0.33329543471336365,0.020328586921095848,-9.874255180358887,0.0,0.0,0.0,0.0
79488,-0.007126371841877699,-0.00878854189068079,0.0024629554245620966,-0.33101773262023926,0.0166538804769516,-9.883917808532715,0.0,0.0,0.0,0.0
79496,-0.007323854602873325,-0.007970413193106651,0.0009580516489222646,-0.32868844270706177,0.017756393179297447,-9.887223243713379,0.0,0.0,0.0,0.0
79496,-0.0074006724171340466,-0.007001915946602821,0.0036239572800695896,-0.32949092984199524,0.007838197983801365,-9.869056701660156,0.0,0.0,0.0,0.0
79496,-0.006780295632779598,-0.004674411378800869,0.0066117276437580585,-0.32888683676719666,0.008604452945291996,-9.865202903747559,0.0,0.0,0.0,0.0
79498,-0.00783949438482523,-0.008320854045450687,0.0045226337388157845,-0.32854849100112915,0.021676484495401382,-9.859883308410645,0.0,0.0,0.0,0.0
79507,-0.008901764638721943,-0.00908900611102581,0.004360266961157322,-0.32098397612571716,0.032158832997083664,-9.85795783996582,0.0,0.0,0.0,0.0
79507,-0.008664713241159916,-0.00873754732310772,0.0036468505859375,-0.31463995575904846,0.03381570428609848,-9.863200187683105,0.0,0.0,0.0,0.0
79507,-0.007271987851709127,-0.00860083568841219,0.002719084732234478,-0.31635454297065735,0.028422288596630096,-9.86719036102295,0.0,0.0,0.0,0.0
79513,-0.0067302389070391655,-0.009848172776401043,0.0017079400131478906,-0.3215291500091553,0.029615724459290504,-9.864157676696777,0.0,0.0,0.0,0.0
79521,-0.007169764954596758,-0.009683109819889069,0.0026151363272219896,-0.32548102736473083,0.020802026614546776,-9.85719108581543,0.0,0.0,0.0,0.0
79521,-0.007340733893215656,-0.009618902578949928,0.005569053813815117,-0.32558733224868774,0.02007976733148098,-9.854342460632324,0.0,0.0,0.0,0.0
79521,-0.006106722168624401,-0.008943668566644192,0.004767308011651039,-0.32775402069091797,0.017568087205290794,-9.872764587402344,0.0,0.0,0.0,0.0
79521,-0.006276968866586685,-0.008681013248860836,0.0064062150195240974,-0.3268604278564453,0.024589868262410164,-9.873600959777832,0.0,0.0,0.0,0.0
79531,-0.005042675882577896,-0.008578844368457794,0.005743208806961775,-0.32635992765426636,0.02746918983757496,-9.86458683013916,0.0,0.0,0.0,0.0
79531,-0.007163587026298046,-0.008539102040231228,0.0035345356445759535,-0.3281867504119873,0.023814039304852486,-9.861645698547363,0.0,0.0,0.0,0.0
79531,-0.007338330615311861,-0.008523643016815186,0.003975911997258663,-0.3228885233402252,0.032302502542734146,-9.85578441619873,0.0,0.0,0.0,0.0
79531,-0.006756045389920473,-0.009818146005272865,0.004147600382566452,-0.3272959887981415,0.03389617055654526,-9.841965675354004,0.0,0.0,0.0,0.0
79532,-0.007179803214967251,-0.010321687906980515,0.005514900665730238,-0.3413538932800293,0.033735211938619614,-9.855297088623047,0.0,0.0,0.0,0.0
79533,-0.007344638463109732,-0.01051755715161562,0.005396501161158085,-0.34395983815193176,0.01784149371087551,-9.86381721496582,0.0,0.0,0.0,0.0
79535,-0.006758498959243298,-0.009943489916622639,0.004700187593698502,-0.3348837196826935,0.025796573609113693,-9.862268447875977,0.0,0.0,0.0,0.0
79544,-0.007180757820606232,-0.008419670164585114,0.004429332446306944,-0.33085376024246216,0.026037922129034996,-9.870882987976074,0.0,0.0,0.0,0.0
79552,-0.006694751791656017,-0.007826928049325943,0.002373199909925461,-0.34229302406311035,0.02301238849759102,-9.876761436462402,0.0,0.0,0.0,0.0
79553,-0.007155961357057095,-0.008896876126527786,0.003524170257151127,-0.33921799063682556,0.026585644111037254,-9.880053520202637,0.0,0.0,0.0,0.0
79553,-0.0060348487459123135,-0.00931306928396225,0.004622138105332851,-0.33012068271636963,0.027533451095223427,-9.874523162841797,0.0,0.0,0.0,0.0
79553,-0.004948494955897331,-0.008824704214930534,0.0037487144581973553,-0.3229181468486786,0.02701074630022049,-9.868265151977539,0.0,0.0,0.0,0.0
79565,-0.005176178179681301,-0.009935254231095314,0.004059224389493465,-0.32836613059043884,0.02777154929935932,-9.85738468170166,0.0,0.0,0.0,0.0
79565,-0.007865775376558304,-0.00906672514975071,0.0035297495778650045,-0.32720327377319336,0.02503696084022522,-9.859719276428223,0.0,0.0,0.0,0.0
79565,-0.008261729031801224,-0.008728880435228348,0.003974050283432007,-0.32128411531448364,0.03193388879299164,-9.852598190307617,0.0,0.0,0.0,0.0
79565,-0.005164458882063627,-0.010548237711191177,0.0041468762792646885,-0.3211295008659363,0.03579685464501381,-9.850716590881348,0.0,0.0,0.0,0.0
79572,-0.005910442676395178,-0.009955423884093761,0.004214102867990732,-0.3315786123275757,0.028478357940912247,-9.83807373046875,0.0,0.0,0.0,0.0
79572,-0.006200619041919708,-0.009724828414618969,0.004240253008902073,-0.33005616068840027,0.04018284007906914,-9.852063179016113,0.0,0.0,0.0,0.0
79572,-0.005663235206156969,-0.009635129943490028,0.0036001671105623245,-0.32604271173477173,0.04463136941194534,-9.860952377319336,0.0,0.0,0.0,0.0
79572,-0.004803943447768688,-0.0076494645327329636,0.0027009255718439817,-0.3322233557701111,0.02499799244105816,-9.856449127197266,0.0,0.0,0.0,0.0
79583,-0.0057702078483998775,-0.008827845565974712,0.0017008763970807195,-0.32620298862457275,0.01926920935511589,-9.85498046875,0.0,0.0,0.0,0.0
79583,-0.007446586154401302,-0.007985701784491539,0.004563163034617901,-0.33968812227249146,0.013953381218016148,-9.861533164978027,0.0,0.0,0.0,0.0
79583,-0.008098671212792397,-0.007658120710402727,0.0043760319240391254,-0.33881255984306335,0.008868848904967308,-9.857828140258789,0.0,0.0,0.0,0.0
79583,-0.007702064234763384,-0.008180955424904823,0.0017022087704390287,-0.34148287773132324,0.0039138635620474815,-9.863127708435059,0.0,0.0,0.0,0.0
79585,-0.0075477901846170425,-0.006433555390685797,0.0019626489374786615,-0.33138924837112427,0.012727863155305386,-9.852399826049805,0.0,0.0,0.0,0.0
79585,-0.008788296021521091,-0.008354876190423965,0.004014730453491211,-0.32573580741882324,0.026093143969774246,-9.860087394714355,0.0,0.0,0.0,0.0
79585,-0.006669801659882069,-0.009752498008310795,0.00416270038112998,-0.3173014521598816,0.019882604479789734,-9.868607521057129,0.0,0.0,0.0,0.0
79590,-0.0051954821683466434,-0.008345376700162888,0.004220258444547653,-0.31257739663124084,0.024832654744386673,-9.875486373901367,0.0,0.0,0.0,0.0
79591,-0.006572768557816744,-0.009098544716835022,0.003592389402911067,-0.329949289560318,0.02865874581038952,-9.86353588104248,0.0,0.0,0.0,0.0
79593,-0.005157737527042627,-0.009391515515744686,0.0059491898864507675,-0.33019712567329407,0.029748164117336273,-9.856842994689941,0.0,0.0,0.0,0.0
79604,-0.004607312381267548,-0.007554702460765839,0.004915175028145313,-0.32612165808677673,0.026144061237573624,-9.854147911071777,0.0,0.0,0.0,0.0
79604,-0.0050434633158147335,-0.008790984749794006,0.004512959159910679,-0.3217318654060364,0.033607546240091324,-9.855798721313477,0.0,0.0,0.0,0.0
79607,-0.003912603482604027,-0.009271879680454731,0.0037062454503029585,-0.3319159746170044,0.02935926988720894,-9.854616165161133,0.0,0.0,0.0,0.0
79607,-0.0047732326202094555,-0.009458940476179123,0.0020919302478432655,-0.3407808244228363,0.0354083813726902,-9.85500717163086,0.0,0.0,0.0,0.0
79607,-0.005108003970235586,-0.007580929901450872,0.002764502540230751,-0.33942458033561707,0.04301077127456665,-9.854172706604004,0.0,0.0,0.0,0.0
79610,-0.006538740824908018,-0.010101702995598316,0.0030261229258030653,-0.3355042338371277,0.04516172036528587,-9.849491119384766,0.0,0.0,0.0,0.0
79613,-0.007095275446772575,-0.010431986302137375,0.0031278892420232296,-0.3375227451324463,0.03477717936038971,-9.855298042297363,0.0,0.0,0.0,0.0
79613,-0.006661500781774521,-0.00860968790948391,0.003817732911556959,-0.3354926109313965,0.0394965223968029,-9.85644245147705,0.0,0.0,0.0,0.0
79616,-0.006492768879979849,-0.005299809388816357,0.002785555087029934,-0.33014124631881714,0.046354103833436966,-9.848655700683594,0.0,0.0,0.0,0.0
79623,-0.007727650925517082,-0.008564123883843422,0.003034312045201659,-0.3334653675556183,0.03544503450393677,-9.848508834838867,0.0,0.0,0.0,0.0
79626,-0.006907484959810972,-0.00983389187604189,0.002480816561728716,-0.33322006464004517,0.023013446480035782,-9.853693962097168,0.0,0.0,0.0,0.0
79626,-0.006588452961295843,-0.008377037942409515,0.0016152573516592383,-0.3299219608306885,0.019211238250136375,-9.853437423706055,0.0,0.0,0.0,0.0
79626,-0.006464354693889618,-0.009110860526561737,0.0032293424010276794,-0.3301818370819092,0.020242339000105858,-9.851186752319336,0.0,0.0,0.0,0.0
79628,-0.007066340185701847,-0.009396306239068508,0.002556680468842387,-0.34297025203704834,0.01555200107395649,-9.848872184753418,0.0,0.0,0.0,0.0
79636,-0.00795076135545969,-0.0069063082337379456,0.004896057303994894,-0.3322223126888275,0.019246375188231468,-9.858111381530762,0.0,0.0,0.0,0.0
79636,-0.0069942716509103775,-0.007888511754572392,0.0038552647456526756,-0.3230416774749756,0.0244763046503067,-9.853804588317871,0.0,0.0,0.0,0.0
79636,-0.00987350195646286,-0.010871605947613716,0.0034504125360399485,-0.3305424749851227,0.0231912974268198,-9.859821319580078,0.0,0.0,0.0,0.0
79638,-0.009042704477906227,-0.009430951438844204,0.00654422165825963,-0.3357972502708435,0.02036442421376705,-9.858976364135742,0.0,0.0,0.0,0.0
