timestamp_ms,roll_deg,pitch_deg,yaw_deg,pos_x,pos_y,pos_z,vel_x,vel_y,vel_z,gyro_x,gyro_y,gyro_z,accel_x,accel_y,accel_z,throttle,ctrl_roll,ctrl_pitch,ctrl_yaw,mag_x,mag_y,mag_z,voltage,tof_bottom,tof_front,state,sensor_status,heartbeat
233162,0.12357786560110023,0.2762903033132865,-10.09045617313963,0.0,0.0,0.0,0.0,0.0,0.0,0.0004846095107495785,-0.0021194349974393845,0.0011414438486099243,0.03836318105459213,-0.036976058036088943,-9.789140701293945,0.0,0.0,0.0,0.0,5.601600170135498,4.588189601898193,40.94602966308594,4.127999782562256,0.04500000178813934,1.2790000438690186,2,31,1
233166,0.13078867773478253,0.2721773821746017,-10.09030164010966,0.0,0.0,0.0,0.0,0.0,0.0,0.00023119710385799408,-0.0016019027680158615,0.0018842308782041073,0.04672501981258392,-0.03790633752942085,-9.779874801635742,0.0,0.0,0.0,0.0,5.601600170135498,4.588189601898193,40.94602966308594,4.127999782562256,0.04500000178813934,1.3000000715255737,2,31,2
233167,0.13794380781847335,0.2721777290201455,-10.090031847637444,0.0,0.0,0.0,0.0,0.0,0.0,0.00013309204950928688,-0.0020506633445620537,0.0028234217315912247,0.03876562789082527,-0.02683810517191887,-9.775738716125488,0.0,0.0,0.0,0.0,5.601600170135498,4.588189601898193,40.94602966308594,4.127999782562256,0.04500000178813934,1.3000000715255737,2,31,3
233168,0.13794380781847335,0.2721777290201455,-10.090031847637444,0.0,0.0,0.0,0.0,0.0,0.0,0.00013309204950928688,-0.0020506633445620537,0.0028234217315912247,0.03876562789082527,-0.02683810517191887,-9.775738716125488,0.0,0.0,0.0,0.0,5.601600170135498,4.588189601898193,40.94602966308594,4.127999782562256,0.04500000178813934,1.3000000715255737,2,31,4
233173,0.13452331044711177,0.2701322207658589,-10.089642526854753,0.0,0.0,0.0,0.0,0.0,0.0,0.0013797194696962833,-0.00023401249200105667,-0.0011851314920932055,0.05903637036681175,-0.0150163434445858,-9.790118217468262,0.0,0.0,0.0,0.0,5.601600170135498,4.588189601898193,40.94602966308594,4.127999782562256,0.04500000178813934,1.3000000715255737,2,31,5
233174,0.1313328383723489,0.2758628562012054,-10.089799621205664,0.0,0.0,0.0,0.0,0.0,0.0,0.0018793833442032337,-0.0008678138256072998,-0.00032128719612956047,0.05092906206846237,-0.007696009706705809,-9.784636497497559,0.0,0.0,0.0,0.0,5.601600170135498,4.588189601898193,40.94602966308594,4.127999782562256,0.04500000178813934,1.3000000715255737,2,31,6
233176,0.12523653435235552,0.2775445234800566,-10.089842309887976,0.0,0.0,0.0,0.0,0.0,0.0,0.0018786494620144367,-0.0008676229044795036,-0.00032128719612956047,0.05092906206846237,-0.007696009706705809,-9.784636497497559,0.0,0.0,0.0,0.0,5.601600170135498,4.588189601898193,40.94602966308594,4.127999782562256,0.04500000178813934,1.3000000715255737,2,31,7
233177,0.12523653435235552,0.2775445234800566,-10.089842309887976,0.0,0.0,0.0,0.0,0.0,0.0,0.0020731654949486256,0.00018610432744026184,0.0013152509927749634,0.04112030938267708,-0.010970896109938622,-9.774190902709961,0.0,0.0,0.0,0.0,5.601600170135498,4.588189601898193,40.94602966308594,4.127999782562256,0.04500000178813934,1.3000000715255737,2,31,8
233183,0.1088663051395539,0.26492294754368123,-10.089344559852211,0.0,0.0,0.0,0.0,0.0,0.0,-0.0002803145907819271,-0.0011967895552515984,0.001693581696599722,0.03465646132826805,-0.010502088814973831,-9.779226303100586,0.0,0.0,0.0,0.0,5.601600170135498,4.588189601898193,40.94602966308594,4.127999782562256,0.04700000211596489,1.3000000715255737,2,31,9
233186,0.10565274115570257,0.25939801819622854,-10.089332607021165,0.0,0.0,0.0,0.0,0.0,0.0,0.0025322961155325174,-0.0012439368292689323,0.00014822999946773052,0.033059608191251755,-0.01043543592095375,-9.782750129699707,0.0,0.0,0.0,0.0,5.601600170135498,4.588189601898193,40.94602966308594,4.127999782562256,0.04700000211596489,1.3000000715255737,2,31,10
233187,0.10565274115570257,0.25939801819622854,-10.089332607021165,0.0,0.0,0.0,0.0,0.0,0.0,0.0023260009475052357,0.0006887326017022133,-0.002403662307187915,0.035325925797224045,-0.01145167462527752,-9.794205665588379,0.0,0.0,0.0,0.0,5.601600170135498,4.588189601898193,40.94602966308594,4.127999782562256,0.04700000211596489,1.3000000715255737,2,31,11
233188,0.10565274115570257,0.25939801819622854,-10.089332607021165,0.0,0.0,0.0,0.0,0.0,0.0,0.0023260009475052357,0.0006887326017022133,-0.002403662307187915,0.035325925797224045,-0.01145167462527752,-9.794205665588379,0.0,0.0,0.0,0.0,5.601600170135498,4.588189601898193,40.94602966308594,4.127999782562256,0.04700000211596489,1.3000000715255737,2,31,12
233195,0.10221015906135086,0.2617630512376248,-10.089143923045343,0.0,0.0,0.0,0.0,0.0,0.0,-0.00030076177790760994,0.0005924077704548836,0.00047745625488460064,0.06040322780609131,-0.015799276530742645,-9.780208587646484,0.0,0.0,0.0,0.0,5.601600170135498,4.588189601898193,40.94602966308594,4.127999782562256,0.04700000211596489,1.2910000085830688,2,31,13
233198,0.10144985361904398,0.2688335510086309,-10.08906281454895,0.0,0.0,0.0,0.0,0.0,0.0,-7.693050429224968e-05,-0.0005468009039759636,-0.0003248241264373064,0.043266069144010544,-0.02499166876077652,-9.791728973388672,0.0,0.0,0.0,0.0,5.601600170135498,4.588189601898193,40.94602966308594,4.127999782562256,0.04700000211596489,1.2910000085830688,2,31,14
233201,0.11198807511621997,0.2646884265952265,-10.089021833413929,0.0,0.0,0.0,0.0,0.0,0.0,-0.0012891474179923534,0.00030980631709098816,0.0006636171601712704,0.03893541544675827,-0.03435460478067398,-9.789752960205078,0.0,0.0,0.0,0.0,5.601600170135498,4.588189601898193,40.94602966308594,4.127999782562256,0.04700000211596489,1.2910000085830688,2,31,15
233202,0.11198807511621997,0.2646884265952265,-10.089021833413929,0.0,0.0,0.0,0.0,0.0,0.0,-0.0011108899489045143,-0.0013075778260827065,0.001698363572359085,0.04599195718765259,-0.02168806828558445,-9.780217170715332,0.0,0.0,0.0,0.0,5.601600170135498,4.588189601898193,40.94602966308594,4.127999782562256,0.04700000211596489,1.2910000085830688,2,31,16
233203,0.11198807511621997,0.2646884265952265,-10.089021833413929,0.0,0.0,0.0,0.0,0.0,0.0,-0.0011108899489045143,-0.0013075778260827065,0.001698363572359085,0.04599195718765259,-0.02168806828558445,-9.780217170715332,0.0,0.0,0.0,0.0,5.601600170135498,4.588189601898193,40.94602966308594,4.127999782562256,0.04700000211596489,1.2910000085830688,2,31,17
233204,0.11306605772610516,0.2649129423837642,-10.088778507924747,0.0,0.0,0.0,0.0,0.0,0.0,-0.0003911629319190979,-0.0019366731867194176,0.0014506061561405659,0.0394086129963398,-0.01670069433748722,-9.793841361999512,0.0,0.0,0.0,0.0,5.601600170135498,4.588189601898193,40.94602966308594,4.127999782562256,0.04700000211596489,1.2910000085830688,2,31,18
233205,0.11306605772610516,0.2649129423837642,-10.088778507924747,0.0,0.0,0.0,0.0,0.0,0.0,-0.0003911629319190979,-0.0019366731867194176,0.0014506061561405659,0.0394086129963398,-0.01670069433748722,-9.793841361999512,0.0,0.0,0.0,0.0,5.601600170135498,4.588189601898193,40.94602966308594,4.127999782562256,0.04700000211596489,1.2910000085830688,2,31,19
233205,0.11306605772610516,0.2649129423837642,-10.088778507924747,0.0,0.0,0.0,0.0,0.0,0.0,-0.0003911629319190979,-0.0019366731867194176,0.0014506061561405659,0.0394086129963398,-0.01670069433748722,-9.793841361999512,0.0,0.0,0.0,0.0,5.601600170135498,4.588189601898193,40.94602966308594,4.127999782562256,0.04700000211596489,1.2910000085830688,2,31,20
233209,0.11417184134034643,0.25672749427203284,-10.08857957866517,0.0,0.0,0.0,0.0,0.0,0.0,-0.0002551749348640442,-0.001229860819876194,-0.0004896523896604776,0.037743665277957916,-0.019297290593385696,-9.783157348632812,0.0,0.0,0.0,0.0,5.601600170135498,4.588189601898193,40.94602966308594,4.127999782562256,0.04700000211596489,1.2910000085830688,2,31,21
233224,0.10740180986186135,0.27243767641500266,-10.087882045596183,0.0,0.0,0.0,0.0,0.0,0.0,0.002406536368653178,-0.0015450650826096535,-0.0011966413585469127,0.07352380454540253,-0.012529496103525162,-9.793173789978027,0.0,0.0,0.0,0.0,5.601600170135498,4.588189601898193,40.94602966308594,4.127999782562256,0.04500000178813934,1.2910000085830688,2,31,22
233227,0.10516386236173098,0.2842378420624046,-10.088032309757923,0.0,0.0,0.0,0.0,0.0,0.0,0.0016264687292277813,-0.0007266039028763771,-0.00032576429657638073,0.07063274085521698,-0.001035273540765047,-9.801097869873047,0.0,0.0,0.0,0.0,5.601600170135498,4.588189601898193,40.94602966308594,4.127999782562256,0.04500000178813934,1.2910000085830688,2,31,23
233238,0.08270844819665707,0.29312247742956316,-10.088143300331936,0.0,0.0,0.0,0.0,0.0,0.0,0.0028250226750969887,0.000541425310075283,0.0003322386182844639,0.04751325771212578,0.000402283389121294,-9.793895721435547,0.0,0.0,0.0,0.0,5.601600170135498,4.588189601898193,40.94602966308594,4.127999782562256,0.04500000178813934,1.2920000553131104,2,31,24
233250,0.06342468306548883,0.2880931636837595,-10.087459427641289,0.0,0.0,0.0,0.0,0.0,0.0,5.983421579003334e-05,-0.001183886080980301,-0.00017937668599188328,0.03971349820494652,-0.0006673582829535007,-9.783195495605469,0.0,0.0,0.0,0.0,5.601600170135498,4.588189601898193,40.94602966308594,4.127999782562256,0.04500000178813934,1.2920000553131104,2,31,25
233256,0.039527878872024066,0.26867578964705946,-10.087655795579925,0.0,0.0,0.0,0.0,0.0,0.0,5.810242146253586e-05,-0.0014037992805242538,-0.0011336010647937655,0.03126460686326027,0.017552483826875687,-9.773662567138672,0.0,0.0,0.0,0.0,5.601600170135498,4.588189601898193,40.94602966308594,4.127999782562256,0.046000003814697266,1.2920000553131104,2,31,26
233266,0.011937344727497435,0.26622914118116686,-10.08791705031568,0.0,0.0,0.0,0.0,0.0,0.0,0.0016087258700281382,-0.0012155957520008087,0.0014775977469980717,0.042941585183143616,0.005081951152533293,-9.788189888000488,0.0,0.0,0.0,0.0,5.601600170135498,5.335479736328125,43.549781799316406,4.127999782562256,0.046000003814697266,1.2920000553131104,2,31,27
233271,0.012456206484450333,0.264677194135693,-10.087754833322892,0.0,0.0,0.0,0.0,0.0,0.0,0.0028555532917380333,-0.0003610299900174141,0.00041762995533645153,0.04357282817363739,0.002075971569865942,-9.794363975524902,0.0,0.0,0.0,0.0,5.601600170135498,5.335479736328125,43.549781799316406,4.127999782562256,0.046000003814697266,1.2920000553131104,2,31,28
233272,0.012456206484450333,0.264677194135693,-10.087754833322892,0.0,0.0,0.0,0.0,0.0,0.0,0.0017948036547750235,-0.000267920084297657,-0.0003480955492705107,0.03594651818275452,0.0018773810006678104,-9.781746864318848,0.0,0.0,0.0,0.0,5.601600170135498,5.335479736328125,43.549781799316406,4.127999782562256,0.046000003814697266,1.2920000553131104,2,31,29
233281,0.01897304488478555,0.25833576369773287,-10.08780093709979,0.0,0.0,0.0,0.0,0.0,0.0,0.001726039219647646,-0.0003168433904647827,-0.0009024173486977816,0.04192990064620972,-0.015934651717543602,-9.759779930114746,0.0,0.0,0.0,0.0,5.601600170135498,5.335479736328125,43.549781799316406,4.127999782562256,0.046000003814697266,1.2910000085830688,2,31,30
233288,0.03681440279630469,0.25485879720379967,-10.087956323903407,0.0,0.0,0.0,0.0,0.0,0.0,-8.62516462802887e-05,-0.001273580826818943,5.75121957808733e-05,0.03706066310405731,-0.02883286029100418,-9.771585464477539,0.0,0.0,0.0,0.0,5.601600170135498,5.335479736328125,43.549781799316406,4.127999782562256,0.046000003814697266,1.2910000085830688,2,31,31
233302,0.05526522835922185,0.2660448327952823,-10.088663248482503,0.0,0.0,0.0,0.0,0.0,0.0,0.002675207331776619,-0.003343808464705944,-0.0016561814118176699,0.061256494373083115,-0.03906170651316643,-9.777530670166016,0.0,0.0,0.0,0.0,5.601600170135498,5.335479736328125,43.549781799316406,4.127999782562256,0.046000003814697266,1.2910000085830688,2,31,32
233308,0.08920135008565416,0.2804009299352971,-10.089140507950757,0.0,0.0,0.0,0.0,0.0,0.0,0.0010805819183588028,-0.00012638140469789505,-0.0005045183934271336,0.05322612076997757,-0.04750308021903038,-9.789175987243652,0.0,0.0,0.0,0.0,5.601600170135498,5.335479736328125,43.549781799316406,4.127999782562256,0.046000003814697266,1.2910000085830688,2,31,33
233321,0.1472670427159672,0.30297942757767005,-10.089409446649327,0.0,0.0,0.0,0.0,0.0,0.0,-0.00016103219240903854,0.0011297380551695824,4.208320751786232e-05,0.05458702892065048,-0.04947527498006821,-9.78044605255127,0.0,0.0,0.0,0.0,5.601600170135498,5.335479736328125,43.549781799316406,4.127999782562256,0.046000003814697266,1.2910000085830688,2,31,34
233328,0.1755534440703552,0.3088426380520235,-10.089464941936333,0.0,0.0,0.0,0.0,0.0,0.0,0.0002916748635470867,-0.000905187800526619,-5.251658149063587e-05,0.06243959814310074,-0.04411884397268295,-9.77840518951416,0.0,0.0,0.0,0.0,5.601600170135498,5.335479736328125,43.549781799316406,4.127999782562256,0.046000003814697266,1.2910000085830688,2,31,35
233337,0.1805987794122393,0.31959015415445013,-10.08905769190707,0.0,0.0,0.0,0.0,0.0,0.0,-1.5224330127239227e-05,0.0008006813004612923,-0.0017144274897873402,0.05105355381965637,-0.041605737060308456,-9.786174774169922,0.0,0.0,0.0,0.0,5.601600170135498,5.335479736328125,43.549781799316406,4.127999782562256,0.046000003814697266,1.2910000085830688,2,31,36
233344,0.18314129065035012,0.3197386307276186,-10.089517022128755,0.0,0.0,0.0,0.0,0.0,0.0,0.002174445427954197,-0.0008041858673095703,1.5900004655122757e-05,0.04622343182563782,-0.03745712339878082,-9.809233665466309,0.0,0.0,0.0,0.0,5.601600170135498,5.335479736328125,43.549781799316406,4.127999782562256,0.046000003814697266,1.2910000085830688,2,31,37
233350,0.1920898122986321,0.306898675500788,-10.089256621166648,0.0,0.0,0.0,0.0,0.0,0.0,0.0008989423513412476,-0.0010540243238210678,0.0016055409796535969,0.0475933775305748,-0.03474393114447594,-9.798604965209961,0.0,0.0,0.0,0.0,5.601600170135498,5.335479736328125,43.549781799316406,4.127999782562256,0.046000003814697266,1.2910000085830688,2,31,38
233350,0.1920898122986321,0.306898675500788,-10.089256621166648,0.0,0.0,0.0,0.0,0.0,0.0,0.0008990345522761345,-0.0010542655363678932,0.0016055409796535969,0.0475933775305748,-0.03474393114447594,-9.798604965209961,0.0,0.0,0.0,0.0,5.601600170135498,5.335479736328125,43.549781799316406,4.127999782562256,0.046000003814697266,1.2910000085830688,2,31,39
233355,0.19670035007094935,0.3091355891343936,-10.088723866411387,0.0,0.0,0.0,0.0,0.0,0.0,0.0020067524164915085,-0.00018814485520124435,-0.0010079045314341784,0.053883712738752365,-0.04055102914571762,-9.803362846374512,0.0,0.0,0.0,0.0,0.7018764615058899,11.68755054473877,40.19990921020508,4.127999782562256,0.046000003814697266,1.2980000972747803,2,31,40
233357,0.20016245556735246,0.30962816316742786,-10.088864739063018,0.0,0.0,0.0,0.0,0.0,0.0,0.00017695175483822823,-0.000848003663122654,-0.0015528645599260926,0.05752520263195038,-0.03885510563850403,-9.80153751373291,0.0,0.0,0.0,0.0,0.7018764615058899,11.68755054473877,40.19990921020508,4.127999782562256,0.046000003814697266,1.2980000972747803,2,31,41
233368,0.20125902109425686,0.30767003330974985,-10.089575078736699,0.0,0.0,0.0,0.0,0.0,0.0,0.00013026734814047813,-0.00019550975412130356,-0.0012594845611602068,0.05099812150001526,-0.022588156163692474,-9.795125007629395,0.0,0.0,0.0,0.0,0.7018764615058899,11.68755054473877,40.19990921020508,4.127999782562256,0.046000003814697266,1.2980000972747803,2,31,42
233381,0.17461784155619567,0.3016497551649125,-10.089698022141759,0.0,0.0,0.0,0.0,0.0,0.0,-0.0022871987894177437,0.0008588097989559174,0.0019591418094933033,0.03893420845270157,-0.02172531560063362,-9.805342674255371,0.0,0.0,0.0,0.0,0.7018764615058899,11.68755054473877,40.19990921020508,4.127999782562256,0.04500000178813934,1.2980000972747803,2,31,43
233385,0.1707755666633726,0.29618549710719655,-10.089433352311422,0.0,0.0,0.0,0.0,0.0,0.0,-0.00019521592184901237,-0.00044193584471940994,0.0028525604866445065,0.0533662810921669,-0.006185845006257296,-9.784735679626465,0.0,0.0,0.0,0.0,0.7018764615058899,11.68755054473877,40.19990921020508,4.127999782562256,0.04500000178813934,1.2980000972747803,2,31,44
233386,0.16096103839331385,0.29758539240235826,-10.089021833413929,0.0,0.0,0.0,0.0,0.0,0.0,-0.00019635632634162903,-0.0004417961463332176,0.0028525604866445065,0.0533662810921669,-0.006185845006257296,-9.784735679626465,0.0,0.0,0.0,0.0,0.7018764615058899,11.68755054473877,40.19990921020508,4.127999782562256,0.04500000178813934,1.2980000972747803,2,31,45
233386,0.16096103839331385,0.29758539240235826,-10.089021833413929,0.0,0.0,0.0,0.0,0.0,0.0,0.0012678070925176144,0.00035299453884363174,-5.120341666042805e-05,0.06250324845314026,0.0004106578417122364,-9.78688907623291,0.0,0.0,0.0,0.0,0.7018764615058899,11.68755054473877,40.19990921020508,4.127999782562256,0.04500000178813934,1.2980000972747803,2,31,46
233404,0.09423406558582963,0.29976713091407486,-10.088385772047472,0.0,0.0,0.0,0.0,0.0,0.0,0.0018890190403908491,-0.00035397522151470184,0.0021504973992705345,0.04038044065237045,0.007422444876283407,-9.76873779296875,0.0,0.0,0.0,0.0,0.7018764615058899,11.68755054473877,40.19990921020508,4.127999782562256,0.04500000178813934,1.2910000085830688,2,31,47
233410,0.07089219425210856,0.2946832556961904,-10.087945224846004,0.0,0.0,0.0,0.0,0.0,0.0,0.0005901469849050045,2.4527311325073242e-05,-0.0014313282445073128,0.05309488996863365,0.0051301573403179646,-9.76651382446289,0.0,0.0,0.0,0.0,0.7018764615058899,11.68755054473877,40.19990921020508,4.127999782562256,0.04500000178813934,1.2910000085830688,2,31,48
233428,0.040062084375473025,0.2846538966323936,-10.087871800312428,0.0,0.0,0.0,0.0,0.0,0.0,-0.0007746773771941662,-0.0011900821700692177,-0.0003725204151123762,0.03844122588634491,0.0008370159193873405,-9.777746200561523,0.0,0.0,0.0,0.0,0.7018764615058899,11.68755054473877,40.19990921020508,4.127999782562256,0.046000003814697266,1.2910000085830688,2,31,49
233430,0.040062084375473025,0.2846538966323936,-10.087871800312428,0.0,0.0,0.0,0.0,0.0,0.0,0.0010345019400119781,6.07585534453392e-05,-0.0006554517894983292,0.034125883132219315,0.009612011723220348,-9.78929615020752,0.0,0.0,0.0,0.0,0.7018764615058899,11.68755054473877,40.19990921020508,4.127999782562256,0.046000003814697266,1.2910000085830688,2,31,50
233430,0.040062084375473025,0.2846538966323936,-10.087871800312428,0.0,0.0,0.0,0.0,0.0,0.0,0.0010345019400119781,6.07585534453392e-05,-0.0006554517894983292,0.034125883132219315,0.009612011723220348,-9.78929615020752,0.0,0.0,0.0,0.0,0.7018764615058899,11.68755054473877,40.19990921020508,4.127999782562256,0.046000003814697266,1.2910000085830688,2,31,51
233436,0.03242905449329288,0.2754757498939096,-10.088290149399091,0.0,0.0,0.0,0.0,0.0,0.0,0.0016138225328177214,0.0008798986673355103,-0.0014585759490728378,0.04375776648521423,-0.009946048259735107,-9.79445743560791,0.0,0.0,0.0,0.0,0.7018764615058899,11.68755054473877,40.19990921020508,4.127999782562256,0.046000003814697266,1.3140000104904175,2,31,52
233442,0.025736434604612373,0.27489395651484205,-10.08855652677672,0.0,0.0,0.0,0.0,0.0,0.0,0.0002002054825425148,0.0008112955838441849,0.00034005939960479736,0.04634451866149902,0.011350473389029503,-9.785090446472168,0.0,0.0,0.0,0.0,0.7018764615058899,11.68755054473877,40.19990921020508,4.127999782562256,0.046000003814697266,1.3140000104904175,2,31,53
233456,0.04961243640308302,0.2750171400437403,-10.089002196620065,0.0,0.0,0.0,0.0,0.0,0.0,0.0012276279740035534,-0.0004635695368051529,0.0004733989480882883,0.035080451518297195,-0.015330679714679718,-9.777000427246094,0.0,0.0,0.0,0.0,0.7107028961181641,4.588189601898193,42.80585479736328,4.127999782562256,0.04500000178813934,1.3140000104904175,2,31,54
233469,0.06182848653275537,0.2745529539844439,-10.088980852278908,0.0,0.0,0.0,0.0,0.0,0.0,0.0002318006008863449,-0.001320747658610344,-0.0015201601199805737,0.0665387511253357,-0.016357023268938065,-9.77868938446045,0.0,0.0,0.0,0.0,0.7107028961181641,4.588189601898193,42.80585479736328,4.127999782562256,0.04500000178813934,1.3140000104904175,2,31,55
233473,0.06321724941998276,0.2929241084589419,-10.08961605987172,0.0,0.0,0.0,0.0,0.0,0.0,-0.0005228058435022831,1.125037670135498e-05,-0.0030526400078088045,0.0698811337351799,-0.009500496089458466,-9.77823543548584,0.0,0.0,0.0,0.0,0.7107028961181641,4.588189601898193,42.80585479736328,4.127999782562256,0.04500000178813934,1.3140000104904175,2,31,56
233488,0.06806542975064887,0.29370947349178755,-10.090345182565619,0.0,0.0,0.0,0.0,0.0,0.0,0.002052814234048128,-0.001079644076526165,0.0003971464466303587,0.052605997771024704,-0.006828587036579847,-9.762717247009277,0.0,0.0,0.0,0.0,0.7107028961181641,4.588189601898193,42.80585479736328,4.127999782562256,0.04500000178813934,1.290000081062317,2,31,57
233490,0.06806542975064887,0.29370947349178755,-10.090345182565619,0.0,0.0,0.0,0.0,0.0,0.0,0.0034371460787951946,-0.00184657983481884,-0.00035606324672698975,0.06102383881807327,0.0011042295955121517,-9.762968063354492,0.0,0.0,0.0,0.0,0.7107028961181641,4.588189601898193,42.80585479736328,4.127999782562256,0.04500000178813934,1.290000081062317,2,31,58
233491,0.06257698588636017,0.2986998071345546,-10.090388725021578,0.0,0.0,0.0,0.0,0.0,0.0,0.0034365118481218815,-0.0018460322171449661,-0.00035606324672698975,0.06102383881807327,0.0011042295955121517,-9.762968063354492,0.0,0.0,0.0,0.0,0.7107028961181641,4.588189601898193,42.80585479736328,4.127999782562256,0.04500000178813934,1.290000081062317,2,31,59
233491,0.06257698588636017,0.2986998071345546,-10.090388725021578,0.0,0.0,0.0,0.0,0.0,0.0,0.002674479503184557,-0.0014941003173589706,-0.0006490503437817097,0.04888152703642845,-0.0060418895445764065,-9.78101921081543,0.0,0.0,0.0,0.0,0.7107028961181641,4.588189601898193,42.80585479736328,4.127999782562256,0.04500000178813934,1.290000081062317,2,31,60
233501,0.05793021609493009,0.29499544336602757,-10.089751809881474,0.0,0.0,0.0,0.0,0.0,0.0,-0.0005901744589209557,-0.0005768956616520882,-0.0015250516589730978,0.05919847637414932,-0.005384508986026049,-9.786144256591797,0.0,0.0,0.0,0.0,0.7107028961181641,4.588189601898193,42.80585479736328,4.127999782562256,0.04500000178813934,1.290000081062317,2,31,61
233508,0.057080371141472575,0.3014388463938619,-10.09021711651868,0.0,0.0,0.0,0.0,0.0,0.0,0.0017682688776403666,0.0016891434788703918,0.00010767951607704163,0.03990739956498146,-0.014903899282217026,-9.791952133178711,0.0,0.0,0.0,0.0,0.7107028961181641,4.588189601898193,42.80585479736328,4.127999782562256,0.04500000178813934,1.290000081062317,2,31,62
233509,0.05942965606115945,0.29669450628292116,-10.090208578782217,0.0,0.0,0.0,0.0,0.0,0.0,7.467111572623253e-05,0.0005308808758854866,-0.000468661542981863,0.04232208430767059,-0.015008028596639633,-9.7846097946167,0.0,0.0,0.0,0.0,0.7107028961181641,4.588189601898193,42.80585479736328,4.127999782562256,0.04500000178813934,1.312000036239624,2,31,63
233527,0.09169177446123701,0.29899636007449476,-10.0899959891443,0.0,0.0,0.0,0.0,0.0,0.0,-0.0014645196497440338,0.00029284507036209106,-0.0016871551051735878,0.048307061195373535,-0.029711861163377762,-9.794880867004395,0.0,0.0,0.0,0.0,0.7107028961181641,4.588189601898193,42.80585479736328,4.127999782562256,0.04500000178813934,1.312000036239624,2,31,64
233529,0.09769018132649575,0.2979297566664885,-10.090238460859837,0.0,0.0,0.0,0.0,0.0,0.0,0.00012053083628416061,0.0012884298339486122,-0.0018170825205743313,0.030169587582349777,-0.025409098714590073,-9.77782154083252,0.0,0.0,0.0,0.0,0.7107028961181641,4.588189601898193,42.80585479736328,4.127999782562256,0.04500000178813934,1.312000036239624,2,31,65
233545,0.14090220020380123,0.290159455990247,-10.091981012871836,0.0,0.0,0.0,0.0,0.0,0.0,0.0019673663191497326,-0.0006456496194005013,-0.00010770652443170547,0.03575213998556137,-0.014899883419275284,-9.768196105957031,0.0,0.0,0.0,0.0,0.7107028961181641,4.588189601898193,42.80585479736328,4.127999782562256,0.04500000178813934,1.312000036239624,2,31,66
233549,0.1312599607875134,0.27781719743832817,-10.092197017604338,0.0,0.0,0.0,0.0,0.0,0.0,0.003720211563631892,0.001045207493007183,0.0024485019966959953,0.04197506234049797,0.00445127347484231,-9.778504371643066,0.0,0.0,0.0,0.0,5.969099998474121,4.961804389953613,42.05999755859375,4.127999782562256,0.04500000178813934,1.2860000133514404,2,31,67
233565,0.07756322133816151,0.2586992044667716,-10.091245059988768,0.0,0.0,0.0,0.0,0.0,0.0,0.001124765258282423,0.000512935221195221,0.001360895112156868,0.03901464492082596,-0.014178875833749771,-9.78907299041748,0.0,0.0,0.0,0.0,5.969099998474121,4.961804389953613,42.05999755859375,4.127999782562256,0.04500000178813934,1.2860000133514404,2,31,68
233585,0.07816379106734,0.24708729590836812,-10.09082329580752,0.0,0.0,0.0,0.0,0.0,0.0,0.00028055813163518906,0.0003471486270427704,-0.000587202375754714,0.04785337299108505,-0.01790381781756878,-9.811074256896973,0.0,0.0,0.0,0.0,5.969099998474121,4.961804389953613,42.05999755859375,4.127999782562256,0.04500000178813934,1.2860000133514404,2,31,69
233590,0.08166108804622454,0.25472331399831016,-10.090722550517262,0.0,0.0,0.0,0.0,0.0,0.0,0.0032025265973061323,0.0007765535265207291,-3.917026333510876e-05,0.0671551525592804,-0.025489598512649536,-9.794925689697266,0.0,0.0,0.0,0.0,5.969099998474121,4.961804389953613,42.05999755859375,4.127999782562256,0.04500000178813934,1.2860000133514404,2,31,70
233591,0.08714012039008465,0.2652641101566381,-10.090712305233506,0.0,0.0,0.0,0.0,0.0,0.0,0.003235309384763241,0.00017415080219507217,0.00012447405606508255,0.0586370974779129,-0.024097783491015434,-9.802079200744629,0.0,0.0,0.0,0.0,5.969099998474121,4.961804389953613,42.05999755859375,4.127999782562256,0.04500000178813934,1.2860000133514404,2,31,71
233592,0.08714012039008465,0.2652641101566381,-10.090712305233506,0.0,0.0,0.0,0.0,0.0,0.0,0.003235309384763241,0.00017415080219507217,0.00012447405606508255,0.0586370974779129,-0.024097783491015434,-9.802079200744629,0.0,0.0,0.0,0.0,5.969099998474121,4.961804389953613,42.05999755859375,4.127999782562256,0.04500000178813934,1.2860000133514404,2,31,72
233596,0.09293034655789684,0.28035850805724893,-10.090644857115453,0.0,0.0,0.0,0.0,0.0,0.0,0.0007966272532939911,0.000644385814666748,0.00021289009600877762,0.06940100342035294,-0.008341794833540916,-9.796403884887695,0.0,0.0,0.0,0.0,5.969099998474121,4.961804389953613,42.05999755859375,4.127999782562256,0.04500000178813934,1.315000057220459,2,31,73
233603,0.08373764564678692,0.28784818400813816,-10.09057228635552,0.0,0.0,0.0,0.0,0.0,0.0,0.0014747423119843006,0.00042708776891231537,-0.000423989724367857,0.04466555267572403,-0.02771466225385666,-9.790956497192383,0.0,0.0,0.0,0.0,5.969099998474121,4.961804389953613,42.05999755859375,4.127999782562256,0.04500000178813934,1.315000057220459,2,31,74
233616,0.11307451542128834,0.2812945374582316,-10.091008564688757,0.0,0.0,0.0,0.0,0.0,0.0,0.0015483845490962267,0.00022987183183431625,0.00034607783891260624,0.04132136330008507,-0.017154918983578682,-9.783248901367188,0.0,0.0,0.0,0.0,5.969099998474121,4.961804389953613,42.05999755859375,4.127999782562256,0.04500000178813934,1.315000057220459,2,31,75
233618,0.11265073686784342,0.2788941795322217,-10.090601314659494,0.0,0.0,0.0,0.0,0.0,0.0,0.0029996742960065603,0.0007606605067849159,0.0025586984120309353,0.03826016187667847,-0.006880484987050295,-9.77658748626709,0.0,0.0,0.0,0.0,5.969099998474121,4.961804389953613,42.05999755859375,4.127999782562256,0.04500000178813934,1.315000057220459,2,31,76
233631,0.07809296787534079,0.24147653562904065,-10.089840602340685,0.0,0.0,0.0,0.0,0.0,0.0,0.0036485500168055296,0.0003826254978775978,0.0010457145981490612,0.034117769449949265,0.005069421604275703,-9.795669555664062,0.0,0.0,0.0,0.0,5.969099998474121,4.961804389953613,42.05999755859375,4.127999782562256,0.04500000178813934,1.315000057220459,2,31,77
233641,0.04979340973566192,0.23238277907940336,-10.090077097640695,0.0,0.0,0.0,0.0,0.0,0.0,-0.00018029846251010895,0.00031160376965999603,-0.003931432031095028,0.04690338671207428,0.00146926986053586,-9.804407119750977,0.0,0.0,0.0,0.0,5.969099998474121,4.961804389953613,42.05999755859375,4.127999782562256,0.04500000178813934,1.2910000085830688,2,31,78
233654,0.056497970782703376,0.24405074321376855,-10.09025126746453,0.0,0.0,0.0,0.0,0.0,0.0,-8.955970406532288e-05,0.0002507418394088745,-0.001157142105512321,0.0390782430768013,-0.015802381560206413,-9.7623872756958,0.0,0.0,0.0,0.0,0.33450162410736084,4.588189601898193,43.549781799316406,4.127999782562256,0.04500000178813934,1.2910000085830688,2,31,79
233670,0.08735828623712837,0.26719630663981125,-10.091136630735694,0.0,0.0,0.0,0.0,0.0,0.0,0.0002792319282889366,-0.002130795270204544,0.000987599603831768,0.053079426288604736,-0.04118148609995842,-9.78148365020752,0.0,0.0,0.0,0.0,0.33450162410736084,4.588189601898193,43.549781799316406,4.127999782562256,0.046000003814697266,1.2910000085830688,2,31,80
233676,0.11204335695981475,0.2828710038156087,-10.091102479789843,0.0,0.0,0.0,0.0,0.0,0.0,0.0013328180648386478,-0.0002650981768965721,0.001377058681100607,0.05266536772251129,-0.008537309244275093,-9.78456974029541,0.0,0.0,0.0,0.0,0.33450162410736084,4.588189601898193,43.549781799316406,4.127999782562256,0.046000003814697266,1.2910000085830688,2,31,81
233678,0.11158178558230998,0.27393436829730816,-10.091046130729191,0.0,0.0,0.0,0.0,0.0,0.0,0.002350508002564311,0.00023913569748401642,0.00033295154571533203,0.050223931670188904,-0.023032009601593018,-9.791665077209473,0.0,0.0,0.0,0.0,0.33450162410736084,4.588189601898193,43.549781799316406,4.127999782562256,0.046000003814697266,1.3000000715255737,2,31,82
233688,0.11158178558230998,0.27393436829730816,-10.091046130729191,0.0,0.0,0.0,0.0,0.0,0.0,0.002350508002564311,0.00023913569748401642,0.00033295154571533203,0.050223931670188904,-0.023032009601593018,-9.791665077209473,0.0,0.0,0.0,0.0,0.33450162410736084,4.588189601898193,43.549781799316406,4.127999782562256,0.046000003814697266,1.3000000715255737,2,31,83
233688,0.11370865579704172,0.27552951095319705,-10.090995758084063,0.0,0.0,0.0,0.0,0.0,0.0,0.002350701717659831,0.00023930426687002182,0.00033295154571533203,0.050223931670188904,-0.023032009601593018,-9.791665077209473,0.0,0.0,0.0,0.0,0.33450162410736084,4.588189601898193,43.549781799316406,4.127999782562256,0.046000003814697266,1.3000000715255737,2,31,84
233690,0.11694361748290222,0.27558369889930756,-10.09086427694254,0.0,0.0,0.0,0.0,0.0,0.0,0.002255285158753395,-3.46871092915535e-05,0.000919481972232461,0.04704679176211357,-0.025882001966238022,-9.788663864135742,0.0,0.0,0.0,0.0,0.33450162410736084,4.588189601898193,43.549781799316406,4.127999782562256,0.046000003814697266,1.3000000715255737,2,31,85
233691,0.11694361748290222,0.27558369889930756,-10.09086427694254,0.0,0.0,0.0,0.0,0.0,0.0,0.0015677881892770529,-0.0007915226742625237,0.0011476329527795315,0.042106565088033676,-0.031692568212747574,-9.78908920288086,0.0,0.0,0.0,0.0,0.33450162410736084,4.588189601898193,43.549781799316406,4.127999782562256,0.046000003814697266,1.3000000715255737,2,31,86
233692,0.11694361748290222,0.27558369889930756,-10.09086427694254,0.0,0.0,0.0,0.0,0.0,0.0,0.0015677881892770529,-0.0007915226742625237,0.0011476329527795315,0.042106565088033676,-0.031692568212747574,-9.78908920288086,0.0,0.0,0.0,0.0,0.33450162410736084,4.588189601898193,43.549781799316406,4.127999782562256,0.046000003814697266,1.3000000715255737,2,31,87
233696,0.12320778140587661,0.2687523891513841,-10.090818173165642,0.0,0.0,0.0,0.0,0.0,0.0,0.0006507490761578083,0.00021382886916399002,-0.0007143937982618809,0.0361788347363472,-0.02230420708656311,-9.792489051818848,0.0,0.0,0.0,0.0,0.33450162410736084,4.588189601898193,43.549781799316406,4.127999782562256,0.04500000178813934,1.3000000715255737,2,31,88
233697,0.12320778140587661,0.2687523891513841,-10.090818173165642,0.0,0.0,0.0,0.0,0.0,0.0,-0.0010067317634820938,0.0006051938980817795,0.0005120807327330112,0.03918014466762543,-0.015992220491170883,-9.81230354309082,0.0,0.0,0.0,0.0,0.33450162410736084,4.588189601898193,43.549781799316406,4.127999782562256,0.04500000178813934,1.3000000715255737,2,31,89
233698,0.12079097499696313,0.2657961178599586,-10.090750725047588,0.0,0.0,0.0,0.0,0.0,0.0,-0.0010069841518998146,0.0006048539653420448,0.0005120807327330112,0.03918014466762543,-0.015992220491170883,-9.81230354309082,0.0,0.0,0.0,0.0,0.33450162410736084,4.588189601898193,43.549781799316406,4.127999782562256,0.04500000178813934,1.3000000715255737,2,31,90
233701,0.12004592408847639,0.26547381830849864,-10.090609852395957,0.0,0.0,0.0,0.0,0.0,0.0,0.0002989615313708782,-0.0011937031522393227,0.0009891605004668236,0.04507546126842499,-0.018778309226036072,-9.800223350524902,0.0,0.0,0.0,0.0,0.33450162410736084,4.588189601898193,43.549781799316406,4.127999782562256,0.04500000178813934,1.3000000715255737,2,31,91
233710,0.12235755625634225,0.2606820137189116,-10.091045276955544,0.0,0.0,0.0,0.0,0.0,0.0,0.00048316922038793564,0.0017315978184342384,-0.0011451257159933448,0.039131756871938705,-0.013095822185277939,-9.796319961547852,0.0,0.0,0.0,0.0,0.33450162410736084,4.588189601898193,43.549781799316406,4.127999782562256,0.04500000178813934,1.290000081062317,2,31,92
233716,0.11763977650992784,0.25342018860986576,-10.09104186186096,0.0,0.0,0.0,0.0,0.0,0.0,0.0016823015175759792,0.0007325159385800362,0.000923986779525876,0.039427123963832855,-0.01989363133907318,-9.782458305358887,0.0,0.0,0.0,0.0,0.33450162410736084,4.588189601898193,43.549781799316406,4.127999782562256,0.04500000178813934,1.290000081062317,2,31,93
233717,0.11763977650992784,0.25342018860986576,-10.09104186186096,0.0,0.0,0.0,0.0,0.0,0.0,-0.0012561907060444355,0.000155620276927948,-0.00015113060362637043,0.04837450757622719,-0.013588488101959229,-9.784560203552246,0.0,0.0,0.0,0.0,0.33450162410736084,4.588189601898193,43.549781799316406,4.127999782562256,0.04500000178813934,1.290000081062317,2,31,94
233729,0.10299223573163716,0.27708906192020777,-10.090844640148676,0.0,0.0,0.0,0.0,0.0,0.0,0.0010313289240002632,0.00040487293154001236,-0.0007551764138042927,0.055449310690164566,-0.021856414154171944,-9.791781425476074,0.0,0.0,0.0,0.0,0.33450162410736084,4.588189601898193,43.549781799316406,4.127999782562256,0.04500000178813934,1.290000081062317,2,31,95
233736,0.09820027772959802,0.27053872374318044,-10.091032470350852,0.0,0.0,0.0,0.0,0.0,0.0,0.0005241543985903263,-0.0008201198652386665,-0.0008870004676282406,0.03875068575143814,-0.010466394945979118,-9.799773216247559,0.0,0.0,0.0,0.0,0.33450162410736084,4.588189601898193,43.549781799316406,4.127999782562256,0.04500000178813934,1.290000081062317,2,31,96
233738,0.09820027772959802,0.27053872374318044,-10.091032470350852,0.0,0.0,0.0,0.0,0.0,0.0,0.0005238405428826809,-0.0008204914629459381,-0.0008870004676282406,0.03875068575143814,-0.010466394945979118,-9.799773216247559,0.0,0.0,0.0,0.0,0.33450162410736084,4.588189601898193,43.549781799316406,4.127999782562256,0.04500000178813934,1.290000081062317,2,31,97
233752,0.09220927468267787,0.26708262134272753,-10.090512522200283,0.0,0.0,0.0,0.0,0.0,0.0,0.0018768557347357273,-0.00029471516609191895,0.0022554858587682247,0.05171426758170128,-0.03264300525188446,-9.779837608337402,0.0,0.0,0.0,0.0,5.969099998474121,4.961804389953613,43.176048278808594,4.127999782562256,0.04500000178813934,1.3020000457763672,2,31,98
233758,0.09380096889344867,0.2763433173206335,-10.08969375327353,0.0,0.0,0.0,0.0,0.0,0.0,0.0005903854034841061,-0.00022193603217601776,0.0010412121191620827,0.05547022819519043,-0.001287111546844244,-9.80358600616455,0.0,0.0,0.0,0.0,5.969099998474121,4.961804389953613,43.176048278808594,4.127999782562256,0.04500000178813934,1.3020000457763672,2,31,99
233772,0.05591989598807163,0.2711464771771794,-10.090134300474995,0.0,0.0,0.0,0.0,0.0,0.0,-0.0006087971851229668,0.0029295976273715496,-0.0014516918454319239,0.05145476013422012,0.004618023056536913,-9.77458667755127,0.0,0.0,0.0,0.0,5.969099998474121,4.961804389953613,43.176048278808594,4.127999782562256,0.04500000178813934,1.3020000457763672,2,31,100
233776,0.045706441981801814,0.2757035206944737,-10.090305908977891,0.0,0.0,0.0,0.0,0.0,0.0,-0.0021527456119656563,0.002312328666448593,0.0002252832055091858,0.04984331876039505,-0.0019666743464767933,-9.7759370803833,0.0,0.0,0.0,0.0,5.969099998474121,4.961804389953613,43.176048278808594,4.127999782562256,0.04500000178813934,1.3020000457763672,2,31,101
233785,0.044198634366828526,0.2742870568544894,-10.090149668400628,0.0,0.0,0.0,0.0,0.0,0.0,-0.0005549420602619648,0.0015905722975730896,-4.620966501533985e-05,0.05023098737001419,-0.01470142975449562,-9.786646842956543,0.0,0.0,0.0,0.0,5.969099998474121,4.961804389953613,43.176048278808594,4.127999782562256,0.04500000178813934,1.3020000457763672,2,31,102
233795,0.042049832841558714,0.274653725955128,-10.090521913710393,0.0,0.0,0.0,0.0,0.0,0.0,0.0033650968689471483,-0.0008046077564358711,0.0021207318641245365,0.050156671553850174,-0.013265682384371758,-9.777655601501465,0.0,0.0,0.0,0.0,5.969099998474121,4.961804389953613,43.176048278808594,4.127999782562256,0.04500000178813934,1.2930001020431519,2,31,103
233797,0.04479248062854279,0.27610052543998065,-10.090215408971389,0.0,0.0,0.0,0.0,0.0,0.0,0.003295200178399682,-0.001091201789677143,0.0035656746476888657,0.03331269323825836,-0.016197606921195984,-9.769227981567383,0.0,0.0,0.0,0.0,5.969099998474121,4.961804389953613,43.176048278808594,4.127999782562256,0.04500000178813934,1.2930001020431519,2,31,104
233798,0.04479248062854279,0.27610052543998065,-10.090215408971389,0.0,0.0,0.0,0.0,0.0,0.0,0.003295200178399682,-0.001091201789677143,0.0035656746476888657,0.03331269323825836,-0.016197606921195984,-9.769227981567383,0.0,0.0,0.0,0.0,5.969099998474121,4.961804389953613,43.176048278808594,4.127999782562256,0.04500000178813934,1.2930001020431519,2,31,105
233812,0.07773721106911832,0.2750571873638348,-10.088972314542445,0.0,0.0,0.0,0.0,0.0,0.0,0.0013662027195096016,0.0003581074997782707,0.0010332190431654453,0.06287114322185516,-0.032992828637361526,-9.792825698852539,0.0,0.0,0.0,0.0,5.969099998474121,4.961804389953613,43.176048278808594,4.127999782562256,0.046000003814697266,1.2930001020431519,2,31,106
233823,0.1226389013532086,0.291823861033188,-10.088403701294043,0.0,0.0,0.0,0.0,0.0,0.0,-0.00013228831812739372,8.225906640291214e-05,0.0018989196978509426,0.051598526537418365,-0.04062226042151451,-9.803814888000488,0.0,0.0,0.0,0.0,5.969099998474121,4.961804389953613,43.176048278808594,4.127999782562256,0.046000003814697266,1.2960000038146973,2,31,107
233833,0.14898890405725831,0.289985126083853,-10.087427838016376,0.0,0.0,0.0,0.0,0.0,0.0,-0.0005471357144415379,0.00032873544842004776,0.0005643591284751892,0.040809426456689835,-0.03263302147388458,-9.805011749267578,0.0,0.0,0.0,0.0,5.969099998474121,4.961804389953613,43.176048278808594,4.127999782562256,0.046000003814697266,1.2960000038146973,2,31,108
233835,0.14898890405725831,0.289985126083853,-10.087427838016376,0.0,0.0,0.0,0.0,0.0,0.0,0.00047983555123209953,0.0006509618833661079,0.0003592376597225666,0.02807731181383133,-0.04600951820611954,-9.800353050231934,0.0,0.0,0.0,0.0,5.969099998474121,4.961804389953613,43.176048278808594,4.127999782562256,0.046000003814697266,1.2960000038146973,2,31,109
233835,0.14898890405725831,0.289985126083853,-10.087427838016376,0.0,0.0,0.0,0.0,0.0,0.0,0.00047983555123209953,0.0006509618833661079,0.0003592376597225666,0.02807731181383133,-0.04600951820611954,-9.800353050231934,0.0,0.0,0.0,0.0,5.969099998474121,4.961804389953613,43.176048278808594,4.127999782562256,0.046000003814697266,1.2960000038146973,2,31,110
233845,0.16908804303091665,0.27236881423434717,-10.086907036092164,0.0,0.0,0.0,0.0,0.0,0.0,-0.0001797899603843689,0.002832142636179924,-0.0002116621471941471,0.045850254595279694,-0.03235400468111038,-9.789459228515625,0.0,0.0,0.0,0.0,5.969099998474121,4.961804389953613,43.176048278808594,4.127999782562256,0.04500000178813934,1.2960000038146973,2,31,111
233850,0.17120260022884384,0.2773125371721141,-10.086821658727539,0.0,0.0,0.0,0.0,0.0,0.0,-0.0012668990530073643,0.001298218034207821,-0.00023528793826699257,0.06783360242843628,-0.027115345001220703,-9.794255256652832,0.0,0.0,0.0,0.0,5.969099998474121,4.961804389953613,43.176048278808594,4.127999782562256,0.04500000178813934,1.2960000038146973,2,31,112
233855,0.17011110398296408,0.290806216207709,-10.087087182331523,0.0,0.0,0.0,0.0,0.0,0.0,0.0007721534930169582,0.002476573921740055,-0.0006003661546856165,0.0566495880484581,-0.022437842562794685,-9.789018630981445,0.0,0.0,0.0,0.0,5.216634750366211,4.961804389953613,42.432010650634766,4.127999782562256,0.04500000178813934,1.2960000038146973,2,31,113
233876,0.1388040914887776,0.26892357076745754,-10.086149738867938,0.0,0.0,0.0,0.0,0.0,0.0,0.0014023669064044952,0.00033860839903354645,0.002263224683701992,0.02833620086312294,0.004403700586408377,-9.783515930175781,0.0,0.0,0.0,0.0,5.216634750366211,4.961804389953613,42.432010650634766,4.127999782562256,0.04500000178813934,1.2950000762939453,2,31,114
233889,0.09166452040562306,0.26402269659456185,-10.085869701111967,0.0,0.0,0.0,0.0,0.0,0.0,0.00060258898884058,0.0019142022356390953,-0.00024197669699788094,0.05636328458786011,0.002766191493719816,-9.797101974487305,0.0,0.0,0.0,0.0,5.216634750366211,4.961804389953613,42.432010650634766,4.127999782562256,0.04500000178813934,1.2950000762939453,2,31,115
233892,0.08352679023658922,0.2692636128025037,-10.085895314321355,0.0,0.0,0.0,0.0,0.0,0.0,-0.0010291486978530884,0.002566578797996044,-0.001254930393770337,0.05996757745742798,-0.01248602569103241,-9.784334182739258,0.0,0.0,0.0,0.0,5.216634750366211,4.961804389953613,42.432010650634766,4.127999782562256,0.04500000178813934,1.2950000762939453,2,31,116
233893,0.08249100272112737,0.27585519891881555,-10.086066069050606,0.0,0.0,0.0,0.0,0.0,0.0,-0.0010292381048202515,0.0025672689080238342,-0.001254930393770337,0.05996757745742798,-0.01248602569103241,-9.784334182739258,0.0,0.0,0.0,0.0,5.216634750366211,4.961804389953613,42.432010650634766,4.127999782562256,0.04500000178813934,1.2950000762939453,2,31,117
233894,0.08249100272112737,0.27585519891881555,-10.086066069050606,0.0,0.0,0.0,0.0,0.0,0.0,0.0009374292567372322,0.0008700434118509293,0.00030182022601366043,0.07568276673555374,-0.005225209053605795,-9.797200202941895,0.0,0.0,0.0,0.0,5.216634750366211,4.961804389953613,42.432010650634766,4.127999782562256,0.04500000178813934,1.2950000762939453,2,31,118
233898,0.07091971511198696,0.30020343592773585,-10.086046432256742,0.0,0.0,0.0,0.0,0.0,0.0,0.0010508550330996513,0.0015130424872040749,-0.000393143855035305,0.07500269263982773,0.004109422210603952,-9.811781883239746,0.0,0.0,0.0,0.0,5.216634750366211,4.961804389953613,42.432010650634766,4.127999782562256,0.04500000178813934,1.2930001020431519,2,31,119
233910,0.09003667421701879,0.30281870468876315,-10.086650903998288,0.0,0.0,0.0,0.0,0.0,0.0,0.003137023188173771,0.00046431180089712143,-0.0007677306421101093,0.042617060244083405,-0.015612557530403137,-9.793225288391113,0.0,0.0,0.0,0.0,5.216634750366211,4.961804389953613,42.432010650634766,4.127999782562256,0.04500000178813934,1.2930001020431519,2,31,120
233921,0.0999702305395569,0.29367641644342174,-10.087020587987114,0.0,0.0,0.0,0.0,0.0,0.0,-4.31891530752182e-05,0.0006511835381388664,-0.0016848144587129354,0.04753837734460831,-0.033839013427495956,-9.783098220825195,0.0,0.0,0.0,0.0,5.216634750366211,4.961804389953613,42.432010650634766,4.127999782562256,0.04500000178813934,1.2930001020431519,2,31,121
233931,0.09948456006686537,0.25989438084981803,-10.087444913489302,0.0,0.0,0.0,0.0,0.0,0.0,0.0022062668576836586,0.0016977577470242977,0.0004174024797976017,0.02436346560716629,-0.01413165032863617,-9.792142868041992,0.0,0.0,0.0,0.0,5.216634750366211,4.961804389953613,42.432010650634766,4.127999782562256,0.04500000178813934,1.2930001020431519,2,31,122
233947,0.11434483722541815,0.25127132038352984,-10.087342460651751,0.0,0.0,0.0,0.0,0.0,0.0,0.0017037519719451666,0.0007177526131272316,0.0006279286462813616,0.04797198623418808,-0.023068441078066826,-9.783683776855469,0.0,0.0,0.0,0.0,5.977801322937012,4.588189601898193,41.68996047973633,4.127999782562256,0.04500000178813934,1.2940000295639038,2,31,123
233950,0.11624000127668513,0.2535314993489958,-10.087246838003372,0.0,0.0,0.0,0.0,0.0,0.0,0.0026530446484684944,0.0014501316472887993,0.0023347395472228527,0.05737476050853729,-0.02484883740544319,-9.7831392288208,0.0,0.0,0.0,0.0,5.977801322937012,4.588189601898193,41.68996047973633,4.127999782562256,0.04500000178813934,1.2940000295639038,2,31,124
233963,0.12155874428856811,0.28346819180073524,-10.087371488955725,0.0,0.0,0.0,0.0,0.0,0.0,0.0010627936571836472,0.0008414853364229202,-0.00021023978479206562,0.05506547540426254,-0.018340695649385452,-9.764946937561035,0.0,0.0,0.0,0.0,5.977801322937012,4.588189601898193,41.68996047973633,4.127999782562256,0.04500000178813934,1.2940000295639038,2,31,125
233971,0.1315276321658265,0.29078545883593454,-10.088026333342398,0.0,0.0,0.0,0.0,0.0,0.0,0.0006724046543240547,0.00015144143253564835,-0.0018003549193963408,0.04892408847808838,-0.03575751930475235,-9.794072151184082,0.0,0.0,0.0,0.0,5.977801322937012,4.588189601898193,41.68996047973633,4.127999782562256,0.046000003814697266,1.2940000295639038,2,31,126
233978,0.12689081417346054,0.2987371597315781,-10.088543720172028,0.0,0.0,0.0,0.0,0.0,0.0,0.0009899395518004894,-0.0013332189992070198,-0.0005934280343353748,0.05435767024755478,-0.014883141964673996,-9.793320655822754,0.0,0.0,0.0,0.0,5.977801322937012,4.588189601898193,41.68996047973633,4.127999782562256,0.046000003814697266,1.2940000295639038,2,31,127
233991,0.11988578816895133,0.3036897138904985,-10.088997927751834,0.0,0.0,0.0,0.0,0.0,0.0,0.0022606118582189083,-0.0031400276347994804,0.0002707319799810648,0.0494273379445076,-0.029285185039043427,-9.779505729675293,0.0,0.0,0.0,0.0,5.977801322937012,4.588189601898193,41.68996047973633,4.127999782562256,0.046000003814697266,1.3020000457763672,2,31,128
233994,0.12423565817489741,0.3025076642772631,-10.088962069258692,0.0,0.0,0.0,0.0,0.0,0.0,0.0015690624713897705,-0.0019988706335425377,-0.0004052366130053997,0.04554704949259758,-0.020955832675099373,-9.77763843536377,0.0,0.0,0.0,0.0,5.977801322937012,4.588189601898193,41.68996047973633,4.127999782562256,0.046000003814697266,1.3020000457763672,2,31,129
233995,0.12423565817489741,0.3025076642772631,-10.088962069258692,0.0,0.0,0.0,0.0,0.0,0.0,0.0015690624713897705,-0.0019988706335425377,-0.0004052366130053997,0.04554704949259758,-0.020955832675099373,-9.77763843536377,0.0,0.0,0.0,0.0,5.977801322937012,4.588189601898193,41.68996047973633,4.127999782562256,0.046000003814697266,1.3020000457763672,2,31,130
234001,0.12386880231127369,0.2926888137781202,-10.089320654190116,0.0,0.0,0.0,0.0,0.0,0.0,0.001736735925078392,0.0010732263326644897,2.4177134037017822e-05,0.037605300545692444,-0.0211791954934597,-9.772719383239746,0.0,0.0,0.0,0.0,5.977801322937012,4.588189601898193,41.68996047973633,4.127999782562256,0.04500000178813934,1.3020000457763672,2,31,131
234010,0.10988886583360546,0.2790007678358709,-10.088666663577088,0.0,0.0,0.0,0.0,0.0,0.0,-0.0017351708374917507,-0.0010924432426691055,0.00025452906265854836,0.03637406602501869,-0.007391962688416243,-9.785655975341797,0.0,0.0,0.0,0.0,5.977801322937012,4.588189601898193,41.68996047973633,4.127999782562256,0.04500000178813934,1.3020000457763672,2,31,132
234022,0.08115481361421056,0.2655621838808857,-10.088517253188995,0.0,0.0,0.0,0.0,0.0,0.0,0.0007342463359236717,-0.0013309773057699203,-0.0010802659671753645,0.04319695755839348,-0.013607213273644447,-9.781407356262207,0.0,0.0,0.0,0.0,5.977801322937012,4.588189601898193,41.68996047973633,4.127999782562256,0.04500000178813934,1.2930001020431519,2,31,133
234043,0.06313365964392943,0.2279236527271635,-10.088692276786475,0.0,0.0,0.0,0.0,0.0,0.0,0.001095278188586235,0.002352283801883459,-0.00015058834105730057,0.02951434627175331,-0.0078057837672531605,-9.789941787719727,0.0,0.0,0.0,0.0,5.977801322937012,5.335479736328125,40.94602966308594,4.127999782562256,0.046000003814697266,1.2930001020431519,2,31,134
234048,0.06273349993799528,0.23485023827792334,-10.088798144718611,0.0,0.0,0.0,0.0,0.0,0.0,-0.0006889295764267445,0.0013289479538798332,-0.001526562962681055,0.05179321765899658,-0.008751947432756424,-9.78307056427002,0.0,0.0,0.0,0.0,5.977801322937012,5.335479736328125,40.94602966308594,4.127999782562256,0.046000003814697266,1.2930001020431519,2,31,135
234061,0.06843139181998668,0.25403968143150063,-10.087947786166945,0.0,0.0,0.0,0.0,0.0,0.0,0.0017897675279527903,-0.0009711114689707756,-2.7735484763979912e-05,0.05145903676748276,-0.006801836658269167,-9.799759864807129,0.0,0.0,0.0,0.0,5.977801322937012,5.335479736328125,40.94602966308594,4.127999782562256,0.046000003814697266,1.2970000505447388,2,31,136
234075,0.07859322587119133,0.26694847215856027,-10.08822440882833,0.0,0.0,0.0,0.0,0.0,0.0,0.0024481937289237976,-0.0033329417929053307,-0.001991474535316229,0.05297601595520973,-0.01682327687740326,-9.781176567077637,0.0,0.0,0.0,0.0,5.977801322937012,5.335479736328125,40.94602966308594,4.127999782562256,0.046000003814697266,1.2970000505447388,2,31,137
234088,0.09206077809918958,0.26990084810772474,-10.08809207391316,0.0,0.0,0.0,0.0,0.0,0.0,0.0033283978700637817,0.0011210432276129723,-0.0024863944854587317,0.051807522773742676,-0.028113603591918945,-9.78654956817627,0.0,0.0,0.0,0.0,5.977801322937012,5.335479736328125,40.94602966308594,4.127999782562256,0.04500000178813934,1.2970000505447388,2,31,138
234089,0.09795934680868978,0.27261635523090727,-10.088443828655416,0.0,0.0,0.0,0.0,0.0,0.0,0.0013322974555194378,0.0009570643305778503,-0.0014777162577956915,0.03950519114732742,-0.024513915181159973,-9.785799026489258,0.0,0.0,0.0,0.0,5.977801322937012,5.335479736328125,40.94602966308594,4.127999782562256,0.04500000178813934,1.2970000505447388,2,31,139
234091,0.10157595865463799,0.26967217017266154,-10.08866154093521,0.0,0.0,0.0,0.0,0.0,0.0,0.0013326797634363174,0.0009567150846123695,-0.0014777162577956915,0.03950519114732742,-0.024513915181159973,-9.785799026489258,0.0,0.0,0.0,0.0,5.977801322937012,5.335479736328125,40.94602966308594,4.127999782562256,0.04500000178813934,1.2970000505447388,2,31,140
234092,0.10157595865463799,0.26967217017266154,-10.08866154093521,0.0,0.0,0.0,0.0,0.0,0.0,0.0018565072678029537,0.0008928198367357254,-0.0004350980743765831,0.04736465960741043,-0.006694163661450148,-9.792753219604492,0.0,0.0,0.0,0.0,5.977801322937012,5.335479736328125,40.94602966308594,4.127999782562256,0.04500000178813934,1.2970000505447388,2,31,141
234093,0.10157595865463799,0.26967217017266154,-10.08866154093521,0.0,0.0,0.0,0.0,0.0,0.0,0.0018565072678029537,0.0008928198367357254,-0.0004350980743765831,0.04736465960741043,-0.006694163661450148,-9.792753219604492,0.0,0.0,0.0,0.0,5.977801322937012,5.335479736328125,40.94602966308594,4.127999782562256,0.04500000178813934,1.2860000133514404,2,31,142
234101,0.08766543797647398,0.265244873569171,-10.088640196594055,0.0,0.0,0.0,0.0,0.0,0.0,0.0008120066486299038,0.0025619519874453545,-0.00036228098906576633,0.04133682698011398,-0.01156197302043438,-9.79570198059082,0.0,0.0,0.0,0.0,5.977801322937012,5.335479736328125,40.94602966308594,4.127999782562256,0.04500000178813934,1.2860000133514404,2,31,143
234103,0.08766543797647398,0.265244873569171,-10.088640196594055,0.0,0.0,0.0,0.0,0.0,0.0,0.0003524334169924259,0.0002163546159863472,-0.0019519849447533488,0.03258699178695679,-0.01313621923327446,-9.791977882385254,0.0,0.0,0.0,0.0,5.977801322937012,5.335479736328125,40.94602966308594,4.127999782562256,0.04500000178813934,1.2860000133514404,2,31,144
234105,0.08684815648349305,0.259632165618713,-10.08892791831284,0.0,0.0,0.0,0.0,0.0,0.0,0.0014740913175046444,0.000603838823735714,-0.0012698392383754253,0.021364789456129074,-0.018232237547636032,-9.784624099731445,0.0,0.0,0.0,0.0,5.977801322937012,5.335479736328125,40.94602966308594,4.127999782562256,0.04500000178813934,1.2860000133514404,2,31,145
234105,0.08684815648349305,0.259632165618713,-10.08892791831284,0.0,0.0,0.0,0.0,0.0,0.0,0.0014740913175046444,0.000603838823735714,-0.0012698392383754253,0.021364789456129074,-0.018232237547636032,-9.784624099731445,0.0,0.0,0.0,0.0,5.977801322937012,5.335479736328125,40.94602966308594,4.127999782562256,0.04500000178813934,1.2860000133514404,2,31,146
234106,0.08848408684131026,0.24950408897706836,-10.08912599379877,0.0,0.0,0.0,0.0,0.0,0.0,0.0014742575585842133,0.0006027026101946831,-0.0012698392383754253,0.021364789456129074,-0.018232237547636032,-9.784624099731445,0.0,0.0,0.0,0.0,5.977801322937012,5.335479736328125,40.94602966308594,4.127999782562256,0.04500000178813934,1.2860000133514404,2,31,147
234115,0.08744127570358667,0.25091889863061306,-10.08902610228216,0.0,0.0,0.0,0.0,0.0,0.0,0.0003272104077041149,0.0012416057288646698,-0.0010077799670398235,0.04661883786320686,-0.021408114582300186,-9.788098335266113,0.0,0.0,0.0,0.0,5.977801322937012,5.335479736328125,40.94602966308594,4.127999782562256,0.04500000178813934,1.2860000133514404,2,31,148
234123,0.11461193497456268,0.2502995392111104,-10.089227592862676,0.0,0.0,0.0,0.0,0.0,0.0,0.002633512718603015,-0.003436085768043995,0.0007077490445226431,0.031930115073919296,-0.04854680970311165,-9.789769172668457,0.0,0.0,0.0,0.0,5.977801322937012,5.335479736328125,40.94602966308594,4.127999782562256,0.04500000178813934,1.2860000133514404,2,31,149
234131,0.13280827929499067,0.24584340106663244,-10.089674970253311,0.0,0.0,0.0,0.0,0.0,0.0,-4.0345825254917145e-05,0.0009496118873357773,-0.0005614282563328743,0.032995399087667465,-0.012761875987052917,-9.771761894226074,0.0,0.0,0.0,0.0,5.977801322937012,5.335479736328125,40.94602966308594,4.127999782562256,0.04500000178813934,1.2960000038146973,2,31,150
234133,0.13280827929499067,0.24584340106663244,-10.089674970253311,0.0,0.0,0.0,0.0,0.0,0.0,-4.0345825254917145e-05,0.0009496118873357773,-0.0005614282563328743,0.032995399087667465,-0.012761875987052917,-9.771761894226074,0.0,0.0,0.0,0.0,5.977801322937012,5.335479736328125,40.94602966308594,4.127999782562256,0.04500000178813934,1.2960000038146973,2,31,151
234135,0.1287008143035139,0.2418475269587634,-10.089764616486168,0.0,0.0,0.0,0.0,0.0,0.0,0.0006735003553330898,0.0008879965171217918,0.0005715820007026196,0.031075678765773773,-0.021183282136917114,-9.78067684173584,0.0,0.0,0.0,0.0,5.977801322937012,5.335479736328125,40.94602966308594,4.127999782562256,0.04500000178813934,1.2960000038146973,2,31,152
234135,0.1287008143035139,0.2418475269587634,-10.089764616486168,0.0,0.0,0.0,0.0,0.0,0.0,0.0006735003553330898,0.0008879965171217918,0.0005715820007026196,0.031075678765773773,-0.021183282136917114,-9.78067684173584,0.0,0.0,0.0,0.0,5.977801322937012,5.335479736328125,40.94602966308594,4.127999782562256,0.04500000178813934,1.2960000038146973,2,31,153
234136,0.1286310983492122,0.23728626793409072,-10.08969375327353,0.0,0.0,0.0,0.0,0.0,0.0,0.0006734598428010941,0.0008874908089637756,0.0005715820007026196,0.031075678765773773,-0.021183282136917114,-9.78067684173584,0.0,0.0,0.0,0.0,5.977801322937012,5.335479736328125,40.94602966308594,4.127999782562256,0.04500000178813934,1.2960000038146973,2,31,154
234149,0.13694736059180518,0.23587004421794444,-10.089387248534525,0.0,0.0,0.0,0.0,0.0,0.0,0.0006157048046588898,0.0003733756020665169,0.0023391232825815678,0.03620845824480057,-0.025473620742559433,-9.787885665893555,0.0,0.0,0.0,0.0,5.592867374420166,4.961804389953613,40.943939208984375,4.127999782562256,0.04500000178813934,1.2960000038146973,2,31,155
234166,0.1177278619378372,0.24007853464415654,-10.088236361659376,0.0,0.0,0.0,0.0,0.0,0.0,0.001321575604379177,0.00024943985044956207,0.0010556983761489391,0.04444834589958191,-0.01225908100605011,-9.776933670043945,0.0,0.0,0.0,0.0,5.592867374420166,4.961804389953613,40.943939208984375,4.127999782562256,0.04500000178813934,1.2960000038146973,2,31,156
234175,0.10276831358258784,0.25017600883666835,-10.087808621062605,0.0,0.0,0.0,0.0,0.0,0.0,0.00023300712928175926,0.00022088363766670227,0.0010259789414703846,0.04345591366291046,-0.017004743218421936,-9.768507957458496,0.0,0.0,0.0,0.0,5.592867374420166,4.961804389953613,40.943939208984375,4.127999782562256,0.04500000178813934,1.2960000038146973,2,31,157
234185,0.10988342969671723,0.2755993069487781,-10.086124979432197,0.0,0.0,0.0,0.0,0.0,0.0,0.002281487686559558,-0.0001269141212105751,0.0011167866177856922,0.06569556146860123,-0.02326277829706669,-9.779370307922363,0.0,0.0,0.0,0.0,5.592867374420166,4.961804389953613,40.943939208984375,4.127999782562256,0.04500000178813934,1.2960000038146973,2,31,158
234192,0.1058003839655446,0.2918660694678246,-10.085966177533994,0.0,0.0,0.0,0.0,0.0,0.0,-6.162840873003006e-05,0.0015036193653941154,-0.0003131711855530739,0.06414889544248581,-0.007327378261834383,-9.783726692199707,0.0,0.0,0.0,0.0,5.592867374420166,4.961804389953613,40.943939208984375,4.127999782562256,0.046000003814697266,1.2960000038146973,2,31,159
234193,0.1058003839655446,0.2918660694678246,-10.085966177533994,0.0,0.0,0.0,0.0,0.0,0.0,1.254398375749588e-05,0.0004576779901981354,-0.0019328820053488016,0.05273900926113129,-0.0002287137322127819,-9.788431167602539,0.0,0.0,0.0,0.0,5.592867374420166,4.961804389953613,40.943939208984375,4.127999782562256,0.046000003814697266,1.2960000038146973,2,31,160
234203,0.08278067878115128,0.31156169367192327,-10.086279512462168,0.0,0.0,0.0,0.0,0.0,0.0,0.000406577717512846,0.002087921369820833,0.0010607913136482239,0.0588560476899147,-0.007793304044753313,-9.784036636352539,0.0,0.0,0.0,0.0,5.592867374420166,4.961804389953613,40.943939208984375,4.127999782562256,0.046000003814697266,1.2980000972747803,2,31,161
234204,0.08278067878115128,0.31156169367192327,-10.086279512462168,0.0,0.0,0.0,0.0,0.0,0.0,-0.0004566381685435772,0.0026362109929323196,-0.0007481737993657589,0.04872091859579086,-0.014186102896928787,-9.783337593078613,0.0,0.0,0.0,0.0,5.592867374420166,4.961804389953613,40.943939208984375,4.127999782562256,0.046000003814697266,1.2980000972747803,2,31,162
234206,0.08264961118623844,0.3102442675749042,-10.086387941715243,0.0,0.0,0.0,0.0,0.0,0.0,-0.0007924125529825687,0.001548747532069683,0.0004989407025277615,0.04725852608680725,-0.01776670478284359,-9.792428016662598,0.0,0.0,0.0,0.0,5.592867374420166,4.961804389953613,40.943939208984375,4.127999782562256,0.046000003814697266,1.2980000972747803,2,31,163
234207,0.08264961118623844,0.3102442675749042,-10.086387941715243,0.0,0.0,0.0,0.0,0.0,0.0,-0.0007924125529825687,0.001548747532069683,0.0004989407025277615,0.04725852608680725,-0.01776670478284359,-9.792428016662598,0.0,0.0,0.0,0.0,5.592867374420166,4.961804389953613,40.943939208984375,4.127999782562256,0.046000003814697266,1.2980000972747803,2,31,164
234216,0.0836362333458681,0.3026454153190005,-10.086068630371544,0.0,0.0,0.0,0.0,0.0,0.0,-0.0009512035176157951,0.0038626007735729218,-0.0012564922217279673,0.048476673662662506,-0.016758117824792862,-9.793128967285156,0.0,0.0,0.0,0.0,5.592867374420166,4.961804389953613,40.943939208984375,4.127999782562256,0.04500000178813934,1.2980000972747803,2,31,165
234223,0.08153287525694135,0.3059490390823182,-10.086557842670846,0.0,0.0,0.0,0.0,0.0,0.0,0.0021461104042828083,-0.0014339610934257507,-0.0012116760481148958,0.0457112118601799,-0.004234388004988432,-9.774529457092285,0.0,0.0,0.0,0.0,5.592867374420166,4.961804389953613,40.943939208984375,4.127999782562256,0.04500000178813934,1.2980000972747803,2,31,166
234225,0.0774034722848199,0.30325223493807385,-10.086736281362914,0.0,0.0,0.0,0.0,0.0,0.0,0.0047712912783026695,-0.000685407780110836,-0.000981870573014021,0.06242993101477623,-0.013246329501271248,-9.77906608581543,0.0,0.0,0.0,0.0,5.592867374420166,4.961804389953613,40.943939208984375,4.127999782562256,0.04500000178813934,1.290000081062317,2,31,167
234242,0.07718412582890596,0.2925156844909163,-10.086119856790319,0.0,0.0,0.0,0.0,0.0,0.0,-0.0009792358614504337,-0.0002817530184984207,0.0010051112622022629,0.02119116485118866,-0.014140769839286804,-9.79538631439209,0.0,0.0,0.0,0.0,5.601600170135498,9.071929931640625,40.94602966308594,4.127999782562256,0.04500000178813934,1.290000081062317,2,31,168
