timestamp_ms,roll_deg,pitch_deg,yaw_deg,pos_x,pos_y,pos_z,vel_x,vel_y,vel_z,gyro_x,gyro_y,gyro_z,accel_x,accel_y,accel_z,throttle,ctrl_roll,ctrl_pitch,ctrl_yaw,mag_x,mag_y,mag_z,voltage,tof_bottom,tof_front,state,sensor_status,heartbeat
439989,0.05187774468053312,-0.012126049547402196,0.17463184878007948,0.0,0.0,0.0,0.0,0.0,0.0,0.0008777002803981304,-0.0006300164386630058,0.00015277951024472713,0.0037356019020080566,-0.011689170263707638,-9.816637992858887,0.0,0.0,0.0,0.0,-14.713643074035645,3.464794635772705,58.82020950317383,4.0879998207092285,0.04500000178813934,1.6170001029968262,2,31,4938
440005,0.059937157792789915,-0.007531916068532184,0.1749184099003159,0.0,0.0,0.0,0.0,0.0,0.0,-0.002297382801771164,0.0001379484310746193,4.76655550301075e-05,-0.004143059253692627,-0.0071832770481705666,-9.830617904663086,0.0,0.0,0.0,0.0,-14.713643074035645,3.464794635772705,58.82020950317383,4.0879998207092285,0.04500000178813934,1.6170001029968262,2,31,4939
440008,0.0503969743427089,-0.008327931594109526,0.17493771318884913,0.0,0.0,0.0,0.0,0.0,0.0,-0.0010563051328063011,-0.00021327007561922073,9.303120896220207e-05,-0.0006648004055023193,0.00703340582549572,-9.822246551513672,0.0,0.0,0.0,0.0,-14.713643074035645,3.464794635772705,58.82020950317383,4.0879998207092285,0.04500000178813934,1.6170001029968262,2,31,4940
440017,0.04532305092388857,-0.005160459297587548,0.17481819821858713,0.0,0.0,0.0,0.0,0.0,0.0,0.0011831880547106266,-0.0013223802670836449,0.00020551052875816822,-0.01068413257598877,0.007583923172205687,-9.814491271972656,0.0,0.0,0.0,0.0,-14.704473495483398,3.8387997150421143,59.94208526611328,4.0879998207092285,0.04500000178813934,1.6170001029968262,2,31,4941
440018,0.038649125676513005,-0.009684522055860439,0.1748443050158639,0.0,0.0,0.0,0.0,0.0,0.0,0.0011696508154273033,-0.0013309819623827934,0.00020551052875816822,-0.01068413257598877,0.007583923172205687,-9.814491271972656,0.0,0.0,0.0,0.0,-14.704473495483398,3.8387997150421143,59.94208526611328,4.0879998207092285,0.04500000178813934,1.6290000677108765,2,31,4942
440025,0.03200384853703314,-0.01419956974816644,0.1758091892980472,0.0,0.0,0.0,0.0,0.0,0.0,9.668106213212013e-05,-0.00014432985335588455,0.0026781188789755106,-0.002738445997238159,0.011426347307860851,-9.810961723327637,0.0,0.0,0.0,0.0,-14.704473495483398,3.8387997150421143,59.94208526611328,4.0879998207092285,0.04500000178813934,1.6290000677108765,2,31,4943
440026,0.024500832372921243,-0.01434737430809379,0.1761927204281993,0.0,0.0,0.0,0.0,0.0,0.0,8.180877193808556e-05,-0.00014459248632192612,0.0026781188789755106,-0.002738445997238159,0.011426347307860851,-9.810961723327637,0.0,0.0,0.0,0.0,-14.704473495483398,3.8387997150421143,59.94208526611328,4.0879998207092285,0.04500000178813934,1.6290000677108765,2,31,4944
440028,0.024500832372921243,-0.01434737430809379,0.1761927204281993,0.0,0.0,0.0,0.0,0.0,0.0,0.0011436319909989834,-0.0003294898197054863,0.0011162369046360254,-0.007253080606460571,0.0016530724242329597,-9.817558288574219,0.0,0.0,0.0,0.0,-14.704473495483398,3.8387997150421143,59.94208526611328,4.0879998207092285,0.04500000178813934,1.6290000677108765,2,31,4945
440028,0.02208536999048995,-0.016487691457753976,0.17635173576981367,0.0,0.0,0.0,0.0,0.0,0.0,0.0011384617537260056,-0.0003337012603878975,0.0011162369046360254,-0.007253080606460571,0.0016530724242329597,-9.817558288574219,0.0,0.0,0.0,0.0,-14.704473495483398,3.8387997150421143,59.94208526611328,4.0879998207092285,0.04500000178813934,1.6290000677108765,2,31,4946
440029,0.02208536999048995,-0.016487691457753976,0.17635173576981367,0.0,0.0,0.0,0.0,0.0,0.0,0.001551494700834155,0.0002446351572871208,0.0011589473579078913,-0.007674604654312134,-0.006981643848121166,-9.825467109680176,0.0,0.0,0.0,0.0,-14.704473495483398,3.8387997150421143,59.94208526611328,4.0879998207092285,0.04500000178813934,1.6290000677108765,2,31,4947
440037,0.02921411980253292,-0.021853658824445243,0.1768892930018348,0.0,0.0,0.0,0.0,0.0,0.0,0.002208927646279335,0.0004719765856862068,0.0003797283861786127,-0.0017803311347961426,-0.0031325966119766235,-9.802582740783691,0.0,0.0,0.0,0.0,-14.704473495483398,3.8387997150421143,59.94208526611328,4.0879998207092285,0.04400000348687172,1.6290000677108765,2,31,4948
440045,0.02737825966914737,-0.01129852443819288,0.17713323214082477,0.0,0.0,0.0,0.0,0.0,0.0,-0.0007616602815687656,-0.00033457204699516296,-0.00041478173807263374,0.004843682050704956,0.012596383690834045,-9.804807662963867,0.0,0.0,0.0,0.0,-14.704473495483398,3.8387997150421143,59.94208526611328,4.0879998207092285,0.04400000348687172,1.6290000677108765,2,31,4949
440056,0.0018180838823846606,-0.009309637051403306,0.17758850693768843,0.0,0.0,0.0,0.0,0.0,0.0,-0.0015366657171398401,-0.0018358994275331497,0.0014242709148675203,-0.017687678337097168,0.010656103491783142,-9.808838844299316,0.0,0.0,0.0,0.0,-14.704473495483398,3.8387997150421143,59.94208526611328,4.0879998207092285,0.04400000348687172,1.6250001192092896,2,31,4950
440065,0.004911533837023961,-0.02602334924049919,0.17857629636597508,0.0,0.0,0.0,0.0,0.0,0.0,-0.0021307007409632206,0.003862056415528059,-0.0012713979231193662,-0.0029204189777374268,0.014320308342576027,-9.819544792175293,0.0,0.0,0.0,0.0,-14.704473495483398,3.8387997150421143,59.94208526611328,4.0879998207092285,0.04400000348687172,1.6250001192092896,2,31,4951
440077,-0.019836363453597967,-0.04477439463446614,0.1778342736858899,0.0,0.0,0.0,0.0,0.0,0.0,0.0006182282231748104,-0.0009207390248775482,-0.0004580968525260687,-0.0030404627323150635,0.010331789031624794,-9.844813346862793,0.0,0.0,0.0,0.0,-14.704473495483398,3.8387997150421143,59.94208526611328,4.0879998207092285,0.04500000178813934,1.6250001192092896,2,31,4952
440078,-0.019836363453597967,-0.04477439463446614,0.1778342736858899,0.0,0.0,0.0,0.0,0.0,0.0,0.0006121709011495113,-0.0009166523814201355,-0.0004580968525260687,-0.0030404627323150635,0.010331789031624794,-9.844813346862793,0.0,0.0,0.0,0.0,-14.704473495483398,3.8387997150421143,59.94208526611328,4.0879998207092285,0.04500000178813934,1.6250001192092896,2,31,4953
440088,-0.017848951827896153,-0.02569060096703255,0.1776165480658825,0.0,0.0,0.0,0.0,0.0,0.0,-0.0005075600929558277,-5.076080560684204e-05,0.0025941513013094664,-0.005331873893737793,0.00747778732329607,-9.816038131713867,0.0,0.0,0.0,0.0,-14.704473495483398,3.8387997150421143,59.94208526611328,4.0879998207092285,0.04500000178813934,1.6250001192092896,2,31,4954
440095,-0.016589538983129187,-0.022276701998636256,0.1781966472378708,0.0,0.0,0.0,0.0,0.0,0.0,-0.00044038635678589344,-0.0003074267879128456,-0.0002169411163777113,0.0018300414085388184,0.004709343425929546,-9.826723098754883,0.0,0.0,0.0,0.0,-14.704473495483398,3.8387997150421143,59.94208526611328,4.0879998207092285,0.04500000178813934,1.6250001192092896,2,31,4955
440110,0.021396391333231443,-0.021652184919196394,0.17911821584772006,0.0,0.0,0.0,0.0,0.0,0.0,-0.0003372025676071644,-0.0010913955047726631,0.002293222350999713,-0.0027461647987365723,0.0076578352600336075,-9.83117961883545,0.0,0.0,0.0,0.0,-14.704473495483398,9.821920394897461,59.94208526611328,4.0879998207092285,0.04500000178813934,1.6290000677108765,2,31,4956
440123,0.019346757618005736,-0.015742343729523028,0.18006068857168925,0.0,0.0,0.0,0.0,0.0,0.0,0.0003720582462847233,-8.760020136833191e-05,-0.0005026976577937603,-0.0010042190551757812,-0.007289490662515163,-9.834692001342773,0.0,0.0,0.0,0.0,-14.704473495483398,9.821920394897461,59.94208526611328,4.0879998207092285,0.04500000178813934,1.6290000677108765,2,31,4957
440133,0.011517104665609838,-0.02732542241962564,0.17960566723887683,0.0,0.0,0.0,0.0,0.0,0.0,-0.0008339122869074345,0.001177930273115635,0.00020746374502778053,-0.018266499042510986,0.0032066479325294495,-9.829099655151367,0.0,0.0,0.0,0.0,-14.704473495483398,9.821920394897461,59.94208526611328,4.0879998207092285,0.04400000348687172,1.6290000677108765,2,31,4958
440135,0.011517104665609838,-0.02732542241962564,0.17960566723887683,0.0,0.0,0.0,0.0,0.0,0.0,0.00011412613093852997,0.00016343872994184494,0.0014557063113898039,-0.01595035195350647,-0.0061114877462387085,-9.829824447631836,0.0,0.0,0.0,0.0,-14.704473495483398,9.821920394897461,59.94208526611328,4.0879998207092285,0.04400000348687172,1.6290000677108765,2,31,4959
440148,0.02113898691651985,-0.03549530917263275,0.18027355835408357,0.0,0.0,0.0,0.0,0.0,0.0,-0.0009228126145899296,0.0010059401392936707,0.00027045211754739285,0.001184016466140747,-0.0028948411345481873,-9.828458786010742,0.0,0.0,0.0,0.0,-14.704473495483398,9.821920394897461,59.94208526611328,4.0879998207092285,0.04400000348687172,1.630000114440918,2,31,4960
440151,0.015802993341413295,-0.030140971136818358,0.1802467978863589,0.0,0.0,0.0,0.0,0.0,0.0,-0.0018705455586314201,9.51150432229042e-05,-0.0004705660976469517,-0.0018953979015350342,0.007328212261199951,-9.829465866088867,0.0,0.0,0.0,0.0,-14.704473495483398,9.821920394897461,59.94208526611328,4.0879998207092285,0.04400000348687172,1.630000114440918,2,31,4961
440154,0.00776218899283882,-0.031761193393565874,0.1804172057700654,0.0,0.0,0.0,0.0,0.0,0.0,-0.000188927398994565,0.0006422977894544601,-0.0001121126115322113,-0.005429625511169434,0.0005842903628945351,-9.844378471374512,0.0,0.0,0.0,0.0,-14.704473495483398,9.821920394897461,59.94208526611328,4.0879998207092285,0.04400000348687172,1.630000114440918,2,31,4962
440169,-0.0024317478646045426,-0.009568010301100195,0.18061380049232806,0.0,0.0,0.0,0.0,0.0,0.0,0.0016884985379874706,-0.0020454013720154762,0.002760405419394374,-0.00034424662590026855,0.006392921321094036,-9.796467781066895,0.0,0.0,0.0,0.0,-14.704473495483398,9.821920394897461,59.94208526611328,4.0879998207092285,0.046000003814697266,1.630000114440918,2,31,4963
440173,-0.005625846392955667,-0.004040605927212988,0.18126631034168905,0.0,0.0,0.0,0.0,0.0,0.0,-0.0008798828348517418,-0.0023623984307050705,0.0017985033337026834,0.010945022106170654,0.0019945683889091015,-9.81154727935791,0.0,0.0,0.0,0.0,-14.704473495483398,9.821920394897461,59.94208526611328,4.0879998207092285,0.046000003814697266,1.630000114440918,2,31,4964
440178,-0.003976971025732483,-0.004062465950986667,0.18098592574017475,0.0,0.0,0.0,0.0,0.0,0.0,-0.0008520078845322132,0.0008195210248231888,-0.001430801348760724,-0.0067528486251831055,-0.0023122234269976616,-9.816505432128906,0.0,0.0,0.0,0.0,-14.704473495483398,9.821920394897461,59.94208526611328,4.0879998207092285,0.046000003814697266,1.630000114440918,2,31,4965
440193,0.0012344857183766433,-0.023447215662487274,0.18205227568412977,0.0,0.0,0.0,0.0,0.0,0.0,0.0005636343266814947,0.0011067148298025131,0.0011969928164035082,-0.001242220401763916,-0.007042025215923786,-9.812339782714844,0.0,0.0,0.0,0.0,-14.704473495483398,9.821920394897461,59.94208526611328,4.0879998207092285,0.046000003814697266,1.627000093460083,2,31,4966
440201,0.004703903840254508,-0.014462338598120203,0.1822132653773011,0.0,0.0,0.0,0.0,0.0,0.0,-0.0003091515973210335,-0.001470521092414856,0.0007370561361312866,0.0015242397785186768,0.010197452269494534,-9.821849822998047,0.0,0.0,0.0,0.0,-15.090187072753906,3.464794635772705,63.684478759765625,4.0879998207092285,0.04400000348687172,1.627000093460083,2,31,4967
440214,-0.02257685012603997,-0.015536602623569576,0.18259424852672765,0.0,0.0,0.0,0.0,0.0,0.0,0.00013234862126410007,-1.1838972568511963e-05,0.0015182348433881998,-0.007759451866149902,-0.0032223928719758987,-9.834932327270508,0.0,0.0,0.0,0.0,-15.090187072753906,3.464794635772705,63.684478759765625,4.0879998207092285,0.04400000348687172,1.627000093460083,2,31,4968
440221,-0.010123287505097707,-0.0234395850605239,0.18290021965720304,0.0,0.0,0.0,0.0,0.0,0.0,0.0006853933446109295,-3.1152740120887756e-06,-0.00020339549519121647,0.0011526644229888916,-0.013567433692514896,-9.830841064453125,0.0,0.0,0.0,0.0,-15.090187072753906,3.464794635772705,63.684478759765625,4.0879998207092285,0.04400000348687172,1.627000093460083,2,31,4969
440231,0.013028817628004067,-0.03122616746700372,0.18313032499508108,0.0,0.0,0.0,0.0,0.0,0.0,-0.00028721150010824203,0.00048761628568172455,0.0008514134678989649,-0.011885792016983032,-0.0052408454939723015,-9.81506633758545,0.0,0.0,0.0,0.0,-15.090187072753906,3.464794635772705,63.684478759765625,4.0879998207092285,0.04400000348687172,1.630000114440918,2,31,4970
440233,0.013028817628004067,-0.03122616746700372,0.18313032499508108,0.0,0.0,0.0,0.0,0.0,0.0,-0.0009763059206306934,-0.00011339876800775528,0.0017061929684132338,-0.010269373655319214,-0.0066286372020840645,-9.821964263916016,0.0,0.0,0.0,0.0,-15.090187072753906,3.464794635772705,63.684478759765625,4.0879998207092285,0.04400000348687172,1.630000114440918,2,31,4971
440234,0.014941157203795245,-0.033317395967057746,0.18337421077321814,0.0,0.0,0.0,0.0,0.0,0.0,-0.0009725075215101242,-0.00011762138456106186,0.0017061929684132338,-0.010269373655319214,-0.0066286372020840645,-9.821964263916016,0.0,0.0,0.0,0.0,-15.090187072753906,3.464794635772705,63.684478759765625,4.0879998207092285,0.04400000348687172,1.630000114440918,2,31,4972
440246,0.022095556910812122,-0.024726630489454997,0.18352077969589572,0.0,0.0,0.0,0.0,0.0,0.0,-0.00016510998830199242,-0.0003904895856976509,0.0010804927442222834,-0.007963031530380249,-0.00316671933978796,-9.82701301574707,0.0,0.0,0.0,0.0,-15.090187072753906,3.464794635772705,63.684478759765625,4.0879998207092285,0.04500000178813934,1.630000114440918,2,31,4973
440254,0.02855537340349031,-0.025433808532602548,0.18389191776796393,0.0,0.0,0.0,0.0,0.0,0.0,-0.001389879733324051,0.00023570843040943146,0.0010853286366909742,-0.0001996159553527832,-0.010108492337167263,-9.829743385314941,0.0,0.0,0.0,0.0,-15.090187072753906,3.464794635772705,63.684478759765625,4.0879998207092285,0.04500000178813934,1.630000114440918,2,31,4974
440255,0.02855537340349031,-0.025433808532602548,0.18389191776796393,0.0,0.0,0.0,0.0,0.0,0.0,-0.001389879733324051,0.00023570843040943146,0.0010853286366909742,-0.0001996159553527832,-0.010108492337167263,-9.829743385314941,0.0,0.0,0.0,0.0,-15.090187072753906,3.464794635772705,63.684478759765625,4.0879998207092285,0.04500000178813934,1.630000114440918,2,31,4975
440256,0.030743611934099673,-0.023401782231304128,0.18404843848970567,0.0,0.0,0.0,0.0,0.0,0.0,-0.0013853879645466805,0.0002392735332250595,0.0010853286366909742,-0.0001996159553527832,-0.010108492337167263,-9.829743385314941,0.0,0.0,0.0,0.0,-15.090187072753906,3.464794635772705,63.684478759765625,4.0879998207092285,0.04500000178813934,1.630000114440918,2,31,4976
440269,0.02645654264942601,-0.033516255190514946,0.18379151932325005,0.0,0.0,0.0,0.0,0.0,0.0,-0.0005753627046942711,0.0006511472165584564,0.0019478590693324804,-0.014073878526687622,0.00425256323069334,-9.827895164489746,0.0,0.0,0.0,0.0,-15.090187072753906,3.464794635772705,63.684478759765625,4.0879998207092285,0.04500000178813934,1.630000114440918,2,31,4977
440272,0.022535710575987872,-0.036954595097061844,0.18406907579956114,0.0,0.0,0.0,0.0,0.0,0.0,0.0008700774051249027,-0.0013627605512738228,0.0014824352692812681,-0.012548506259918213,-0.00025781523436307907,-9.825989723205566,0.0,0.0,0.0,0.0,-15.090187072753906,3.464794635772705,63.684478759765625,4.0879998207092285,0.04500000178813934,1.630000114440918,2,31,4978
440273,0.02111926007621681,-0.03972294947492603,0.18428035809658197,0.0,0.0,0.0,0.0,0.0,0.0,0.0008669761009514332,-0.001368044875562191,0.0014824352692812681,-0.012548506259918213,-0.00025781523436307907,-9.825989723205566,0.0,0.0,0.0,0.0,-15.090187072753906,3.464794635772705,63.684478759765625,4.0879998207092285,0.04500000178813934,1.630000114440918,2,31,4979
440288,0.025028306071272707,-0.049929723369424577,0.18460208401887337,0.0,0.0,0.0,0.0,0.0,0.0,-0.0020685396157205105,0.0015814201906323433,0.0015839457046240568,-0.005514800548553467,-0.011162449605762959,-9.842058181762695,0.0,0.0,0.0,0.0,-15.090187072753906,3.464794635772705,63.684478759765625,4.0879998207092285,0.04400000348687172,1.630000114440918,2,31,4980
440296,0.03748292090153291,-0.036589580182862846,0.18407467868911467,0.0,0.0,0.0,0.0,0.0,0.0,0.0002801935188472271,-0.0015250034630298615,-0.0010375643614679575,0.0005311071872711182,-0.009770131669938564,-9.830111503601074,0.0,0.0,0.0,0.0,-15.090187072753906,3.464794635772705,63.684478759765625,4.0879998207092285,0.04400000348687172,1.630000114440918,2,31,4981
440312,0.03492242372094463,-0.03326422187715214,0.18396919762316294,0.0,0.0,0.0,0.0,0.0,0.0,0.00010484829545021057,-0.0010585375130176544,0.0005210041999816895,-0.023141950368881226,0.01092456839978695,-9.822672843933105,0.0,0.0,0.0,0.0,-14.704473495483398,3.8387997150421143,64.05740356445312,4.0879998207092285,0.04400000348687172,1.6340000629425049,2,31,4982
440325,0.013676727605093223,-0.0556662051532159,0.18357395378580132,0.0,0.0,0.0,0.0,0.0,0.0,0.00031709205359220505,0.00011990126222372055,0.0005859027151018381,-0.01686754822731018,-7.50487670302391e-05,-9.828607559204102,0.0,0.0,0.0,0.0,-14.704473495483398,3.8387997150421143,64.05740356445312,4.0879998207092285,0.04400000348687172,1.6340000629425049,2,31,4983
440332,0.013521611774556519,-0.06260855550095165,0.1843016090562457,0.0,0.0,0.0,0.0,0.0,0.0,-0.0016239057295024395,-0.0011339131742715836,0.0016005293000489473,-0.0060460567474365234,-0.007437576539814472,-9.821344375610352,0.0,0.0,0.0,0.0,-14.704473495483398,3.8387997150421143,64.05740356445312,4.0879998207092285,0.046000003814697266,1.6340000629425049,2,31,4984
440334,0.015658962394301312,-0.06047548875717799,0.18453140756921962,0.0,0.0,0.0,0.0,0.0,0.0,0.00045776902697980404,-0.00013226456940174103,0.001997587503865361,-0.004891395568847656,-0.008912595920264721,-9.825480461120605,0.0,0.0,0.0,0.0,-14.704473495483398,3.8387997150421143,64.05740356445312,4.0879998207092285,0.046000003814697266,1.6340000629425049,2,31,4985
440335,0.015658962394301312,-0.06047548875717799,0.18453140756921962,0.0,0.0,0.0,0.0,0.0,0.0,0.00045776902697980404,-0.00013226456940174103,0.001997587503865361,-0.004891395568847656,-0.008912595920264721,-9.825480461120605,0.0,0.0,0.0,0.0,-14.704473495483398,3.8387997150421143,64.05740356445312,4.0879998207092285,0.046000003814697266,1.6340000629425049,2,31,4986
440341,0.034818229985568876,-0.04546166240937884,0.18535628631363088,0.0,0.0,0.0,0.0,0.0,0.0,-0.0003348151221871376,0.0010841041803359985,0.0015618570614606142,0.008423566818237305,-0.023477524518966675,-9.826481819152832,0.0,0.0,0.0,0.0,-14.704473495483398,3.8387997150421143,64.05740356445312,4.0879998207092285,0.046000003814697266,1.630000114440918,2,31,4987
440344,0.04115321376548917,-0.03985024178949685,0.1857370827000723,0.0,0.0,0.0,0.0,0.0,0.0,-0.0019649467431008816,0.00037109293043613434,-0.00020190631039440632,0.008259713649749756,-0.02180882915854454,-9.834677696228027,0.0,0.0,0.0,0.0,-14.704473495483398,3.8387997150421143,64.05740356445312,4.0879998207092285,0.046000003814697266,1.630000114440918,2,31,4988
440361,0.046471106338779204,-0.03837560127964845,0.18475214807741533,0.0,0.0,0.0,0.0,0.0,0.0,-0.0009147292003035545,5.080178380012512e-05,-0.0006905130576342344,0.007170051336288452,-0.0023841122165322304,-9.822869300842285,0.0,0.0,0.0,0.0,-14.704473495483398,3.8387997150421143,64.05740356445312,4.0879998207092285,0.04400000348687172,1.630000114440918,2,31,4989
440363,0.046471106338779204,-0.03837560127964845,0.18475214807741533,0.0,0.0,0.0,0.0,0.0,0.0,-0.0009147292003035545,5.080178380012512e-05,-0.0006905130576342344,0.007170051336288452,-0.0023841122165322304,-9.822869300842285,0.0,0.0,0.0,0.0,-14.704473495483398,3.8387997150421143,64.05740356445312,4.0879998207092285,0.04400000348687172,1.630000114440918,2,31,4990
440368,0.03909164722953578,-0.03063861111582395,0.18463145916838972,0.0,0.0,0.0,0.0,0.0,0.0,-0.0018070782534778118,0.0007346505299210548,-1.0151416063308716e-06,-0.007263451814651489,-0.0013254471123218536,-9.835524559020996,0.0,0.0,0.0,0.0,-14.704473495483398,3.8387997150421143,64.05740356445312,4.0879998207092285,0.04400000348687172,1.630000114440918,2,31,4991
440370,0.03645266957455847,-0.0312139811822248,0.18463093890007404,0.0,0.0,0.0,0.0,0.0,0.0,-0.0008929255418479443,-0.0006767073646187782,-0.0005761627107858658,0.0028553009033203125,-0.0033820541575551033,-9.821833610534668,0.0,0.0,0.0,0.0,-14.704473495483398,3.8387997150421143,64.05740356445312,4.0879998207092285,0.04400000348687172,1.630000114440918,2,31,4992
440378,0.04007488431006019,-0.019354743403146163,0.18467780306912532,0.0,0.0,0.0,0.0,0.0,0.0,-0.0005362164229154587,0.0016073188744485378,0.0003337657544761896,-0.009900987148284912,-0.005002390593290329,-9.82909107208252,0.0,0.0,0.0,0.0,-14.704473495483398,3.8387997150421143,64.05740356445312,4.0879998207092285,0.04400000348687172,1.6250001192092896,2,31,4993
440389,0.03771834564943348,-0.050477512544987536,0.1846553915109112,0.0,0.0,0.0,0.0,0.0,0.0,0.0003982856869697571,0.00067850761115551,0.001155730104073882,-0.003667771816253662,-0.003894229419529438,-9.824888229370117,0.0,0.0,0.0,0.0,-14.704473495483398,3.8387997150421143,64.05740356445312,4.0879998207092285,0.04400000348687172,1.6250001192092896,2,31,4994
440391,0.036628787069524306,-0.04795848675225527,0.18482257106301786,0.0,0.0,0.0,0.0,0.0,0.0,0.00039610592648386955,0.0006827078759670258,0.001155730104073882,-0.003667771816253662,-0.003894229419529438,-9.824888229370117,0.0,0.0,0.0,0.0,-14.704473495483398,3.8387997150421143,64.05740356445312,4.0879998207092285,0.04500000178813934,1.6250001192092896,2,31,4995
440401,0.036448200603128866,-0.03512776962308136,0.1854214799356501,0.0,0.0,0.0,0.0,0.0,0.0,0.000952625647187233,-0.0018275389447808266,0.0002545691095292568,0.005326211452484131,0.003381602466106415,-9.837841987609863,0.0,0.0,0.0,0.0,-14.704473495483398,3.8387997150421143,64.05740356445312,4.0879998207092285,0.04500000178813934,1.6250001192092896,2,31,4996
440405,0.03230067828639771,-0.030044984967627864,0.18546100698742893,0.0,0.0,0.0,0.0,0.0,0.0,0.0014746261294931173,-0.00036911293864250183,-0.0017772605642676353,-0.0006289482116699219,0.0013615023344755173,-9.831560134887695,0.0,0.0,0.0,0.0,-15.08101749420166,3.090909719467163,58.44559860229492,4.0879998207092285,0.04500000178813934,1.6250001192092896,2,31,4997
440405,0.03230067828639771,-0.030044984967627864,0.18546100698742893,0.0,0.0,0.0,0.0,0.0,0.0,0.0014746261294931173,-0.00036911293864250183,-0.0017772605642676353,-0.0006289482116699219,0.0013615023344755173,-9.831560134887695,0.0,0.0,0.0,0.0,-15.08101749420166,3.090909719467163,58.44559860229492,4.0879998207092285,0.04500000178813934,1.6250001192092896,2,31,4998
440406,0.02946038013862361,-0.02790174797879856,0.18520759629705089,0.0,0.0,0.0,0.0,0.0,0.0,0.0014687723014503717,-0.0003652898594737053,-0.0017772605642676353,-0.0006289482116699219,0.0013615023344755173,-9.831560134887695,0.0,0.0,0.0,0.0,-15.08101749420166,3.090909719467163,58.44559860229492,4.0879998207092285,0.04500000178813934,1.6250001192092896,2,31,4999
440406,0.02946038013862361,-0.02790174797879856,0.18520759629705089,0.0,0.0,0.0,0.0,0.0,0.0,0.0003744768910109997,-0.001102241687476635,-0.0025676109362393618,-0.007125139236450195,0.001283617690205574,-9.816452980041504,0.0,0.0,0.0,0.0,-15.08101749420166,3.090909719467163,58.44559860229492,4.0879998207092285,0.04500000178813934,1.6250001192092896,2,31,5000
440412,0.02422459324266588,-0.027265951749078924,0.1846145037573837,0.0,0.0,0.0,0.0,0.0,0.0,2.5913352146744728e-05,0.0018605869263410568,-0.0005379773210734129,-0.007490634918212891,0.007536987774074078,-9.828580856323242,0.0,0.0,0.0,0.0,-15.08101749420166,3.090909719467163,58.44559860229492,4.0879998207092285,0.04500000178813934,1.6260000467300415,2,31,5001
440413,0.019098122723961407,-0.028137127703479505,0.18453714386090536,0.0,0.0,0.0,0.0,0.0,0.0,1.605483703315258e-05,0.0018581738695502281,-0.0005379773210734129,-0.007490634918212891,0.007536987774074078,-9.828580856323242,0.0,0.0,0.0,0.0,-15.08101749420166,3.090909719467163,58.44559860229492,4.0879998207092285,0.04500000178813934,1.6260000467300415,2,31,5002
440418,0.01157075733566481,-0.029800615606761484,0.1844242456364018,0.0,0.0,0.0,0.0,0.0,0.0,-0.0004472241271287203,0.00024356786161661148,-0.0008811333682388067,-0.010682463645935059,0.0011132527142763138,-9.824926376342773,0.0,0.0,0.0,0.0,-15.08101749420166,3.090909719467163,58.44559860229492,4.0879998207092285,0.04500000178813934,1.6260000467300415,2,31,5003
440428,0.013780165950895241,-0.0281667096263008,0.18476041900961337,0.0,0.0,0.0,0.0,0.0,0.0,0.0001886507961899042,0.001277177594602108,0.0015080270823091269,-0.0018857121467590332,0.005651676096022129,-9.817782402038574,0.0,0.0,0.0,0.0,-15.08101749420166,3.090909719467163,58.44559860229492,4.0879998207092285,0.0430000014603138,1.6260000467300415,2,31,5004
440430,0.009032725074143523,-0.02546638366576568,0.18457624402586104,0.0,0.0,0.0,0.0,0.0,0.0,-0.0014516874216496944,0.002140024211257696,-0.0012896847911179066,0.0005995333194732666,0.007900824770331383,-9.810842514038086,0.0,0.0,0.0,0.0,-15.08101749420166,3.090909719467163,58.44559860229492,4.0879998207092285,0.0430000014603138,1.6260000467300415,2,31,5005
440432,0.009032725074143523,-0.02546638366576568,0.18457624402586104,0.0,0.0,0.0,0.0,0.0,0.0,-0.0014361515641212463,0.0011733854189515114,-0.0004271774087101221,0.004098653793334961,-0.0034822821617126465,-9.823812484741211,0.0,0.0,0.0,0.0,-15.08101749420166,3.090909719467163,58.44559860229492,4.0879998207092285,0.0430000014603138,1.6260000467300415,2,31,5006
440432,0.009032725074143523,-0.02546638366576568,0.18457624402586104,0.0,0.0,0.0,0.0,0.0,0.0,-0.0014361515641212463,0.0011733854189515114,-0.0004271774087101221,0.004098653793334961,-0.0034822821617126465,-9.823812484741211,0.0,0.0,0.0,0.0,-15.08101749420166,3.090909719467163,58.44559860229492,4.0879998207092285,0.0430000014603138,1.6260000467300415,2,31,5007
440436,0.008694182979321605,-0.01551945377947182,0.1846898492816654,0.0,0.0,0.0,0.0,0.0,0.0,0.00023303483612835407,-0.00023414473980665207,0.0005447103176265955,0.0036586523056030273,0.00675861444324255,-9.838813781738281,0.0,0.0,0.0,0.0,-15.08101749420166,3.090909719467163,58.44559860229492,4.0879998207092285,0.0430000014603138,1.628000020980835,2,31,5008
440437,0.008694182979321605,-0.01551945377947182,0.1846898492816654,0.0,0.0,0.0,0.0,0.0,0.0,0.00023303483612835407,-0.00023414473980665207,0.0005447103176265955,0.0036586523056030273,0.00675861444324255,-9.838813781738281,0.0,0.0,0.0,0.0,-15.08101749420166,3.090909719467163,58.44559860229492,4.0879998207092285,0.0430000014603138,1.628000020980835,2,31,5009
440438,0.00529405111097112,-0.012621612621961683,0.18476822303434864,0.0,0.0,0.0,0.0,0.0,0.0,-0.00013825157657265663,0.0015666643157601357,0.000936632277444005,0.011079907417297363,-0.003068462945520878,-9.83842658996582,0.0,0.0,0.0,0.0,-15.08101749420166,3.090909719467163,58.44559860229492,4.0879998207092285,0.0430000014603138,1.628000020980835,2,31,5010
440441,0.006506473471542854,-0.006428550784819194,0.18490302588896385,0.0,0.0,0.0,0.0,0.0,0.0,-0.00013642385601997375,0.0015777619555592537,0.000936632277444005,0.011079907417297363,-0.003068462945520878,-9.83842658996582,0.0,0.0,0.0,0.0,-15.08101749420166,3.090909719467163,58.44559860229492,4.0879998207092285,0.0430000014603138,1.628000020980835,2,31,5011
440454,-0.0037820413288326866,-0.015597990949767049,0.18498402766365196,0.0,0.0,0.0,0.0,0.0,0.0,8.622813038527966e-05,-0.0014973366633057594,0.0010073056910187006,-0.00807046890258789,0.0028329496271908283,-9.824443817138672,0.0,0.0,0.0,0.0,-15.08101749420166,3.090909719467163,58.44559860229492,4.0879998207092285,0.04500000178813934,1.628000020980835,2,31,5012
440457,0.002020238138507865,-0.015254755601180727,0.18533025955763344,0.0,0.0,0.0,0.0,0.0,0.0,0.001397452550008893,0.00023808050900697708,0.0009750740136951208,-0.006583362817764282,0.00817656610161066,-9.827189445495605,0.0,0.0,0.0,0.0,-15.08101749420166,3.090909719467163,58.44559860229492,4.0879998207092285,0.04500000178813934,1.628000020980835,2,31,5013
440463,-0.004054292985979459,-0.018094750259104012,0.18603156790696299,0.0,0.0,0.0,0.0,0.0,0.0,-0.0017423799727112055,0.00039713457226753235,0.0002705163788050413,-0.013709664344787598,-0.001807565800845623,-9.830095291137695,0.0,0.0,0.0,0.0,-15.08101749420166,3.090909719467163,58.44559860229492,4.0879998207092285,0.04500000178813934,1.6370000839233398,2,31,5014
440469,-0.0029364481514582387,-0.022665002255015446,0.18607061471106578,0.0,0.0,0.0,0.0,0.0,0.0,-0.0002648732624948025,0.0004945099353790283,-0.0017710572574287653,-0.015505194664001465,-0.0036520883440971375,-9.829328536987305,0.0,0.0,0.0,0.0,-15.08101749420166,3.090909719467163,58.44559860229492,4.0879998207092285,0.04500000178813934,1.6370000839233398,2,31,5015
440478,-0.0017276198319254434,-0.025648135733291447,0.18531725284974132,0.0,0.0,0.0,0.0,0.0,0.0,-0.0011399062350392342,0.0006075697019696236,0.0010158440563827753,0.00852552056312561,-0.01153950858861208,-9.839827537536621,0.0,0.0,0.0,0.0,-15.08101749420166,3.090909719467163,58.44559860229492,4.0879998207092285,0.04500000178813934,1.6370000839233398,2,31,5016
440492,0.0018871405383360275,-0.004989967620666714,0.18516146583972684,0.0,0.0,0.0,0.0,0.0,0.0,-0.0007264739833772182,-0.00038027577102184296,-0.00111847382504493,0.0077745020389556885,-0.013274515978991985,-9.82129955291748,0.0,0.0,0.0,0.0,-15.08101749420166,3.090909719467163,58.44559860229492,4.0879998207092285,0.0430000014603138,1.6370000839233398,2,31,5017
440494,0.007667921209864071,-0.0011901546265314369,0.18500155670382656,0.0,0.0,0.0,0.0,0.0,0.0,-0.0011551433708518744,-0.0010787257924675941,-0.00036057899706065655,0.00917091965675354,-0.012181860394775867,-9.81808090209961,0.0,0.0,0.0,0.0,-15.08101749420166,3.090909719467163,58.44559860229492,4.0879998207092285,0.0430000014603138,1.6370000839233398,2,31,5018
440513,-0.00012579600903359946,0.009090325613549081,0.18562703928119842,0.0,0.0,0.0,0.0,0.0,0.0,0.0012753147166222334,-0.0005219737067818642,-0.0011999858543276787,-0.0008478760719299316,0.005129084922373295,-9.824932098388672,0.0,0.0,0.0,0.0,-15.834044456481934,4.21274471282959,58.44559860229492,4.0879998207092285,0.0430000014603138,1.6200001239776611,2,31,5019
440525,0.006553265103184735,0.015170040244636742,0.18567327646022821,0.0,0.0,0.0,0.0,0.0,0.0,-0.0026135544758290052,0.00011519622057676315,-0.0004673108924180269,-0.017866015434265137,-0.012353065423667431,-9.822566986083984,0.0,0.0,0.0,0.0,-15.834044456481934,4.21274471282959,58.44559860229492,4.0879998207092285,0.0430000014603138,1.6200001239776611,2,31,5020
440530,0.01030391399213281,0.005913343412525984,0.18564502188862259,0.0,0.0,0.0,0.0,0.0,0.0,-0.0018875310197472572,-0.0021860944107174873,-0.0007575445342808962,-0.024154603481292725,-0.013772898353636265,-9.815629959106445,0.0,0.0,0.0,0.0,-15.834044456481934,4.21274471282959,58.44559860229492,4.0879998207092285,0.046000003814697266,1.6200001239776611,2,31,5021
440540,0.012558791890369424,-0.012794265830306255,0.185121098354515,0.0,0.0,0.0,0.0,0.0,0.0,-0.001087784068658948,-0.0005212211981415749,0.000456865644082427,0.009568274021148682,-0.001377585344016552,-9.812507629394531,0.0,0.0,0.0,0.0,-15.834044456481934,4.21274471282959,58.44559860229492,4.0879998207092285,0.046000003814697266,1.6200001239776611,2,31,5022
440544,0.013141593289298634,-0.0031202285567163476,0.18541103454869676,0.0,0.0,0.0,0.0,0.0,0.0,-0.0011215303093194962,-7.16550275683403e-05,0.001328732119873166,0.0046578049659729,-0.0072475615888834,-9.827132225036621,0.0,0.0,0.0,0.0,-15.834044456481934,4.21274471282959,58.44559860229492,4.0879998207092285,0.046000003814697266,1.6200001239776611,2,31,5023
440556,0.027633066079333846,-0.010506657718927791,0.18550564334087202,0.0,0.0,0.0,0.0,0.0,0.0,0.0006293756887316704,0.00044389069080352783,-0.00022988766431808472,-0.001820981502532959,-0.01456358190625906,-9.823819160461426,0.0,0.0,0.0,0.0,-15.834044456481934,4.21274471282959,58.44559860229492,4.0879998207092285,0.046000003814697266,1.6290000677108765,2,31,5024
440562,0.02905168269622694,-0.004518720836640533,0.1856096836637957,0.0,0.0,0.0,0.0,0.0,0.0,0.0023309208918362856,-0.0012155184522271156,-0.0002961114514619112,0.010073959827423096,0.011227352544665337,-9.813508033752441,0.0,0.0,0.0,0.0,-15.834044456481934,4.21274471282959,58.44559860229492,4.0879998207092285,0.046000003814697266,1.6290000677108765,2,31,5025
440570,0.02206487775545326,-0.0010399568531960224,0.18534897587678484,0.0,0.0,0.0,0.0,0.0,0.0,0.002162754535675049,-0.0016060816124081612,0.0003962363116443157,0.001140683889389038,-0.004233541898429394,-9.822469711303711,0.0,0.0,0.0,0.0,-15.834044456481934,4.21274471282959,58.44559860229492,4.0879998207092285,0.04400000348687172,1.6290000677108765,2,31,5026
440571,0.022603880733082428,-0.0006648380823462451,0.18540585854596636,0.0,0.0,0.0,0.0,0.0,0.0,0.0021630842238664627,-0.0016049565747380257,0.0003962363116443157,0.001140683889389038,-0.004233541898429394,-9.822469711303711,0.0,0.0,0.0,0.0,-15.834044456481934,4.21274471282959,58.44559860229492,4.0879998207092285,0.04400000348687172,1.6290000677108765,2,31,5027
440571,0.022603880733082428,-0.0006648380823462451,0.18540585854596636,0.0,0.0,0.0,0.0,0.0,0.0,0.0021630842238664627,-0.0016049565747380257,0.0003962363116443157,0.001140683889389038,-0.004233541898429394,-9.822469711303711,0.0,0.0,0.0,0.0,-15.834044456481934,4.21274471282959,58.44559860229492,4.0879998207092285,0.04400000348687172,1.6290000677108765,2,31,5028
440573,0.022603880733082428,-0.0006648380823462451,0.18540585854596636,0.0,0.0,0.0,0.0,0.0,0.0,0.0006302574183791876,-0.0015538185834884644,0.0008788781706243753,0.0012410283088684082,-0.003957304172217846,-9.836647033691406,0.0,0.0,0.0,0.0,-15.834044456481934,4.21274471282959,58.44559860229492,4.0879998207092285,0.04400000348687172,1.6290000677108765,2,31,5029
440574,0.02283082444042668,-0.0002680690313095906,0.18553191022070747,0.0,0.0,0.0,0.0,0.0,0.0,0.0006303081754595041,-0.0015526646748185158,0.0008788781706243753,0.0012410283088684082,-0.003957304172217846,-9.836647033691406,0.0,0.0,0.0,0.0,-15.834044456481934,4.21274471282959,58.44559860229492,4.0879998207092285,0.04400000348687172,1.6290000677108765,2,31,5030
440585,0.00844023784665132,-0.008415923640526332,0.18568482908487907,0.0,0.0,0.0,0.0,0.0,0.0,-0.0005271486006677151,-0.001176999881863594,0.0007031492423266172,0.00496441125869751,0.016515271738171577,-9.835966110229492,0.0,0.0,0.0,0.0,-15.834044456481934,4.21274471282959,58.44559860229492,4.0879998207092285,0.04400000348687172,1.6120001077651978,2,31,5031
440587,0.0005923721160429488,-0.00566579824714928,0.18578574779790866,0.0,0.0,0.0,0.0,0.0,0.0,-0.0004481556825339794,-0.0013905493542551994,0.0009982625488191843,0.009704113006591797,0.009771231561899185,-9.841045379638672,0.0,0.0,0.0,0.0,-15.834044456481934,4.21274471282959,58.44559860229492,4.0879998207092285,0.04400000348687172,1.6120001077651978,2,31,5032
440588,0.0005923721160429488,-0.00566579824714928,0.18578574779790866,0.0,0.0,0.0,0.0,0.0,0.0,-0.0004481556825339794,-0.0013905493542551994,0.0009982625488191843,0.009704113006591797,0.009771231561899185,-9.841045379638672,0.0,0.0,0.0,0.0,-15.834044456481934,4.21274471282959,58.44559860229492,4.0879998207092285,0.04400000348687172,1.6120001077651978,2,31,5033
440588,-0.0035380529978064805,-0.001060113811155078,0.1859285948010971,0.0,0.0,0.0,0.0,0.0,0.0,-0.00045630824752151966,-0.0013816934078931808,0.0009982625488191843,0.009704113006591797,0.009771231561899185,-9.841045379638672,0.0,0.0,0.0,0.0,-15.834044456481934,4.21274471282959,58.44559860229492,4.0879998207092285,0.04400000348687172,1.6120001077651978,2,31,5034
440589,-0.0035380529978064805,-0.001060113811155078,0.1859285948010971,0.0,0.0,0.0,0.0,0.0,0.0,-0.0010700651910156012,0.0011342009529471397,0.0011130569037050009,-0.004498302936553955,-0.0024346699938178062,-9.850211143493652,0.0,0.0,0.0,0.0,-15.834044456481934,4.21274471282959,58.44559860229492,4.0879998207092285,0.04400000348687172,1.6120001077651978,2,31,5035
440597,0.0004448213849382863,-0.0011354494344972797,0.18619980133591424,0.0,0.0,0.0,0.0,0.0,0.0,-0.0012300859671086073,-0.0003120424225926399,-0.0004700103309005499,-0.00256955623626709,0.004620963707566261,-9.837300300598145,0.0,0.0,0.0,0.0,-15.834044456481934,4.21274471282959,58.44559860229492,4.0879998207092285,0.04500000178813934,1.6120001077651978,2,31,5036
440607,-0.009001613195618251,-0.005804189619121374,0.18543874217156026,0.0,0.0,0.0,0.0,0.0,0.0,0.0015035048127174377,-0.0005856454372406006,-0.001475652912631631,0.0009665489196777344,-0.00870950985699892,-9.823346138000488,0.0,0.0,0.0,0.0,-14.695241928100586,3.4649152755737305,58.071102142333984,4.0879998207092285,0.04500000178813934,1.6120001077651978,2,31,5037
440622,0.014593851422649351,0.0016731055716930358,0.18546608960866676,0.0,0.0,0.0,0.0,0.0,0.0,0.001251565059646964,0.0013851113617420197,0.00015997840091586113,0.004789948463439941,0.01091975998133421,-9.79801082611084,0.0,0.0,0.0,0.0,-14.695241928100586,3.4649152755737305,58.071102142333984,4.0879998207092285,0.04500000178813934,1.627000093460083,2,31,5038
440626,0.0042652392763797365,0.004222487644936013,0.1852296743499344,0.0,0.0,0.0,0.0,0.0,0.0,0.0008943569846451283,0.0009157955646514893,-0.0018140547908842564,0.0011778473854064941,0.008744331076741219,-9.807144165039062,0.0,0.0,0.0,0.0,-14.695241928100586,3.4649152755737305,58.071102142333984,4.0879998207092285,0.04500000178813934,1.627000093460083,2,31,5039
440636,-0.0021069601549377043,0.005512249891666241,0.18518039560228983,0.0,0.0,0.0,0.0,0.0,0.0,9.961333125829697e-05,-0.0018081078305840492,-0.0005062974523752928,0.0034532546997070312,0.0010912069119513035,-9.810989379882812,0.0,0.0,0.0,0.0,-14.695241928100586,3.4649152755737305,58.071102142333984,4.0879998207092285,0.04400000348687172,1.627000093460083,2,31,5040
440642,0.00815803980990205,0.003936089942311576,0.18481486041977513,0.0,0.0,0.0,0.0,0.0,0.0,-0.003357966197654605,0.0005700904875993729,-0.0003647825215011835,0.0004687011241912842,-0.010130065493285656,-9.844583511352539,0.0,0.0,0.0,0.0,-14.695241928100586,3.4649152755737305,58.071102142333984,4.0879998207092285,0.04400000348687172,1.627000093460083,2,31,5041
440644,0.011875398613634588,0.0038692104508463174,0.18476259346436869,0.0,0.0,0.0,0.0,0.0,0.0,-0.0034811138175427914,-0.0013537527993321419,0.000582853564992547,-0.004403203725814819,-0.0009385161101818085,-9.818479537963867,0.0,0.0,0.0,0.0,-14.695241928100586,3.4649152755737305,58.071102142333984,4.0879998207092285,0.04400000348687172,1.627000093460083,2,31,5042
440645,0.011875398613634588,0.0038692104508463174,0.18476259346436869,0.0,0.0,0.0,0.0,0.0,0.0,-0.0034811138175427914,-0.0013537527993321419,0.000582853564992547,-0.004403203725814819,-0.0009385161101818085,-9.818479537963867,0.0,0.0,0.0,0.0,-14.695241928100586,3.4649152755737305,58.071102142333984,4.0879998207092285,0.04400000348687172,1.627000093460083,2,31,5043
440656,0.0015257777159475665,0.0034235454016421124,0.18464984198221057,0.0,0.0,0.0,0.0,0.0,0.0,0.001169054303318262,-0.0020171096548438072,0.0014334914740175009,0.007937103509902954,-0.013335601426661015,-9.805488586425781,0.0,0.0,0.0,0.0,-14.695241928100586,3.4649152755737305,58.071102142333984,4.0879998207092285,0.04400000348687172,1.6100001335144043,2,31,5044
440667,0.0021574451496747834,0.013699884547721145,0.18515046016381814,0.0,0.0,0.0,0.0,0.0,0.0,0.002042891224846244,-2.863258123397827e-05,0.001550845568999648,0.009260624647140503,0.007673588581383228,-9.836284637451172,0.0,0.0,0.0,0.0,-14.695241928100586,3.4649152755737305,58.071102142333984,4.0879998207092285,0.04400000348687172,1.6100001335144043,2,31,5045
440673,-0.0016675362411133982,0.014675788679789713,0.185562912876237,0.0,0.0,0.0,0.0,0.0,0.0,-3.0050519853830338e-05,-0.0011604679748415947,0.0012413209769874811,0.011303097009658813,-0.00744218286126852,-9.831684112548828,0.0,0.0,0.0,0.0,-14.695241928100586,3.4649152755737305,58.071102142333984,4.0879998207092285,0.04400000348687172,1.6100001335144043,2,31,5046
440687,0.029331510343839205,0.008075557271546213,0.18560081242200263,0.0,0.0,0.0,0.0,0.0,0.0,-0.0018522008322179317,-0.0006718970835208893,0.00020864070393145084,-0.018537312746047974,-0.01860029250383377,-9.832752227783203,0.0,0.0,0.0,0.0,-14.695241928100586,3.4649152755737305,58.071102142333984,4.0879998207092285,0.04500000178813934,1.6100001335144043,2,31,5047
440693,0.0371456036050375,-0.007608408851151037,0.18555061319964566,0.0,0.0,0.0,0.0,0.0,0.0,-0.00015768175944685936,0.0001491820439696312,0.0005323525983840227,-0.006772935390472412,-0.010880201123654842,-9.8255615234375,0.0,0.0,0.0,0.0,-14.695241928100586,3.4649152755737305,58.071102142333984,4.0879998207092285,0.04500000178813934,1.6100001335144043,2,31,5048
440707,0.024141862242838767,-0.027982487951802186,0.18591433411316208,0.0,0.0,0.0,0.0,0.0,0.0,0.0014328034594655037,-0.001074599102139473,2.223718911409378e-05,0.0004971027374267578,-0.0020421529188752174,-9.822243690490723,0.0,0.0,0.0,0.0,-15.08101749420166,4.21274471282959,58.07148361206055,4.0879998207092285,0.04500000178813934,1.627000093460083,2,31,5049
440715,0.015362542856493338,-0.023492228876953906,0.18581703059791585,0.0,0.0,0.0,0.0,0.0,0.0,-0.0006134428549557924,-0.0018292926251888275,0.0013181713875383139,-0.0014195740222930908,-0.011930285952985287,-9.829704284667969,0.0,0.0,0.0,0.0,-15.08101749420166,4.21274471282959,58.07148361206055,4.0879998207092285,0.04500000178813934,1.627000093460083,2,31,5050
440716,0.01952540141585062,-0.022450786778612286,0.186006168140987,0.0,0.0,0.0,0.0,0.0,0.0,-0.000605850713327527,-0.0018271273002028465,0.0013181713875383139,-0.0014195740222930908,-0.011930285952985287,-9.829704284667969,0.0,0.0,0.0,0.0,-15.08101749420166,4.21274471282959,58.07148361206055,4.0879998207092285,0.04500000178813934,1.627000093460083,2,31,5051
440729,0.03647002185690787,-0.006625148425253489,0.18572593028181814,0.0,0.0,0.0,0.0,0.0,0.0,0.001745973015204072,-0.001525607891380787,0.0002341107465326786,0.006446361541748047,-0.01172132883220911,-9.805314064025879,0.0,0.0,0.0,0.0,-15.08101749420166,4.21274471282959,58.07148361206055,4.0879998207092285,0.04400000348687172,1.627000093460083,2,31,5052
440735,0.043936849357599936,-0.0075282967019322045,0.18578233270332364,0.0,0.0,0.0,0.0,0.0,0.0,0.001659757923334837,2.5008805096149445e-05,0.0020896627102047205,-0.0036560893058776855,-0.010872418992221355,-9.828836441040039,0.0,0.0,0.0,0.0,-15.08101749420166,4.21274471282959,58.07148361206055,4.0879998207092285,0.04400000348687172,1.627000093460083,2,31,5053
440747,0.036638428708630995,-0.006187160043436442,0.1868828069127023,0.0,0.0,0.0,0.0,0.0,0.0,-0.001622441690415144,-0.0006463080644607544,-0.0028805856127291918,-0.003004014492034912,-0.00849819090217352,-9.800101280212402,0.0,0.0,0.0,0.0,-15.08101749420166,4.21274471282959,58.07148361206055,4.0879998207092285,0.04400000348687172,1.6050000190734863,2,31,5054
440753,0.038519108623391446,-0.006707513819861965,0.1862269086491827,0.0,0.0,0.0,0.0,0.0,0.0,-0.0003754044882953167,-0.0017900103703141212,0.0007151828613132238,-0.0183771550655365,-0.002696479670703411,-9.802462577819824,0.0,0.0,0.0,0.0,-15.08101749420166,4.21274471282959,58.07148361206055,4.0879998207092285,0.04400000348687172,1.6050000190734863,2,31,5055
440755,0.036744563445030645,-0.014614495402611451,0.18632415880357606,0.0,0.0,0.0,0.0,0.0,0.0,-0.0009973966516554356,-0.0009921863675117493,0.0016532011795789003,-0.009690910577774048,0.01060002762824297,-9.821226119995117,0.0,0.0,0.0,0.0,-15.08101749420166,4.21274471282959,58.07148361206055,4.0879998207092285,0.04400000348687172,1.6050000190734863,2,31,5056
440755,0.036744563445030645,-0.014614495402611451,0.18632415880357606,0.0,0.0,0.0,0.0,0.0,0.0,-0.0009973966516554356,-0.0009921863675117493,0.0016532011795789003,-0.009690910577774048,0.01060002762824297,-9.821226119995117,0.0,0.0,0.0,0.0,-15.08101749420166,4.21274471282959,58.07148361206055,4.0879998207092285,0.04400000348687172,1.6050000190734863,2,31,5057
440768,0.0029271454371437348,-0.0062672767783535695,0.18687260164958694,0.0,0.0,0.0,0.0,0.0,0.0,0.000610933406278491,-0.0017808135598897934,0.0008879804518073797,-0.004527449607849121,0.010515529662370682,-9.822254180908203,0.0,0.0,0.0,0.0,-15.08101749420166,4.21274471282959,58.07148361206055,4.0879998207092285,0.04500000178813934,1.6050000190734863,2,31,5058
440772,0.0012993524009515148,-0.0072420465754165445,0.18693271265036834,0.0,0.0,0.0,0.0,0.0,0.0,-0.0002402719110250473,-0.0006615873426198959,0.0008880828972905874,-0.005285322666168213,-0.013462166301906109,-9.824752807617188,0.0,0.0,0.0,0.0,-15.08101749420166,4.21274471282959,58.07148361206055,4.0879998207092285,0.04500000178813934,1.6050000190734863,2,31,5059
440786,0.02353342178785889,-0.020500694399400922,0.18709288859053305,0.0,0.0,0.0,0.0,0.0,0.0,-0.0005057391244918108,-0.0003132941201329231,-8.747237734496593e-05,0.00012442469596862793,0.0008573718369007111,-9.830510139465332,0.00341796875,0.0,0.0,0.0,-15.08101749420166,4.21274471282959,58.07148361206055,4.0879998207092285,0.04500000178813934,1.6250001192092896,2,31,5060
440787,0.021359569009683537,-0.018810746183191757,0.18708098912033844,0.0,0.0,0.0,0.0,0.0,0.0,-0.001065877266228199,-0.0004161391407251358,0.0013409808743745089,-0.001435309648513794,-0.0032130302861332893,-9.825346946716309,0.00341796875,0.0,0.0,0.0,-15.08101749420166,4.21274471282959,58.07148361206055,4.0879998207092285,0.04500000178813934,1.6250001192092896,2,31,5061
440792,0.021992490423453685,-0.01527779581694295,0.18735978623647925,0.0,0.0,0.0,0.0,0.0,0.0,-0.0008593245875090361,0.00018331501632928848,0.0009566263761371374,-0.008276283740997314,-0.005716218613088131,-9.82858943939209,0.00341796875,0.0,0.0,0.0,-15.08101749420166,4.21274471282959,58.07148361206055,4.0879998207092285,0.04500000178813934,1.6250001192092896,2,31,5062
440805,0.011682179799080601,-0.02455394142928739,0.18763520827867472,0.0,0.0,0.0,0.0,0.0,0.0,-0.0014503186102956533,0.0019994517788290977,-0.0018089734949171543,-0.0005280077457427979,0.005882450845092535,-9.850119590759277,0.00341796875,0.0,0.0,0.0,-14.686009407043457,3.8389058113098145,57.696712493896484,4.0879998207092285,0.04400000348687172,1.6250001192092896,2,31,5063
440821,0.02035832931141512,-0.004196483817430039,0.18794195314151704,0.0,0.0,0.0,0.0,0.0,0.0,0.0025647697038948536,-0.0006566271185874939,0.0006759392563253641,0.0013895034790039062,0.0026755589060485363,-9.810824394226074,0.0029296875,0.0,0.0,0.0,-14.686009407043457,3.8389058113098145,57.696712493896484,4.0879998207092285,0.04400000348687172,1.600000023841858,2,31,5064
440829,0.021632386375247285,-0.006275569388398119,0.18833837091764224,0.0,0.0,0.0,0.0,0.0,0.0,6.696092896163464e-05,-0.002574695274233818,0.0011561086867004633,0.0022347569465637207,-0.0149435019120574,-9.805431365966797,0.0029296875,0.0,0.0,0.0,-14.686009407043457,3.8389058113098145,57.696712493896484,4.0879998207092285,0.04400000348687172,1.600000023841858,2,31,5065
440833,0.03182447603004097,-0.008224418209608132,0.18876427056498957,0.0,0.0,0.0,0.0,0.0,0.0,0.0010252478532493114,0.00011924002319574356,0.001434534089639783,-0.0068311989307403564,-0.017024468630552292,-9.822805404663086,0.0029296875,0.0,0.0,0.0,-14.686009407043457,3.8389058113098145,57.696712493896484,4.0879998207092285,0.04400000348687172,1.600000023841858,2,31,5066
440848,0.0388997982881271,-0.018351380943448688,0.18908238128949761,0.0,0.0,0.0,0.0,0.0,0.0,-0.0006347591988742352,-0.0005378387868404388,-0.0015276353806257248,-0.0074714720249176025,-0.00410821195691824,-9.79682445526123,0.00244140625,0.0,0.0,0.0,-14.686009407043457,3.8389058113098145,57.696712493896484,4.0879998207092285,0.04500000178813934,1.600000023841858,2,31,5067
440851,0.03406697254288028,-0.022743476059297867,0.188786281916807,0.0,0.0,0.0,0.0,0.0,0.0,-0.0011046286672353745,0.00013819802552461624,-0.0005197364371269941,-0.00885048508644104,0.0013807485811412334,-9.814908027648926,0.00244140625,0.0,0.0,0.0,-14.686009407043457,3.8389058113098145,57.696712493896484,4.0879998207092285,0.04500000178813934,1.600000023841858,2,31,5068
440855,0.032603991379388506,-0.022234443538200106,0.18876828596916959,0.0,0.0,0.0,0.0,0.0,0.0,-0.000706071499735117,0.0014113201759755611,-0.0012756912037730217,0.009288698434829712,-0.014810810796916485,-9.828728675842285,0.00244140625,0.0,0.0,0.0,-14.686009407043457,3.8389058113098145,57.696712493896484,4.0879998207092285,0.04500000178813934,1.600000023841858,2,31,5069
440866,0.0535508808930284,-0.00649534273113518,0.18887600819094275,0.0,0.0,0.0,0.0,0.0,0.0,-0.00011526746675372124,0.0017320509068667889,-0.0006655682809650898,0.006111592054367065,-0.002078675664961338,-9.806853294372559,0.0,0.0,0.0,0.0,-14.686009407043457,3.8389058113098145,57.696712493896484,4.0879998207092285,0.04500000178813934,1.6260000467300415,2,31,5070
440875,0.044502554439520954,0.002021523801557201,0.1887618826668227,0.0,0.0,0.0,0.0,0.0,0.0,-0.0012619802728295326,0.0004154061898589134,0.0016890668775886297,0.0052589476108551025,-0.008908380754292011,-9.809713363647461,0.0,0.0,0.0,0.0,-14.686009407043457,3.8389058113098145,57.696712493896484,4.0879998207092285,0.04400000348687172,1.6260000467300415,2,31,5071
440886,0.045403855930431655,0.012443356524063585,0.18974004046116258,0.0,0.0,0.0,0.0,0.0,0.0,-0.0013609682209789753,-4.816614091396332e-05,0.00021465937606990337,0.008910596370697021,0.005773128941655159,-9.824485778808594,0.0,0.0,0.0,0.0,-14.686009407043457,3.8389058113098145,57.696712493896484,4.0879998207092285,0.04400000348687172,1.6260000467300415,2,31,5072
440888,0.03915756122306905,0.015385869886839848,0.18977296410739616,0.0,0.0,0.0,0.0,0.0,0.0,-0.0013718022964894772,-4.2747706174850464e-05,0.00021465937606990337,0.008910596370697021,0.005773128941655159,-9.824485778808594,0.0,0.0,0.0,0.0,-14.686009407043457,3.8389058113098145,57.696712493896484,4.0879998207092285,0.04400000348687172,1.6260000467300415,2,31,5073
440902,0.01671931924746604,-0.0019011554745306121,0.18933803313569708,0.0,0.0,0.0,0.0,0.0,0.0,0.0002935712691396475,-0.0018037669360637665,0.0010532892774790525,-0.011553913354873657,-0.008733212016522884,-9.81110954284668,0.0,0.0,0.0,0.0,-16.201324462890625,12.81335163116455,56.94890213012695,4.0879998207092285,0.04400000348687172,1.600000023841858,2,31,5074
440913,0.016641972691200935,-0.03229187708072405,0.19055427371542213,0.0,0.0,0.0,0.0,0.0,0.0,-0.001185539411380887,-0.0028710011392831802,0.0050783902406692505,-0.016763240098953247,-0.008921860717236996,-9.828523635864258,0.0,0.0,0.0,0.0,-16.201324462890625,12.81335163116455,56.94890213012695,4.0879998207092285,0.04400000348687172,1.600000023841858,2,31,5075
440923,0.027923730982662886,-0.03567165011617007,0.19174820945863888,0.0,0.0,0.0,0.0,0.0,0.0,-0.0013882778584957123,-0.0011519994586706161,0.0010747101623564959,-0.01769357919692993,-0.001658228226006031,-9.817727088928223,0.0,0.0,0.0,0.0,-16.201324462890625,12.81335163116455,56.94890213012695,4.0879998207092285,0.04400000348687172,1.600000023841858,2,31,5076
440933,0.01704980802231809,-0.029474003831377275,0.1917717415947637,0.0,0.0,0.0,0.0,0.0,0.0,-0.000543507281690836,-0.0010401764884591103,-0.0006712933536618948,0.008962124586105347,-0.010802126489579678,-9.8229341506958,0.0,0.0,0.0,0.0,-16.201324462890625,12.81335163116455,56.94890213012695,4.0879998207092285,0.04500000178813934,1.600000023841858,2,31,5077
440948,0.034459848492394855,-0.047070758928298644,0.19086105859890415,0.0,0.0,0.0,0.0,0.0,0.0,-0.0006270664744079113,0.0008644675835967064,-0.0009332241024821997,-0.012906968593597412,-0.017066817730665207,-9.825844764709473,0.0,0.0,0.0,0.0,-16.201324462890625,12.81335163116455,56.94890213012695,4.0879998207092285,0.04500000178813934,1.621000051498413,2,31,5078
440951,0.04767023475999287,-0.04605505843889684,0.1906870621978407,0.0,0.0,0.0,0.0,0.0,0.0,-0.0010741683654487133,1.2267380952835083e-05,-0.00028851977549493313,-0.002412766218185425,-0.02589520812034607,-9.825894355773926,0.0,0.0,0.0,0.0,-16.201324462890625,12.81335163116455,56.94890213012695,4.0879998207092285,0.04500000178813934,1.621000051498413,2,31,5079
440952,0.04767023475999287,-0.04605505843889684,0.1906870621978407,0.0,0.0,0.0,0.0,0.0,0.0,-0.0006072120741009712,-0.00031956564635038376,-0.0019885136280208826,0.003465026617050171,-0.024518556892871857,-9.835404396057129,0.0,0.0,0.0,0.0,-16.201324462890625,12.81335163116455,56.94890213012695,4.0879998207092285,0.04500000178813934,1.621000051498413,2,31,5080
440953,0.04767023475999287,-0.04605505843889684,0.1906870621978407,0.0,0.0,0.0,0.0,0.0,0.0,-0.0006072120741009712,-0.00031956564635038376,-0.0019885136280208826,0.003465026617050171,-0.024518556892871857,-9.835404396057129,0.0,0.0,0.0,0.0,-16.201324462890625,12.81335163116455,56.94890213012695,4.0879998207092285,0.04500000178813934,1.621000051498413,2,31,5081
440956,0.06086482955018855,-0.03121475157953841,0.19022332970579386,0.0,0.0,0.0,0.0,0.0,0.0,-0.0025342321023344994,-0.0004730224609375,-0.0004503547679632902,0.0011425614356994629,-0.010672765783965588,-9.826687812805176,0.0,0.0,0.0,0.0,-16.201324462890625,12.81335163116455,56.94890213012695,4.0879998207092285,0.04400000348687172,1.621000051498413,2,31,5082
440957,0.056812232855696684,-0.028632683274169055,0.19024028511679988,0.0,0.0,0.0,0.0,0.0,0.0,-0.0013899104669690132,0.00040719565004110336,0.0015887792687863111,-0.01126149296760559,0.01234134566038847,-9.847637176513672,0.0,0.0,0.0,0.0,-16.201324462890625,12.81335163116455,56.94890213012695,4.0879998207092285,0.04400000348687172,1.621000051498413,2,31,5083
440970,0.03700683203698856,-0.05234560930362569,0.19047023037211924,0.0,0.0,0.0,0.0,0.0,0.0,-0.0023920307867228985,-0.0009452709928154945,0.00010985718108713627,-0.024846047163009644,-0.006569060496985912,-9.838695526123047,0.0,0.0,0.0,0.0,-16.201324462890625,12.81335163116455,56.94890213012695,4.0879998207092285,0.04400000348687172,1.6040000915527344,2,31,5084
440987,0.023396192681963825,-0.03993421843173363,0.1902205949620832,0.0,0.0,0.0,0.0,0.0,0.0,-0.00032479455694556236,-0.000684564933180809,0.0016452160198241472,-0.006254732608795166,0.01642036810517311,-9.819119453430176,0.0,0.0,0.0,0.0,-16.577838897705078,3.4649152755737305,59.56736373901367,4.0879998207092285,0.04400000348687172,1.6040000915527344,2,31,5085
440993,0.017404152433465603,-0.03322695599151458,0.1907981594935592,0.0,0.0,0.0,0.0,0.0,0.0,-0.0003516965080052614,0.0007208455353975296,0.0013647119048982859,-0.003954708576202393,0.014985932037234306,-9.816859245300293,0.0,0.0,0.0,0.0,-16.577838897705078,3.4649152755737305,59.56736373901367,4.0879998207092285,0.04500000178813934,1.6040000915527344,2,31,5086
441007,-0.0012693155560152428,-0.03760779196740382,0.1922154637669765,0.0,0.0,0.0,0.0,0.0,0.0,-0.00026815873570740223,-0.001454838551580906,0.0009632955770939589,-0.003240138292312622,-0.010160236619412899,-9.80920124053955,0.0,0.0,0.0,0.0,-16.577838897705078,3.4649152755737305,59.56736373901367,4.0879998207092285,0.04500000178813934,1.6040000915527344,2,31,5087
441012,0.007168743771284565,-0.03100043771906273,0.1924183150492406,0.0,0.0,0.0,0.0,0.0,0.0,-0.00025276467204093933,0.0016249604523181915,-0.0006415662355720997,0.01347455382347107,-0.0012929057702422142,-9.825778007507324,0.0,0.0,0.0,0.0,-16.577838897705078,3.4649152755737305,59.56736373901367,4.0879998207092285,0.04500000178813934,1.628000020980835,2,31,5088
441028,0.026804422059740478,0.009112656296720523,0.19209244032063694,0.0,0.0,0.0,0.0,0.0,0.0,-0.0019182246178388596,-0.0013213381171226501,-0.00033051474019885063,0.00042504072189331055,-0.02174200490117073,-9.823018074035645,0.0,0.0,0.0,0.0,-16.577838897705078,3.4649152755737305,59.56736373901367,4.0879998207092285,0.04500000178813934,1.628000020980835,2,31,5089
441034,0.044107484024931254,0.005150862681700482,0.191893671143619,0.0,0.0,0.0,0.0,0.0,0.0,0.00036816252395510674,-0.002084926702082157,-0.0007043329533189535,-0.004427671432495117,-0.01692449301481247,-9.801132202148438,0.0,0.0,0.0,0.0,-16.577838897705078,3.4649152755737305,59.56736373901367,4.0879998207092285,0.04500000178813934,1.628000020980835,2,31,5090
441048,0.058295597864992714,-0.001326473783976136,0.19155564348076948,0.0,0.0,0.0,0.0,0.0,0.0,-0.0007446464151144028,-6.0123391449451447e-05,-0.00021339161321520805,0.002121448516845703,-0.018527932465076447,-9.816106796264648,0.0,0.0,0.0,0.0,-16.577838897705078,3.4649152755737305,59.56736373901367,4.0879998207092285,0.04400000348687172,1.628000020980835,2,31,5091
441052,0.06717457031163823,0.000959137047353893,0.1913400923155174,0.0,0.0,0.0,0.0,0.0,0.0,-0.0009896191768348217,0.00026152003556489944,-0.00043470319360494614,-0.012554973363876343,-0.012080793268978596,-9.812288284301758,0.0,0.0,0.0,0.0,-16.577838897705078,3.4649152755737305,59.56736373901367,4.0879998207092285,0.04400000348687172,1.628000020980835,2,31,5092
441053,0.06717457031163823,0.000959137047353893,0.1913400923155174,0.0,0.0,0.0,0.0,0.0,0.0,-0.0009896191768348217,0.00026152003556489944,-0.00043470319360494614,-0.012554973363876343,-0.012080793268978596,-9.812288284301758,0.0,0.0,0.0,0.0,-16.577838897705078,3.4649152755737305,59.56736373901367,4.0879998207092285,0.04400000348687172,1.628000020980835,2,31,5093
441053,0.0672838399981452,-0.004648860869852736,0.19127124347507515,0.0,0.0,0.0,0.0,0.0,0.0,-0.000989141408354044,0.00025151297450065613,-0.00043470319360494614,-0.012554973363876343,-0.012080793268978596,-9.812288284301758,0.0,0.0,0.0,0.0,-16.577838897705078,3.4649152755737305,59.56736373901367,4.0879998207092285,0.04400000348687172,1.628000020980835,2,31,5094
441057,0.06161905852537249,-0.01239541179774127,0.190969541212831,0.0,0.0,0.0,0.0,0.0,0.0,-0.001435928512364626,-0.0019176872447133064,-7.087155245244503e-05,-0.01265108585357666,-0.0009534154087305069,-9.838398933410645,0.0,0.0,0.0,0.0,-16.577838897705078,3.4649152755737305,59.56736373901367,4.0879998207092285,0.04400000348687172,1.6110000610351562,2,31,5095
441068,0.05318080003285809,-0.027741535353047464,0.1903918432792228,0.0,0.0,0.0,0.0,0.0,0.0,-0.0025087432004511356,0.0011939946562051773,2.6823952794075012e-05,-0.011008650064468384,-0.016394060105085373,-9.795783042907715,0.0,0.0,0.0,0.0,-16.577838897705078,3.4649152755737305,59.56736373901367,4.0879998207092285,0.04400000348687172,1.6110000610351562,2,31,5096
441074,0.04882442000285933,-0.0294666667141048,0.1908094986747985,0.0,0.0,0.0,0.0,0.0,0.0,-0.001487367320805788,-0.00020461902022361755,0.0004114850889891386,0.004832834005355835,-0.0044507356360554695,-9.805761337280273,0.0,0.0,0.0,0.0,-16.577838897705078,3.4649152755737305,59.56736373901367,4.0879998207092285,0.046000003814697266,1.6110000610351562,2,31,5097
441085,0.049223862672332766,-0.029544320095274027,0.19020694792395643,0.0,0.0,0.0,0.0,0.0,0.0,-0.00047862250357866287,-0.0031654024496674538,-0.0015998489689081907,-0.010840833187103271,-0.008396974764764309,-9.827465057373047,0.0,0.0,0.0,0.0,-16.577838897705078,3.4649152755737305,59.56736373901367,4.0879998207092285,0.046000003814697266,1.6110000610351562,2,31,5098
441094,0.05276255766790059,-0.040059883240291284,0.1903246753056466,0.0,0.0,0.0,0.0,0.0,0.0,-0.0022070137783885,-0.0009776651859283447,-0.00021643447689712048,-0.010763794183731079,-0.005286460742354393,-9.795762062072754,0.0,0.0,0.0,0.0,-13.565702438354492,4.212790012359619,59.56736373901367,4.0879998207092285,0.046000003814697266,1.6350001096725464,2,31,5099
441095,0.05276255766790059,-0.040059883240291284,0.1903246753056466,0.0,0.0,0.0,0.0,0.0,0.0,-0.0022070137783885,-0.0009776651859283447,-0.00021643447689712048,-0.010763794183731079,-0.005286460742354393,-9.795762062072754,0.0,0.0,0.0,0.0,-13.565702438354492,4.212790012359619,59.56736373901367,4.0879998207092285,0.046000003814697266,1.6350001096725464,2,31,5100
